~VERSION INFORMATION
VERS.      2.0   :CWLS LOG ASCII STANDARD--VERSION 2.0
WRAP.      NO    :ONE LINE PER DEPTH STEP
~WELL INFORMATION
#MNEM.UNIT              DATA          DESCRIPTION
#================================================
STRT.FT                         50.00000 :START DEPTH
STOP.FT                      11200.00000 :STOP DEPTH
STEP.FT                          0.50000 :STEP
NULL.                         -999.00000 :NULL VALUE
COMP.   Data output from TerraStation II         : COMPANY
WELL.   Awuna 1                                  : WELL NAME
UWI.    50-155-20001                             : WELL UWI
API.    50-155-20001                             : WELL API
LOC.    30   3S  25W                             : WELL LOCATION
DATE.   NorthSlope.W44                           : WELL DATE
FLD.    No Project Selected                      : Project NAME
~CURVE INFORMATION
#================================================
M__DEPTH.FT                  :M__DEPTH
SP      .MV                  :SP
GR      .GAPI                :GR
CALI    .IN                  :CALI
BitSize .IN                  :BitSize
MSFL    .OHMM                :MSFL
LL8     .OHMM                :LL8
ILM     .OHMM                :ILM
ILD     .OHMM                :ILD
NPHI    .%                   :NPHI
RHOB    .G/CC                :RHOB
DT      .US/F                :DT
MudWgt  .LBS/GAL             :MudWgt
~PARAMETER INFORMATION
#================================================
~OTHER INFORMATION
#================================================
~A
# ...
   11160.00000      -2.86523      75.75730       6.61520       6.50000    -999.00000      32.06260      39.03450      39.50400      14.49870       2.62010      55.54370      15.60000
   11160.50000      -2.94281      76.09680       6.61000       6.50000    -999.00000      30.12910      38.75510      34.45290      16.56520       2.61900      57.76070      15.60000
   11161.00000      -3.05688      75.05980       6.60480       6.50000    -999.00000      28.93430      38.19910      30.85250      19.36310       2.63240      58.79930      15.60000
   11161.50000      -2.95895      72.97190       6.59960       6.50000    -999.00000      29.68680      37.64460      31.15090      20.27290       2.64270      57.64520      15.60000
   11162.00000      -2.67062      70.49060       6.59440       6.50000    -999.00000      34.12160      37.45840      32.13420      19.31820       2.66300      54.42330      15.60000
   11162.50000      -2.38220      67.83260       6.58910       6.50000    -999.00000      41.49240      37.76630      34.69500      18.19800       2.67200      52.98360      15.60000
   11163.00000      -2.12390      64.52530       6.58390       6.50000    -999.00000      53.34470      39.29820      38.79750      17.40080       2.68000      51.90330      15.60000
   11163.50000      -1.71915      58.98230       6.57870       6.50000    -999.00000      83.03650      42.17600      43.38500      15.90510       2.67190      49.05240      15.60000
   11164.00000      -1.61954      48.18460       6.57350       6.50000    -999.00000     104.20850      43.85320      44.82040      14.85760       2.68300      50.43240      15.60000
   11164.50000      -1.54062      37.08040       6.56820       6.50000    -999.00000     101.02270      43.83300      43.96180      14.20430       2.67830      51.38240      15.60000
   11165.00000      -1.38248      29.59990       6.56300       6.50000    -999.00000      73.07680      42.48680      42.82370      13.74180       2.68940      52.72880      15.60000
   11165.50000      -1.21524      36.92190       6.56520       6.50000    -999.00000      52.92270      39.22000      39.08910      14.54930       2.70090      56.10530      15.60000
   11166.00000      -1.03833      42.07860       6.56930       6.50000    -999.00000      40.06120      34.70030      35.49330      15.79690       2.70940      56.73850      15.60000
   11166.50000      -0.85126    -999.00000       6.57330       6.50000    -999.00000      34.07950      30.70140      31.66840      16.78720       2.68650      57.44370      15.60000
   11167.00000      -0.66772    -999.00000       6.57740       6.50000    -999.00000      32.25800      27.30840      28.25560      16.72280       2.67890      58.64740      15.60000
   11167.50000      -0.49609    -999.00000       6.58140       6.50000    -999.00000      33.47070      25.09390      26.42640      14.06110       2.67020      59.40990      15.60000
   11168.00000      -0.29306    -999.00000       6.58550       6.50000    -999.00000      32.26530      23.20090      25.84920      11.23510       2.65690      59.54890      15.60000
   11168.50000      -0.06485    -999.00000       6.58950       6.50000    -999.00000      28.79720      23.16840      26.58980      10.86600       2.65470      58.94790      15.60000
   11169.00000       0.16339    -999.00000       6.59010       6.50000    -999.00000      27.64090      24.80870      28.21890      11.03380       2.66230      58.28380      15.60000
   11169.50000       0.36401    -999.00000       6.59040       6.50000    -999.00000      34.45280      28.40880      30.04440      11.20160       2.65850      54.35360      15.60000
   11170.00000       0.35522    -999.00000       6.59070       6.50000    -999.00000      48.33250      32.67610      32.98120      11.00050       2.65280      50.29680      15.60000
   11170.50000       0.19647    -999.00000       6.59100       6.50000    -999.00000      64.53080      37.58450      36.63660      10.79270       2.65370      48.46630      15.60000
   11171.00000      -0.02011    -999.00000       6.59130       6.50000    -999.00000      87.27160      39.51740      40.56410      10.67170       2.67540      47.31670      15.60000
   11171.50000      -0.22101    -999.00000       6.59160       6.50000    -999.00000     111.06280      38.84700      41.22210      10.38310       2.70750      48.59970      15.60000
   11172.00000      -0.21005    -999.00000       6.59190       6.50000    -999.00000      96.65430      35.71350      39.25970       9.61390       2.68120      51.57990      15.60000
   11172.50000      -0.19733    -999.00000       6.59220       6.50000    -999.00000      66.50760      32.22950      36.95500    -999.00000       2.65390      54.47350      15.60000
   11173.00000      -0.13400    -999.00000       6.59250       6.50000    -999.00000      44.50730      29.08540      35.93930    -999.00000       2.64660      58.15050      15.60000
   11173.50000       0.00000    -999.00000       6.59280       6.50000    -999.00000      32.39650      27.67550      35.60710    -999.00000       2.65020      59.21940      15.60000
   11174.00000       0.30017    -999.00000       6.59170       6.50000    -999.00000      26.61350      26.34090      35.53350    -999.00000       2.65680      57.34380      15.60000
   11174.50000       0.43369    -999.00000       6.58830       6.50000    -999.00000      31.11370      29.91750      35.86240    -999.00000       2.64880      54.89100      15.60000
   11175.00000       0.56738    -999.00000       6.58500       6.50000    -999.00000      46.56690      34.43060      36.22600    -999.00000       2.62680      51.92440      15.60000
   11175.50000       0.70093    -999.00000       6.58170       6.50000    -999.00000      80.47860      36.35620      36.59570    -999.00000       2.60970      50.72620      15.60000
   11176.00000       0.83447    -999.00000       6.57830       6.50000    -999.00000      99.01380      36.35180      36.96910    -999.00000       2.57930      51.26880      15.60000
   11176.50000       0.96802    -999.00000       6.57500       6.50000    -999.00000      79.50750      35.06240      36.61470    -999.00000       2.55750      51.90440      15.60000
   11177.00000       1.00967    -999.00000       6.57160       6.50000    -999.00000      63.03880      32.51580      35.98580    -999.00000       2.55680      54.16400      15.60000
   11177.50000       1.00522    -999.00000       6.56830       6.50000    -999.00000      50.33450      29.85880      35.18680    -999.00000       2.56450      56.67660      15.60000
   11178.00000       1.00067    -999.00000       6.56490       6.50000    -999.00000      37.78030      27.41890      34.09170    -999.00000       2.60500      58.17700      15.60000
   11178.50000       0.99625    -999.00000       6.54900       6.50000    -999.00000      28.64220      26.86570      32.91370    -999.00000       2.63800      58.17470      15.60000
   11179.00000       0.99167    -999.00000       6.53210       6.50000    -999.00000      29.19750      28.25190      31.76550    -999.00000       2.65410      55.25590      15.60000
   11179.50000       0.98663    -999.00000       6.51530       6.50000    -999.00000      39.52330      28.69900      30.65730    -999.00000       2.65730      53.42350      15.60000
   11180.00000       0.87320    -999.00000       6.49840       6.50000    -999.00000      52.05240      28.36050      29.58780    -999.00000       2.64910      52.57030      15.60000
   11180.50000       0.77127    -999.00000       6.48160       6.50000    -999.00000      55.94510      27.69090      28.55560    -999.00000       2.63230      52.87150      15.60000
   11181.00000       0.66971    -999.00000       6.46470       6.50000    -999.00000      48.33630      26.63800      27.74420    -999.00000       2.65210      55.07200      15.60000
   11181.50000       0.39389    -999.00000       6.44790       6.50000    -999.00000      41.21140      25.27870      26.76630    -999.00000       2.67350      56.90050      15.60000
