~VERSION INFORMATION
VERS.      2.0   :CWLS LOG ASCII STANDARD--VERSION 2.0
WRAP.      NO    :ONE LINE PER DEPTH STEP
~WELL INFORMATION
#MNEM.UNIT              DATA          DESCRIPTION
#================================================
STRT.FT                         50.00000 :START DEPTH
STOP.FT                      11200.00000 :STOP DEPTH
STEP.FT                          0.50000 :STEP
NULL.                         -999.00000 :NULL VALUE
COMP.   Data output from TerraStation II         : COMPANY
WELL.   Awuna 1                                  : WELL NAME
UWI.    50-155-20001                             : WELL UWI
API.    50-155-20001                             : WELL API
LOC.    30   3S  25W                             : WELL LOCATION
DATE.   NorthSlope.W44                           : WELL DATE
FLD.    No Project Selected                      : Project NAME
~CURVE INFORMATION
#================================================
M__DEPTH.FT                  :M__DEPTH
SP      .MV                  :SP
GR      .GAPI                :GR
CALI    .IN                  :CALI
BitSize .IN                  :BitSize
MSFL    .OHMM                :MSFL
LL8     .OHMM                :LL8
ILM     .OHMM                :ILM
ILD     .OHMM                :ILD
NPHI    .%                   :NPHI
RHOB    .G/CC                :RHOB
DT      .US/F                :DT
MudWgt  .LBS/GAL             :MudWgt
~PARAMETER INFORMATION
#================================================
~OTHER INFORMATION
#================================================
~A
# ...
    5264.00000      -2.05472      74.52440      19.20180      17.50000    -999.00000      15.29150      16.59770      19.23260      33.26060       2.14220      87.80030      10.90000
    5264.50000      -2.36124      72.88520      19.65190      17.50000    -999.00000      15.49920      16.45080      19.18210      34.44540       2.16340      92.50470      10.90000
    5265.00000      -2.69656      71.47370      18.73970      17.50000    -999.00000      15.75060      16.30510      19.13170      36.53060       2.26320      94.14710      10.90000
    5265.50000      -2.90155      72.19930      18.59150      17.50000    -999.00000      16.00620      16.16070      19.08140      36.98080       2.35380      95.78680      10.90000
    5266.00000      -3.06558      74.04290      19.05750      17.50000    -999.00000      16.24270      16.01760      19.03130      36.15360       2.36100      94.87170      10.90000
    5266.50000      -3.38611      74.64250      19.93270      17.50000    -999.00000      16.37010      15.87580      18.98120      35.44990       2.35450      91.89500      10.90000
    5267.00000      -4.00671      74.23150      20.04720      17.50000    -999.00000      16.49860      15.73520      18.93140      36.04540       2.26980      91.84820      10.90000
    5267.50000      -4.41632    -999.00000      19.66100      17.50000    -999.00000      16.62800      15.62790      19.16810      37.25190       2.28180      95.04020      10.90000
    5268.00000      -5.15195    -999.00000      19.09480      17.50000    -999.00000      16.75840      15.58100      19.46690      39.13730       2.29220      95.43550      10.90000
    5268.50000      -5.79654    -999.00000      18.57030      17.50000    -999.00000      16.88990      15.53430      19.77040      41.21820       2.26410      93.71440      10.90000
    5269.00000      -5.82526    -999.00000      18.19810      17.50000    -999.00000      17.08910      15.48770      20.07850      43.59020       2.32520      87.03040      10.90000
    5269.50000      -6.07947    -999.00000      18.63590      17.50000    -999.00000      17.58050      15.69290      20.31580      44.83250       2.40140      80.39370      10.90000
    5270.00000      -6.48380    -999.00000      19.30180      17.50000    -999.00000      18.08610      15.94880      20.21210      44.81240       2.35400      89.38810      10.90000
    5270.50000      -6.25861    -999.00000      19.17050      17.50000    -999.00000      18.60620      16.20890      20.10890      44.79240       2.40190     101.44760      10.90000
    5271.00000      -6.20370    -999.00000      18.90080      17.50000    -999.00000      18.92110      16.13140      20.00620      44.77230       2.45600     103.85450      10.90000
    5271.50000      -6.49420    -999.00000      19.15430      17.50000    -999.00000      18.87090      16.02980      19.90410      44.08340       2.48580      98.66310      10.90000
    5272.00000      -6.51013    -999.00000      19.18640      17.50000    -999.00000      18.77560      15.92890      19.80240      43.79120       2.54190      96.61570      10.90000
    5272.50000      -6.52493    -999.00000      18.63060      17.50000    -999.00000      18.54080      15.82860      19.70130      43.80610       2.54490      94.33610      10.90000
    5273.00000      -7.21545    -999.00000      18.12250      17.50000    -999.00000      18.30910      15.72890      19.64560      43.61500       2.51480      88.94140      10.90000
    5273.50000      -7.96127    -999.00000      18.72880      17.50000    -999.00000      18.08020      15.62980      19.67540      42.35140       2.51700      89.29490      10.90000
    5274.00000      -8.19897    -999.00000      18.12620      17.50000    -999.00000      17.85410      15.53140      19.70520      40.96800       2.52010      87.26530      10.90000
    5274.50000      -8.45218    -999.00000      17.88190      17.50000    -999.00000      17.63100      16.00210      19.73510      40.70750       2.54690      87.50050      10.90000
    5275.00000      -9.19080    -999.00000      17.94390      17.50000    -999.00000      17.74270      16.49000      19.76500      40.23720       2.54800      91.54230      10.90000
    5275.50000      -9.51453    -999.00000      17.72990      17.50000    -999.00000      18.34710      16.85250      19.79500      39.35040       2.51890      92.74210      10.90000
    5276.00000      -9.72382    -999.00000      17.59930      17.50000    -999.00000      18.97200      17.04180      20.14700      39.64300       2.50100      87.89360      10.90000
    5276.50000     -10.34213    -999.00000      17.74320      17.50000    -999.00000      19.61550      17.23320      20.83710      39.78450       2.45940      87.53560      10.90000
    5277.00000     -11.09793    -999.00000      17.88720      17.50000    -999.00000      19.56930      17.38620      21.42060    -999.00000       2.38580      84.17510      10.90000
    5277.50000     -11.36337    -999.00000      17.65640      17.50000    -999.00000      19.52330      17.41510      21.13720    -999.00000       2.35240      82.34240      10.90000
    5278.00000     -11.62878    -999.00000      17.31940      17.50000    -999.00000      19.47730      17.36970      20.85750    -999.00000       2.32800      82.94240      10.90000
    5278.50000     -11.89420    -999.00000      16.97850      17.50000    -999.00000      19.37070      17.32450      20.58160    -999.00000       2.34790      81.64730      10.90000
    5279.00000     -12.15240    -999.00000      16.97880      17.50000    -999.00000      19.24100      17.27930      20.30930    -999.00000       2.39000      82.09220      10.90000
    5279.50000     -12.28009    -999.00000      17.13750      17.50000    -999.00000      19.11220      17.23430      20.04060    -999.00000       2.37870      82.69640      10.90000
    5280.00000     -12.40781    -999.00000      17.05230      17.50000    -999.00000      18.98420      17.18940      19.99130    -999.00000       2.39530      83.70520      10.90000
    5280.50000     -12.53561    -999.00000      17.18380      17.50000    -999.00000      19.13020      17.67710      20.07860    -999.00000       2.44310      84.61470      10.90000
    5281.00000     -12.66336    -999.00000      17.32810      17.50000    -999.00000      19.43360      18.35450      20.16620    -999.00000       2.47700      84.47620      10.90000
    5281.50000     -12.78967    -999.00000      17.52470      17.50000    -999.00000      19.74180      18.22770      20.25430    -999.00000       2.51350      83.82070      10.90000
    5282.00000     -12.91489    -999.00000      17.72140      17.50000    -999.00000      20.05490      18.10170      20.34270    -999.00000       2.54230      82.99120      10.90000
    5282.50000     -13.04160    -999.00000      17.69470      17.50000    -999.00000      20.37290      17.97670      20.87250    -999.00000       2.53900      82.34030      10.90000
    5283.00000     -13.48529    -999.00000      17.88920      17.50000    -999.00000      20.70480      18.03230      21.52520    -999.00000       2.51310      82.27150      10.90000
    5283.50000     -13.88730    -999.00000      18.03550      17.50000    -999.00000      21.14050      18.56920      22.19840    -999.00000       2.49770      82.87150      10.90000
    5284.00000     -14.17801    -999.00000      17.46100      17.50000    -999.00000      21.58540      19.12200      22.89270    -999.00000       2.49700      83.84340      10.90000
    5284.50000     -14.62952      45.97660      17.22120      17.50000    -999.00000      22.03970      19.68570      22.99550    -999.00000       2.50340      84.77390      10.90000
    5285.00000     -15.66473      45.47470      17.54480      17.50000    -999.00000      23.75990      20.26490      23.04180    -999.00000       2.52490      84.26020      10.90000
    5285.50000     -16.50266      45.86740      17.58670      17.50000    -999.00000      25.73750      20.29670      23.08810    -999.00000       2.55520      82.83350      10.90000
