~VERSION INFORMATION
VERS.      2.0   :CWLS LOG ASCII STANDARD--VERSION 2.0
WRAP.      NO    :ONE LINE PER DEPTH STEP
~WELL INFORMATION
#MNEM.UNIT              DATA          DESCRIPTION
#================================================
STRT.FT                         50.00000 :START DEPTH
STOP.FT                      11200.00000 :STOP DEPTH
STEP.FT                          0.50000 :STEP
NULL.                         -999.00000 :NULL VALUE
COMP.   Data output from TerraStation II         : COMPANY
WELL.   Awuna 1                                  : WELL NAME
UWI.    50-155-20001                             : WELL UWI
API.    50-155-20001                             : WELL API
LOC.    30   3S  25W                             : WELL LOCATION
DATE.   NorthSlope.W44                           : WELL DATE
FLD.    No Project Selected                      : Project NAME
~CURVE INFORMATION
#================================================
M__DEPTH.FT                  :M__DEPTH
SP      .MV                  :SP
GR      .GAPI                :GR
CALI    .IN                  :CALI
BitSize .IN                  :BitSize
MSFL    .OHMM                :MSFL
LL8     .OHMM                :LL8
ILM     .OHMM                :ILM
ILD     .OHMM                :ILD
NPHI    .%                   :NPHI
RHOB    .G/CC                :RHOB
DT      .US/F                :DT
MudWgt  .LBS/GAL             :MudWgt
~PARAMETER INFORMATION
#================================================
~OTHER INFORMATION
#================================================
~A
# ...
    4516.00000      -4.69357      75.38480      20.00110      17.50000    -999.00000      20.82440      21.27110      24.35970      25.76470       2.62210      77.09080      10.20000
    4516.50000      -4.73926      76.20820      20.00100      17.50000    -999.00000      20.80070      21.43960      26.62950      25.74430       2.61290      70.35710      10.20000
    4517.00000      -4.78497      74.85890      20.00090      17.50000    -999.00000      20.77690      21.60940      25.90310      26.06120       2.60490      70.58290      10.20000
    4517.50000      -4.83069      72.18390      20.00080      17.50000    -999.00000      20.75330      21.52400      25.19650      26.59790       2.59840      72.74930      10.20000
    4518.00000      -4.87637      71.24130      20.00070      17.50000    -999.00000      20.68770      21.39730      24.46620      27.10490       2.61640      73.46300      10.20000
    4518.50000      -4.95908      72.26050      20.00070      17.50000    -999.00000      20.57450      21.27150      23.65610      27.18000       2.63630      74.00090      10.20000
    4519.00000      -5.18268      73.19880      20.00060      17.50000    -999.00000      20.46190      21.14630      22.87290      26.49170       2.62700      74.18380      10.20000
    4519.50000      -5.40628      73.63820      20.00050      17.50000    -999.00000      20.41590      20.92200      22.11560      26.44920       2.59650      74.29030      10.20000
    4520.00000      -5.62988      73.95470      20.00040      17.50000    -999.00000      19.83550      20.65580      21.48030      26.96190       2.57010      74.14350      10.20000
    4520.50000      -5.88818      74.25760      20.00030      17.50000    -999.00000      18.87520      19.54000      21.25810      27.43860       2.56800      74.05710      10.20000
    4521.00000      -6.40356      74.84100      20.00020      17.50000    -999.00000      17.96130      19.12460      21.03820      28.31860       2.55540      73.29880      10.20000
    4521.50000      -6.91898      76.69860      20.00010      17.50000    -999.00000      17.09170      18.73650      20.82060      29.22670       2.53160      73.23050      10.20000
    4522.00000      -7.09506      78.45250      20.00000      17.50000    -999.00000      16.53620      18.35620      20.60520      30.42450       2.48970      73.86350      10.20000
    4522.50000      -7.34457      78.59710      19.99990      17.50000    -999.00000      16.62090      18.34430      20.54490      31.28490       2.50940      74.70560      10.20000
    4523.00000      -7.88806      77.79200      19.99980      17.50000    -999.00000      17.11670      18.59880      20.70070      31.37000       2.51820      76.04560      10.20000
    4523.50000      -8.43158      77.50290      19.99980      17.50000    -999.00000      17.62730      18.85700      20.85760      30.50540       2.54480      77.18730      10.20000
    4524.00000      -8.95416      77.94230      19.99970      17.50000    -999.00000      18.15320      19.11870      21.01570      29.37290       2.56210      77.70730      10.20000
    4524.50000      -9.22046      78.47110      19.99960      17.50000    -999.00000      18.40750      19.38400      21.17500      28.25150       2.58820      77.94630      10.20000
    4525.00000      -9.70847      78.01940      19.99950      17.50000    -999.00000      18.64150      19.65300      21.35370      27.85910       2.59480      77.54870      10.20000
    4525.50000     -10.05225      77.60020      19.99940      17.50000    -999.00000      18.87860      20.29670      21.66110      27.84650       2.59130      76.64330      10.20000
    4526.00000     -10.07468      77.59710      19.99930      17.50000    -999.00000      18.99540      21.06020      22.79090      27.91390       2.58640      75.93790      10.20000
    4526.50000     -10.09695      77.03880      19.99920      17.50000    -999.00000      19.11040      21.85250      24.32330      28.07060       2.57870      75.28920      10.20000
    4527.00000     -10.35309      75.85400      19.99910      17.50000    -999.00000      19.22600      22.67450      25.45140      27.87170       2.57690      75.14570      10.20000
    4527.50000      -9.93225      75.73510      19.99900      17.50000    -999.00000      19.42470      23.49280      25.99010      27.30990       2.58350      75.19120      10.20000
    4528.00000     -10.07776      75.41260      19.99890      17.50000    -999.00000      19.69070      24.19960      26.54020      27.70450       2.60090      74.86540      10.20000
    4528.50000     -10.51398      73.90550      19.99880      17.50000    -999.00000      19.96030      24.92780      27.29320      28.08810       2.62190      74.23250      10.20000
    4529.00000     -10.44876      72.15310      19.99870      17.50000    -999.00000      20.07090      25.67790      28.21440      28.23590       2.62400      73.95860      10.20000
    4529.50000     -10.34625      71.10290      19.99870      17.50000    -999.00000      20.07280      26.54230      29.16660      28.49120       2.61280      73.98030      10.20000
    4530.00000     -10.75977      69.49790      19.99860      17.50000    -999.00000      20.09890      27.61330      30.15100      28.15090       2.59220      74.29770      10.20000
    4530.50000     -11.46417      68.09470      19.99850      17.50000    -999.00000      20.12510      28.72750      31.16860      27.11900       2.56590      74.44810      10.20000
    4531.00000     -11.21686      67.09460      19.99840      17.50000    -999.00000      20.15120      29.88660      32.22060      26.28620       2.53640      74.59860      10.20000
    4531.50000     -11.79446      66.57090      19.99830      17.50000    -999.00000      20.17740      30.68230      32.34240      25.57290       2.46540      74.74870      10.20000
    4532.00000     -12.06094      68.78490      19.99820      17.50000    -999.00000      20.39030      31.08600      32.06720      24.47200       2.45970      75.27010      10.20000
    4532.50000     -11.92487      72.98560      19.99810      17.50000    -999.00000      20.60080      29.88980      30.75870      23.88910       2.42970      74.33320      10.20000
    4533.00000     -11.02246      77.29860      19.99800      17.50000    -999.00000      20.10040      28.73960      29.50350      23.48710       2.46240      73.59430      10.20000
    4533.50000      -9.79407      80.89570      19.99790      17.50000    -999.00000      20.17910      27.22330      28.07690      24.00710       2.56490      71.96990      10.20000
    4534.00000      -9.16055      82.34450      19.99780      17.50000    -999.00000      19.98800      25.54080      26.67300      24.72740       2.61350      72.42610      10.20000
    4534.50000      -8.18057      83.31970      19.99770      17.50000    -999.00000      19.79880      23.75840      25.33940      25.30480       2.61320      72.18270      10.20000
    4535.00000      -7.74396      83.14060      19.99770      17.50000    -999.00000      19.16650      21.04260      24.07250      26.81140       2.60190      72.57540      10.20000
    4535.50000      -7.28357      81.07210      19.99760      17.50000    -999.00000      18.48650      19.56630      23.89100      28.63720       2.60050      75.33520      10.20000
    4536.00000      -7.02267      77.98250      19.99750      17.50000    -999.00000      19.61130      20.73380      23.73910      29.21920       2.61520      75.44660      10.20000
    4536.50000      -6.76175      74.69990      19.99740      17.50000    -999.00000      21.11000      22.10420      23.58810      28.70300       2.62380      77.75350      10.20000
    4537.00000      -6.50085      74.46270      19.99730      17.50000    -999.00000      22.09130      22.82830      25.19170      28.16120       2.58900      80.24430      10.20000
    4537.50000      -6.23996      75.15250      19.99720      17.50000    -999.00000      22.99960      23.57610      26.92300      27.64540       2.59140      80.41910      10.20000
