~VERSION INFORMATION
VERS.      2.0   :CWLS LOG ASCII STANDARD--VERSION 2.0
WRAP.      NO    :ONE LINE PER DEPTH STEP
~WELL INFORMATION
#MNEM.UNIT              DATA          DESCRIPTION
#================================================
STRT.FT                         50.00000 :START DEPTH
STOP.FT                      11200.00000 :STOP DEPTH
STEP.FT                          0.50000 :STEP
NULL.                         -999.00000 :NULL VALUE
COMP.   Data output from TerraStation II         : COMPANY
WELL.   Awuna 1                                  : WELL NAME
UWI.    50-155-20001                             : WELL UWI
API.    50-155-20001                             : WELL API
LOC.    30   3S  25W                             : WELL LOCATION
DATE.   NorthSlope.W44                           : WELL DATE
FLD.    No Project Selected                      : Project NAME
~CURVE INFORMATION
#================================================
M__DEPTH.FT                  :M__DEPTH
SP      .MV                  :SP
GR      .GAPI                :GR
CALI    .IN                  :CALI
BitSize .IN                  :BitSize
MSFL    .OHMM                :MSFL
LL8     .OHMM                :LL8
ILM     .OHMM                :ILM
ILD     .OHMM                :ILD
NPHI    .%                   :NPHI
RHOB    .G/CC                :RHOB
DT      .US/F                :DT
MudWgt  .LBS/GAL             :MudWgt
~PARAMETER INFORMATION
#================================================
~OTHER INFORMATION
#================================================
~A
# ...
   10434.00000      -4.46384      62.02020       6.58130       6.50000    -999.00000      36.88720      27.17110      28.12020      19.79890       2.63420      54.67970      15.80000
   10434.50000      -4.40222      61.62950       6.57930       6.50000    -999.00000      37.51970      28.21330      28.56380      19.66410       2.67110      54.61690      15.80000
   10435.00000      -4.29340      63.00090       6.57740       6.50000    -999.00000      44.44440      27.62950      30.05530      18.09540       2.67950      55.06060      15.80000
   10435.50000      -4.14548      63.03270       6.57550       6.50000    -999.00000      46.18290      24.17040      32.12680      17.76290       2.65690      57.04510      15.80000
   10436.00000      -3.94968      60.09780       6.57360       6.50000    -999.00000      36.71820      26.49760      34.34110      17.88550       2.64480      56.53640      15.80000
   10436.50000      -3.72775      57.62990       6.56730       6.50000    -999.00000      31.19180      30.65880      35.72370      17.50460       2.65120      52.81670      15.80000
   10437.00000      -3.61011      58.12680       6.57820       6.50000    -999.00000      41.15240      33.75600      35.48300      15.82400       2.65760      48.80900      15.80000
   10437.50000      -3.77219      61.58360       6.58090       6.50000    -999.00000      74.15470      33.83470      34.81240      14.57350       2.66810      48.60480      15.80000
   10438.00000      -3.93439      65.75250       6.58360       6.50000    -999.00000      99.57890      32.76870      34.13830      14.50440       2.67590      50.78930      15.80000
   10438.50000      -4.08603      68.37580       6.58620       6.50000    -999.00000      69.06900      29.89190      33.23440      15.92370       2.66290      53.33080      15.80000
   10439.00000      -4.22623      68.83280       6.58890       6.50000    -999.00000      45.08770      27.69430      32.40280      17.69350       2.65490      56.80500      15.80000
   10439.50000      -4.36639      68.10310       6.59160       6.50000    -999.00000      35.31860      24.87560      31.59210      20.15610       2.65250      57.18210      15.80000
   10440.00000      -4.41516      65.83300       6.59430       6.50000    -999.00000      30.03910      24.25540      30.80160      21.09360       2.65570      56.94110      15.80000
   10440.50000      -4.42044      63.05250       6.59700       6.50000    -999.00000      27.54840      26.59330      29.95090      21.65840       2.66170      56.48380      15.80000
   10441.00000      -4.42453      62.46780       6.59940       6.50000    -999.00000      30.45070      28.37320      29.08460      21.22030       2.66350      54.20520      15.80000
   10441.50000      -4.49271      61.78740       6.60130       6.50000    -999.00000      41.52260      28.45060      28.96380      20.16980       2.65580      55.25890      15.80000
   10442.00000      -4.63278      59.99150       6.60310       6.50000    -999.00000      47.60630      27.09620      30.16510      19.57830       2.65460      55.44550      15.80000
   10442.50000      -4.77286      57.75580       6.60490       6.50000    -999.00000      42.21450      28.00030      32.45710      19.43480       2.64630      53.78360      15.80000
   10443.00000      -4.91293      56.04420       6.60680       6.50000    -999.00000      33.79770      33.43640      34.92330      19.02690       2.67360      52.63520      15.80000
   10443.50000      -5.05301      55.24890       6.60860       6.50000    -999.00000      42.12820      36.59630      37.57680      17.77270       2.69030      49.94330      15.80000
   10444.00000      -5.19318      56.12920       6.61040       6.50000    -999.00000      62.40210      37.83490      38.63000      16.01800       2.69870      48.98410      15.80000
   10444.50000      -5.30667      58.12560       6.61230       6.50000    -999.00000      77.66640      37.77030      38.57330      15.26350       2.70390      50.36800      15.80000
   10445.00000      -5.37042      62.37480       6.61410       6.50000    -999.00000      71.52000      36.33430      36.64580      15.93560       2.68970      51.17840      15.80000
   10445.50000      -5.43420      69.02340       6.61590       6.50000    -999.00000      63.93080      33.01370      33.82140      16.99180       2.67860      52.80940      15.80000
   10446.00000      -5.49799      72.98270       6.61780       6.50000    -999.00000      54.27580      28.50490      31.21460      17.96130       2.66040      56.02060      15.80000
   10446.50000      -5.56174      75.16380       6.61960       6.50000    -999.00000      43.96260      24.62150      28.80870      19.94470       2.64490      59.02980      15.80000
   10447.00000      -5.62552      75.02920       6.62140       6.50000    -999.00000      33.06180      22.41370      26.80750      22.29270       2.65420      60.70970      15.80000
   10447.50000      -5.56210      73.23490       6.62370       6.50000    -999.00000      24.89290      21.58600      24.99940      24.33300       2.66150      60.32250      15.80000
   10448.00000      -5.48587      70.64940       6.62670       6.50000    -999.00000      21.79320      21.47500      23.65310      24.64840       2.66760      58.84390      15.80000
   10448.50000      -5.36505      68.55210       6.62980       6.50000    -999.00000      24.20900      21.32730      22.97200      23.83820       2.66400      58.80620      15.80000
   10449.00000      -5.23685      66.26970       6.63280       6.50000    -999.00000      28.39170      20.68700      23.39760      22.84480       2.64440      58.84020      15.80000
   10449.50000      -5.10852      61.74620       6.63590       6.50000    -999.00000      29.06380      21.03460      25.08270      21.90390       2.62160      57.58930      15.80000
   10450.00000      -4.98032      57.92900       6.63890       6.50000    -999.00000      29.40270      23.38900      26.99240      20.45920       2.63700      54.50970      15.80000
   10450.50000      -4.85199      59.09240       6.64190       6.50000    -999.00000      35.19750      25.56530      29.04740      18.58860       2.68120      50.53820      15.80000
   10451.00000      -4.72415      65.05700       6.64500       6.50000    -999.00000      57.33220      27.35110      29.51660      16.39580       2.68030      47.71220      15.80000
   10451.50000      -4.59802      74.41500       6.64780       6.50000    -999.00000     108.91420      26.53320      26.84640      15.16540       2.65180      51.97200      15.80000
   10452.00000      -4.47202      79.68650       6.65070       6.50000    -999.00000      89.90420      23.16320      24.97820      16.53120       2.64480      59.11180      15.80000
   10452.50000      -4.34589      80.30620       6.65360       6.50000    -999.00000      43.46300      19.96760      24.40220      19.46370       2.62300      63.68810      15.80000
   10453.00000      -4.21976      74.88320       6.65640       6.50000    -999.00000      26.07470      17.38540      24.16720      23.07790       2.61480      64.16420      15.80000
   10453.50000      -4.09363      65.04750       6.65930       6.50000    -999.00000      19.47520      17.02360      24.09820      26.27970       2.63180      62.14700      15.80000
   10454.00000      -3.96750      57.59290       6.66210       6.50000    -999.00000      19.00740      20.42040      24.59960      25.18680       2.66190      58.83620      15.80000
   10454.50000      -3.84149      55.03130       6.66500       6.50000    -999.00000      24.21870      24.06060      25.12440      22.78010       2.69600      53.42670      15.80000
   10455.00000      -3.71536      56.00910       6.66790       6.50000    -999.00000      40.13480      25.74430      26.43060      17.70160       2.70190      48.88910      15.80000
   10455.50000      -3.62695      61.73640       6.67070       6.50000    -999.00000     104.97140      26.35200      28.59090      14.98880       2.67190      49.49700      15.80000
