~VERSION INFORMATION
VERS.      2.0   :CWLS LOG ASCII STANDARD--VERSION 2.0
WRAP.      NO    :ONE LINE PER DEPTH STEP
~WELL INFORMATION
#MNEM.UNIT              DATA          DESCRIPTION
#================================================
STRT.FT                         50.00000 :START DEPTH
STOP.FT                      11200.00000 :STOP DEPTH
STEP.FT                          0.50000 :STEP
NULL.                         -999.00000 :NULL VALUE
COMP.   Data output from TerraStation II         : COMPANY
WELL.   Awuna 1                                  : WELL NAME
UWI.    50-155-20001                             : WELL UWI
API.    50-155-20001                             : WELL API
LOC.    30   3S  25W                             : WELL LOCATION
DATE.   NorthSlope.W44                           : WELL DATE
FLD.    No Project Selected                      : Project NAME
~CURVE INFORMATION
#================================================
M__DEPTH.FT                  :M__DEPTH
SP      .MV                  :SP
GR      .GAPI                :GR
CALI    .IN                  :CALI
BitSize .IN                  :BitSize
MSFL    .OHMM                :MSFL
LL8     .OHMM                :LL8
ILM     .OHMM                :ILM
ILD     .OHMM                :ILD
NPHI    .%                   :NPHI
RHOB    .G/CC                :RHOB
DT      .US/F                :DT
MudWgt  .LBS/GAL             :MudWgt
~PARAMETER INFORMATION
#================================================
~OTHER INFORMATION
#================================================
~A
# ...
    8190.00000      -2.50934      54.14370      19.49320      12.25000    -999.00000      26.30370      23.61320      43.27850      21.74850       2.56120      52.02430      15.90000
    8190.50000      -2.69995      53.36620      18.03210      12.25000    -999.00000      24.48720      26.06220      49.45190      22.01180       2.59800      61.47890      15.90000
    8191.00000      -2.89053      51.91120      18.44770      12.25000    -999.00000      23.23130      29.93330      49.73650      21.98600       2.60820      73.94960      15.90000
    8191.50000      -3.08112      50.68270      19.60480      12.25000    -999.00000      22.10770      41.72380      42.48440      22.19740       2.56110      67.24410      15.90000
    8192.00000      -3.01514      48.95590      20.02540      12.25000    -999.00000      20.99180      63.24690      34.70830      22.86810       2.44890      79.62930      15.90000
    8192.50000      -2.94693      49.68480      20.02490      12.25000    -999.00000      19.89300      31.99810      27.02340      23.82740       2.42040      77.23730      15.90000
    8193.00000      -2.93344      54.54190      20.02440      12.25000    -999.00000      18.40910      19.91480      22.07040      25.02470       2.56210      75.80540      15.90000
    8193.50000      -3.06314      59.05990      19.51070      12.25000    -999.00000      15.91930      15.98030      20.40340      25.77640       2.69310      84.68940      15.90000
    8194.00000      -3.16293      61.15810      19.67230      12.25000    -999.00000      13.91210      13.45110      20.64640      23.07090       2.70820      53.26350      15.90000
    8194.50000      -3.17343      62.12940      19.99040      12.25000    -999.00000      12.15790      11.71760      21.66150      18.83260       2.63340      51.45070      15.90000
    8195.00000      -3.18402      61.89160      19.98990      12.25000    -999.00000      10.98690      16.06490      22.32500      16.28820       2.56250      50.03300      15.90000
    8195.50000      -3.19464      61.74250      19.98940      12.25000    -999.00000      10.44180      34.26590      22.47130      16.73870       2.53100      49.55870      15.90000
    8196.00000      -3.20526      61.36110      19.46050      12.25000    -999.00000      11.57640      80.87890      20.55210      17.37620       2.50370      50.25250      15.90000
    8196.50000      -3.21582      59.97160      20.01960      12.25000    -999.00000      12.83430      87.85630      18.79680      18.01590       2.49800      51.84500      15.90000
    8197.00000      -3.14703      60.19040      20.01490      12.25000    -999.00000      13.80350      34.47900      18.21550      19.23050       2.48960      53.15770      15.90000
    8197.50000      -3.00064      63.47660      20.01030      12.25000    -999.00000      13.49350      23.49810      21.58970      20.13090       2.51020      57.57710      15.90000
    8198.00000      -2.85425      66.05730      19.32800      12.25000    -999.00000      12.41690      20.89760      25.58890      21.28930       2.59710      56.27220      15.90000
    8198.50000      -2.91077      66.93610      18.29190      12.25000    -999.00000      11.59790      20.59790      30.32900      21.62260       2.63550      57.04360      15.90000
    8199.00000      -2.97403      65.97170      17.56950      12.25000    -999.00000      11.34270      20.44380      31.34230      21.65480       2.60730      57.44240      15.90000
    8199.50000      -2.98264      65.83410      17.21690      12.25000    -999.00000      11.37310      19.75430      27.98750      21.79760       2.60170      57.59440      15.90000
    8200.00000      -2.81183      65.60900      16.77180      12.25000    -999.00000      11.62820      24.72960      23.04740      21.88250       2.60270      57.57030      15.90000
    8200.50000      -2.72534      65.21110      16.46810      12.25000    -999.00000      11.86370      29.86210      19.93600      21.97090       2.61580      56.90110      15.90000
    8201.00000      -2.63885      63.29580      16.29320      12.25000    -999.00000      11.58880      29.93530      18.79680      22.01850       2.62540      56.35510      15.90000
    8201.50000      -2.79645      61.42670      16.15030      12.25000    -999.00000      11.23320      26.42920      18.13380      21.91400       2.63150      57.08590      15.90000
    8202.00000      -2.83463      59.60200      16.01730      12.25000    -999.00000      11.31740      22.53020      19.53200      21.25020       2.64930      58.26280      15.90000
    8202.50000      -2.58383      57.66060      16.05560      12.25000    -999.00000      11.59660      20.75020      21.03810      20.30540       2.63710      59.84530      15.90000
    8203.00000      -2.50345      56.40860      16.45420      12.25000    -999.00000      11.74060      21.36110      19.83170      19.90930       2.58330      62.78910      15.90000
    8203.50000      -2.59595      53.95260      16.86650      12.25000    -999.00000      11.76390      22.52890      21.82510      21.14400       2.54150      63.75130      15.90000
    8204.00000      -2.17316      52.01270      17.40460      12.25000    -999.00000      11.78710      20.61120      21.23420      23.42200       2.48410      64.96120      15.90000
    8204.50000      -1.99854      50.17450      17.41680      12.25000    -999.00000      11.81050      17.42530      19.75000      26.46880       2.44780      66.35060      15.90000
    8205.00000      -1.95966      49.78120      17.75600      12.25000    -999.00000      11.83390      14.29860      17.90880      28.63420       2.44110      64.80430      15.90000
    8205.50000      -1.90756      52.26820      17.79630      12.25000    -999.00000      11.77680      11.85020      16.86750      28.86830       2.44430      67.39810      15.90000
    8206.00000      -1.85004      58.01560      17.41810      12.25000    -999.00000      11.60490       9.82100      16.62530      27.88180       2.45470      69.09660      15.90000
    8206.50000      -1.79257      65.41790      16.67610      12.25000    -999.00000      11.38920       8.57570      16.33190      26.80920       2.53440      66.22040      15.90000
    8207.00000      -1.77841      66.77960      16.04290      12.25000    -999.00000      10.89510       9.10970      16.04130      24.36260       2.63490      60.86650      15.90000
    8207.50000      -1.81543      66.76850      15.62670      12.25000    -999.00000      10.47710      10.84830      16.01440      21.09130       2.68020      57.84420      15.90000
    8208.00000      -1.85233      66.05840      15.65640      12.25000    -999.00000      10.53170      15.27300      16.64500      16.07470       2.67920      54.80700      15.90000
    8208.50000      -1.90326      66.20510      15.61610      12.25000    -999.00000      10.61650      23.51540      16.82880      13.46160       2.68660      53.27310      15.90000
    8209.00000      -1.99246      69.18960      16.25880      12.25000    -999.00000      10.78050      38.57060      16.96650      13.07610       2.69340      52.94290      15.90000
    8209.50000      -2.08676      72.71470      16.58770      12.25000    -999.00000      11.58960      40.65140      17.10550      13.32040       2.70500      50.25270      15.90000
    8210.00000      -2.39203      77.64800      16.26540      12.25000    -999.00000      12.68250      35.56670      18.23380      14.56980       2.68200      49.93970      15.90000
    8210.50000      -2.69745      77.48650      16.27240      12.25000    -999.00000      13.95820      29.66770      19.55440      15.92960       2.66710      52.72130      15.90000
    8211.00000      -3.00275      76.48460      15.68940      12.25000    -999.00000      14.74200      26.72080      20.55160      16.95070       2.66910      55.06350      15.90000
    8211.50000      -3.32895      75.29900      15.87330      12.25000    -999.00000      15.54160      29.97990      20.09590      17.66230       2.65780      56.34240      15.90000
