~VERSION INFORMATION
VERS.      2.0   :CWLS LOG ASCII STANDARD--VERSION 2.0
WRAP.      NO    :ONE LINE PER DEPTH STEP
~WELL INFORMATION
#MNEM.UNIT              DATA          DESCRIPTION
#================================================
STRT.FT                         50.00000 :START DEPTH
STOP.FT                      11200.00000 :STOP DEPTH
STEP.FT                          0.50000 :STEP
NULL.                         -999.00000 :NULL VALUE
COMP.   Data output from TerraStation II         : COMPANY
WELL.   Awuna 1                                  : WELL NAME
UWI.    50-155-20001                             : WELL UWI
API.    50-155-20001                             : WELL API
LOC.    30   3S  25W                             : WELL LOCATION
DATE.   NorthSlope.W44                           : WELL DATE
FLD.    No Project Selected                      : Project NAME
~CURVE INFORMATION
#================================================
M__DEPTH.FT                  :M__DEPTH
SP      .MV                  :SP
GR      .GAPI                :GR
CALI    .IN                  :CALI
BitSize .IN                  :BitSize
MSFL    .OHMM                :MSFL
LL8     .OHMM                :LL8
ILM     .OHMM                :ILM
ILD     .OHMM                :ILD
NPHI    .%                   :NPHI
RHOB    .G/CC                :RHOB
DT      .US/F                :DT
MudWgt  .LBS/GAL             :MudWgt
~PARAMETER INFORMATION
#================================================
~OTHER INFORMATION
#================================================
~A
# ...
     842.00000      -3.08160      72.09430      16.90460      17.50000      18.28640    -999.00000      15.59590      21.64800      47.57930       2.54990      99.24610       9.40000
     842.50000      -3.13144      72.78380      16.90290      17.50000      18.56060    -999.00000      15.69760      21.79030      49.02910       2.52150      99.00990       9.40000
     843.00000      -3.58109      72.83350      16.90120      17.50000      18.63550    -999.00000      15.67050      21.88850      49.74590       2.51220      98.42300       9.40000
     843.50000      -3.97910      72.23960      16.89950      17.50000      18.50660    -999.00000      15.71710      22.08560      50.11770       2.51630      98.24050       9.40000
     844.00000      -4.16614      71.04770      16.89780      17.50000      18.24420    -999.00000      15.72640      22.13120      49.94070       2.51450      99.34470       9.40000
     844.50000      -4.29724      69.63650      16.89610      17.50000      18.00740    -999.00000      15.82490      22.10820      48.73990       2.50570     100.00010       9.40000
     845.00000      -4.32669      68.65040      16.89440      17.50000      18.01410    -999.00000      15.90300      22.16490      48.10840       2.51030      98.29920       9.40000
     845.50000      -4.33270      68.97530      16.89270      17.50000      18.29590    -999.00000      15.90490      22.22700      48.98620       2.51780      91.37720       9.40000
     846.00000      -4.33875      69.43420      16.89100      17.50000      18.47360    -999.00000      15.93660      22.28930      48.96170       2.51540      98.36400       9.40000
     846.50000      -4.38116      69.97530      16.88940      17.50000      18.49850    -999.00000      15.96700      22.35180      49.23350       2.50590      97.96120       9.40000
     847.00000      -4.50168      70.92840      16.88770      17.50000      18.35300    -999.00000      15.98960      22.41450      50.22700       2.51340      98.59430       9.40000
     847.50000      -4.57132      72.02830      16.88600      17.50000      18.24870    -999.00000      16.03390      22.47740      50.65190       2.50540      98.72740       9.40000
     848.00000      -4.44113      71.93650      16.88430      17.50000      18.25810    -999.00000      16.06010      22.46910      49.74760       2.51080      98.74040       9.40000
     848.50000      -4.25488      70.96870      16.88260      17.50000      18.42300    -999.00000      16.08230      22.34190      50.32290       2.51660      98.56050       9.40000
     849.00000      -4.22882      70.03580      16.88090      17.50000      18.48610    -999.00000      15.98600      22.19220      51.74740       2.50030      98.35190       9.40000
     849.50000      -4.22736      68.58790      16.87920      17.50000      18.51840    -999.00000      15.89700      22.01230      53.23500       2.49140      98.40340       9.40000
     850.00000      -4.50418      68.23740      16.87750      17.50000      18.35570    -999.00000      15.78470      21.83400      55.84820       2.47380      98.57350       9.40000
     850.50000      -4.78088      69.50050      16.87580      17.50000      18.17490    -999.00000      15.66070      21.65710      56.97220       2.50080      98.85460       9.40000
     851.00000      -5.05762      72.42680      16.87410      17.50000      18.02310    -999.00000      15.52420      21.48160      56.05050       2.50860      99.22850       9.40000
     851.50000      -4.82416      73.58950      16.87240      17.50000      17.76400    -999.00000      15.36780      21.30750      54.30220       2.52570      99.50140       9.40000
     852.00000      -4.93658      72.63200      16.87070      17.50000      17.41620    -999.00000      15.26070      21.13490      54.81940       2.53270      99.30060       9.40000
     852.50000      -5.12503      70.33870      16.86900      17.50000      17.19040    -999.00000      15.12040      20.99990      56.48240       2.54040      98.91240       9.40000
     853.00000      -5.37296      69.76950      16.86730      17.50000      17.14680    -999.00000      15.05250      21.04420      56.09480       2.54430      99.73710       9.40000
     853.50000      -5.65317      69.82660      16.86560      17.50000      17.29930    -999.00000      15.01590      21.08860      52.12030       2.54110     100.22470       9.40000
     854.00000      -5.93341      70.96740      16.86390      17.50000      17.44970    -999.00000      15.06520      21.17000      48.56410       2.53680     100.71440       9.40000
     854.50000      -6.15445      72.15320      16.86230      17.50000      17.53390    -999.00000      15.14800      21.26150      46.13700       2.54430     100.36600       9.40000
     855.00000      -5.99588      71.87690      16.86060      17.50000      17.62500    -999.00000      15.18090      21.22340      45.45430       2.55370      99.77970       9.40000
     855.50000      -5.93518      71.18290      16.85890      17.50000      17.71020    -999.00000      15.18950      21.20660      45.65920       2.55550      99.65130       9.40000
     856.00000      -5.88004      71.43570      16.85720      17.50000      17.81780    -999.00000      15.18540      21.19000      47.11270       2.50230      99.26540       9.40000
     856.50000      -5.84906      71.28660      16.85550      17.50000      17.84120    -999.00000      15.15160      21.17340      49.68200       2.48860     100.22380       9.40000
     857.00000      -6.12488      70.45920      16.85380      17.50000      17.67250    -999.00000      15.15520      21.15680      50.65230       2.48650      99.82740       9.40000
     857.50000      -5.99142      69.91940      16.85210      17.50000      17.54360    -999.00000      15.14590      21.14020      51.24780       2.47360      99.59530       9.40000
     858.00000      -5.99973      69.88300      16.85040      17.50000      17.53030    -999.00000      15.19560      21.12360      50.26230       2.48140      99.93480       9.40000
     858.50000      -6.05997      70.42310      16.84870      17.50000      17.57470    -999.00000      15.20230      21.10710      49.27310       2.48120      99.98570       9.40000
     859.00000      -5.85760      70.45500      16.84700      17.50000      17.60020    -999.00000      15.14830      21.09060      48.03010       2.48280      99.89590       9.40000
     859.50000      -5.64432      69.68020      16.84530      17.50000      17.62580    -999.00000      15.19820      21.07400      48.20210       2.47780      99.29630       9.40000
     860.00000      -5.43106      69.21970      16.84360      17.50000      17.77870    -999.00000      15.25870      21.22870      49.48000       2.49160      98.45160       9.40000
     860.50000      -5.07748      69.74410      16.84190      17.50000      17.86840    -999.00000      15.32250      21.40720      51.36580       2.50370      99.39840       9.40000
     861.00000      -4.71472      69.83080      16.84020      17.50000      17.70490    -999.00000      15.44940      21.58720      51.92210       2.50070      99.36470       9.40000
     861.50000      -4.61703      69.70010      16.83850      17.50000      17.64020    -999.00000      15.59140      21.76870      51.33990       2.49990      99.23130       9.40000
     862.00000      -4.66159      69.96040      16.83680      17.50000      17.93890    -999.00000      15.72210      21.90850      50.22200       2.48480      99.18490       9.40000
     862.50000      -4.70468      70.86010      16.83520      17.50000      18.23720    -999.00000      15.81640      22.02610      49.46930       2.48900      99.17010       9.40000
     863.00000      -5.24924      72.43650      16.83350      17.50000      18.36410    -999.00000      15.84180      22.15950      49.21950       2.51250      98.53240       9.40000
     863.50000      -5.72748      73.04700      16.83180      17.50000      18.43330    -999.00000      15.92480      22.39320      48.45350       2.52590      98.41170       9.40000
