~VERSION INFORMATION
VERS.      2.0   :CWLS LOG ASCII STANDARD--VERSION 2.0
WRAP.      NO    :ONE LINE PER DEPTH STEP
~WELL INFORMATION
#MNEM.UNIT              DATA          DESCRIPTION
#================================================
STRT.FT                         50.00000 :START DEPTH
STOP.FT                      11200.00000 :STOP DEPTH
STEP.FT                          0.50000 :STEP
NULL.                         -999.00000 :NULL VALUE
COMP.   Data output from TerraStation II         : COMPANY
WELL.   Awuna 1                                  : WELL NAME
UWI.    50-155-20001                             : WELL UWI
API.    50-155-20001                             : WELL API
LOC.    30   3S  25W                             : WELL LOCATION
DATE.   NorthSlope.W44                           : WELL DATE
FLD.    No Project Selected                      : Project NAME
~CURVE INFORMATION
#================================================
M__DEPTH.FT                  :M__DEPTH
SP      .MV                  :SP
GR      .GAPI                :GR
CALI    .IN                  :CALI
BitSize .IN                  :BitSize
MSFL    .OHMM                :MSFL
LL8     .OHMM                :LL8
ILM     .OHMM                :ILM
ILD     .OHMM                :ILD
NPHI    .%                   :NPHI
RHOB    .G/CC                :RHOB
DT      .US/F                :DT
MudWgt  .LBS/GAL             :MudWgt
~PARAMETER INFORMATION
#================================================
~OTHER INFORMATION
#================================================
~A
# ...
    5990.00000     -18.37930      48.78390      19.98780      12.25000    -999.00000      10.87260      14.72780      17.21880      12.21810       2.67550      58.27380      10.00000
    5990.50000     -18.47144      48.62120      19.98780      12.25000    -999.00000      14.21810      15.57600      19.18580      10.95910       2.66650      59.52090      10.00000
    5991.00000     -18.56363      48.73350      19.98770      12.25000    -999.00000      15.49840      16.50560      19.02850      10.76950       2.67290      59.13990      10.00000
    5991.50000     -18.65585      46.98710      19.98760      12.25000    -999.00000      16.31400      18.62020      19.46340      10.65210       2.68130      58.16840      10.00000
    5992.00000     -18.65234      44.06540      19.98760      12.25000    -999.00000      15.60840      24.23050      23.49340      10.21680       2.69710      56.14670      10.00000
    5992.50000     -18.60428      41.96890      19.98750      12.25000    -999.00000      15.55470      30.86750      28.75720       9.56300       2.71060      53.77510      10.00000
    5993.00000     -18.55609      42.97070      19.98750      12.25000    -999.00000      16.54000      36.61150      35.86930       7.94080       2.71630      53.88430      10.00000
    5993.50000     -18.50800      45.94180      19.98740      12.25000    -999.00000      19.11270      41.74990      38.17330       6.76590       2.69740      54.72860      10.00000
    5994.00000     -18.45981      48.71540      19.98740      12.25000    -999.00000      20.57390      44.25120      39.14790       7.75690       2.67570      55.51530      10.00000
    5994.50000     -18.41171      51.94260      19.98730      12.25000    -999.00000      20.00080      38.79510      37.49420       9.29270       2.66680      58.61050      10.00000
    5995.00000     -18.36353      57.02870      19.98730      12.25000    -999.00000      18.54570      33.60530      32.87670      10.78240       2.65080      60.88190      10.00000
    5995.50000     -18.01123      60.16810      19.98720      12.25000    -999.00000      17.96810      28.17560      28.70850      11.94610       2.63390      64.31630      10.00000
    5996.00000     -17.61084      61.28940      19.98720      12.25000    -999.00000      17.01360      22.00170      25.61050      13.90630       2.62510      68.79000      10.00000
    5996.50000     -17.21036      61.25140      19.98710      12.25000    -999.00000      15.83250      17.53300      21.80490      15.91850       2.62390      70.72760      10.00000
    5997.00000     -16.80997      60.74120      19.98700      12.25000    -999.00000      12.55080      15.46380      19.98460      17.26460       2.64430      69.33880      10.00000
    5997.50000     -16.49368      59.90820      19.98700      12.25000    -999.00000      11.52870      15.09380      18.31620      17.28060       2.66700      68.64310      10.00000
    5998.00000     -16.26910      58.98100      19.98690      12.25000    -999.00000      11.53050      15.00090      16.78700      16.43660       2.66680      66.58100      10.00000
    5998.50000     -16.04462      57.73410      19.98690      12.25000    -999.00000      13.21030      15.01110      15.94410      16.00710       2.65790      65.51160      10.00000
    5999.00000     -15.83484      55.63310      19.98680      12.25000    -999.00000      12.59190      15.10180      15.18190      15.75270       2.64550      65.92920      10.00000
    5999.50000     -15.63574      54.76770      19.98680      12.25000    -999.00000      11.64630      15.19310      15.76110      15.71940       2.62820      65.07520      10.00000
    6000.00000     -15.42615      53.89500      19.98670      12.25000    -999.00000      12.13710      15.28500      16.87670      15.85650       2.61850      65.64400      10.00000
    6000.50000     -15.21646      53.78540      19.98670      12.25000    -999.00000      13.04880      15.65860      17.88350      15.96040       2.59600      64.93130      10.00000
    6001.00000     -15.00687      54.69510      19.98660      12.25000    -999.00000      12.98390      16.10470      18.22000      15.79830       2.57490      63.19460      10.00000
    6001.50000     -14.48938      57.77920      19.98660      12.25000    -999.00000      12.80690      16.56350      18.56280      15.90130       2.59540      62.03910      10.00000
    6002.00000     -14.26099      59.98260      19.98650      12.25000    -999.00000      12.60510      16.94110      18.62270      17.42650       2.62070      61.53730      10.00000
    6002.50000     -14.24530      61.08650      19.98640      12.25000    -999.00000      12.35200      17.09550      18.36660      18.35590       2.63990      62.10280      10.00000
    6003.00000     -13.96573      61.33620      19.98640      12.25000    -999.00000      12.26710      17.21350      18.11400      19.07840       2.64640      62.85400      10.00000
    6003.50000     -13.60202      61.29810      19.98630      12.25000    -999.00000      12.17610      17.01360      17.80990      19.75640       2.64500      63.65010      10.00000
    6004.00000     -13.50534      61.66150      19.98630      12.25000    -999.00000      11.86650      16.81610      17.34160      20.22230       2.65900      64.24810      10.00000
    6004.50000     -13.39594      61.36610      19.98620      12.25000    -999.00000      11.44900      17.07570      17.30700      20.63330       2.64520      64.75570      10.00000
    6005.00000     -13.40256      58.58620      19.98620      12.25000    -999.00000      10.94820      17.37800      17.77250      20.69840       2.65060      64.69780      10.00000
    6005.50000     -13.33838      55.29150      19.98610      12.25000    -999.00000      10.75610      17.68560      17.82290      20.59920       2.66480      63.98240      10.00000
    6006.00000     -13.27429      53.41990      19.97130      12.25000    -999.00000      10.71270      17.95480      17.62490      20.06280       2.68430      62.98190      10.00000
    6006.50000     -13.21021      52.52540      19.84420      12.25000    -999.00000      10.62300      17.67320      17.33410      18.87450       2.70050      61.57640      10.00000
    6007.00000     -13.08432      53.78220      19.71700      12.25000    -999.00000      10.74230      17.39610      17.36830      17.41940       2.70020      61.62620      10.00000
    6007.50000     -12.83542      54.77940      19.69300      12.25000    -999.00000      11.16250      17.12330      17.23610      16.55630       2.68690      62.83660      10.00000
    6008.00000     -12.80405      55.34060      19.69280      12.25000    -999.00000      11.70170      16.46650      16.38900      17.15610       2.67330      64.15380      10.00000
    6008.50000     -12.94714      56.39580      19.69270      12.25000    -999.00000      11.62650      15.74170      15.76330      17.72460       2.65780      65.26530      10.00000
    6009.00000     -13.30777      56.78770      19.69260      12.25000    -999.00000      11.20800      15.18180      15.42620      18.35950       2.64980      64.77280      10.00000
    6009.50000     -13.31479      56.57880      19.69250      12.25000    -999.00000      10.47390      16.26850      16.11460      18.20950       2.65260      62.96290      10.00000
    6010.00000     -12.79868      54.33800      19.69250      12.25000    -999.00000      10.66120      17.43300      17.17560      17.50860       2.67100      61.09470      10.00000
    6010.50000     -12.58389      52.29830      19.69250      12.25000    -999.00000      11.73490      18.68070      18.05750      15.70610       2.68220      59.68490      10.00000
    6011.00000     -12.54410      53.14760      19.69020      12.25000    -999.00000      12.45010      20.01780      19.05610      15.30410       2.66600      58.81230      10.00000
    6011.50000     -12.49792      54.72980      19.68620      12.25000    -999.00000      13.27240      20.57900      20.10990      15.32390       2.65870      58.43330      10.00000
