~VERSION INFORMATION
VERS.      2.0   :CWLS LOG ASCII STANDARD--VERSION 2.0
WRAP.      NO    :ONE LINE PER DEPTH STEP
~WELL INFORMATION
#MNEM.UNIT              DATA          DESCRIPTION
#================================================
STRT.FT                         50.00000 :START DEPTH
STOP.FT                      11200.00000 :STOP DEPTH
STEP.FT                          0.50000 :STEP
NULL.                         -999.00000 :NULL VALUE
COMP.   Data output from TerraStation II         : COMPANY
WELL.   Awuna 1                                  : WELL NAME
UWI.    50-155-20001                             : WELL UWI
API.    50-155-20001                             : WELL API
LOC.    30   3S  25W                             : WELL LOCATION
DATE.   NorthSlope.W44                           : WELL DATE
FLD.    No Project Selected                      : Project NAME
~CURVE INFORMATION
#================================================
M__DEPTH.FT                  :M__DEPTH
SP      .MV                  :SP
GR      .GAPI                :GR
CALI    .IN                  :CALI
BitSize .IN                  :BitSize
MSFL    .OHMM                :MSFL
LL8     .OHMM                :LL8
ILM     .OHMM                :ILM
ILD     .OHMM                :ILD
NPHI    .%                   :NPHI
RHOB    .G/CC                :RHOB
DT      .US/F                :DT
MudWgt  .LBS/GAL             :MudWgt
~PARAMETER INFORMATION
#================================================
~OTHER INFORMATION
#================================================
~A
# ...
    3790.00000      -6.38904      71.17990      20.03090      17.50000    -999.00000      22.86570      21.76770      27.02530      22.67560       2.67840      74.18350      10.20000
    3790.50000      -6.32938      72.19080      20.03090      17.50000    -999.00000      22.15390      20.73380      24.29160      23.77760       2.66730      75.76250      10.20000
    3791.00000      -6.15765      73.98350      20.03100      17.50000    -999.00000      21.46420      19.74900      23.26990      24.17800       2.65030      76.56020      10.20000
    3791.50000      -6.07129      74.31610      20.03100      17.50000    -999.00000      20.71940      18.81100      22.56700      24.71580       2.63440      77.87520      10.20000
    3792.00000      -6.00769      73.31450      20.03100      17.50000    -999.00000      20.20860      18.53140      21.93520      25.27030       2.62290      78.78450      10.20000
    3792.50000      -6.06393      74.44580      20.03110      17.50000    -999.00000      19.89300      18.73490      21.32110      25.72040       2.60970      79.06730      10.20000
    3793.00000      -6.23550      76.86610      20.03110      17.50000    -999.00000      19.87260      18.80710      20.72430      26.18450       2.60890      78.95580      10.20000
    3793.50000      -6.40695      77.74650      20.03120      17.50000    -999.00000      19.45010      18.49390      20.46090      26.11200       2.61150      78.84170      10.20000
    3794.00000      -6.57712      78.10960      20.03120      17.50000    -999.00000      18.98680      18.18590      20.40540      26.08130       2.60100      78.84820      10.20000
    3794.50000      -6.77429      77.50790      20.03120      17.50000    -999.00000      18.53690      17.83400      20.35000      27.00010       2.61050      78.97370      10.20000
    3795.00000      -6.99713      75.97130      20.03130      17.50000    -999.00000      18.01880      17.40050      20.29470      27.76010       2.60370      79.01180      10.20000
    3795.50000      -7.05792      75.42100      20.03130      17.50000    -999.00000      18.03940      16.69630      20.23960      28.22550       2.58820      79.38060      10.20000
    3796.00000      -7.09048      75.21330      20.03140      17.50000    -999.00000      18.05990      16.02060      20.18460      29.62300       2.57340      80.39390      10.20000
    3796.50000      -7.18604      75.07640      20.03140      17.50000    -999.00000      18.08050      16.23920      20.14710      30.66270       2.60130      81.06210      10.20000
    3797.00000      -7.39261      74.49390      20.03140      17.50000    -999.00000      18.20470      16.69760      20.11180      29.86460       2.61050      81.17150      10.20000
    3797.50000      -7.09628      73.72720      20.03150      17.50000    -999.00000      18.40890      17.07320      20.07660      28.95350       2.61590      80.65760      10.20000
    3798.00000      -6.99564      74.23180      20.03150      17.50000    -999.00000      18.61530      17.21850      20.04140      28.44750       2.60940      79.98970      10.20000
    3798.50000      -6.95300      75.12370      20.03160      17.50000    -999.00000      18.82410      17.36500      20.18780      28.16380       2.59740      79.48100      10.20000
    3799.00000      -7.06845      75.42510      20.03160      17.50000    -999.00000      19.03520      17.51280      20.51850      28.01700       2.60650      79.79090      10.20000
    3799.50000      -7.18524      75.21790      20.03160      17.50000    -999.00000      19.16770      17.66180      20.85450      27.67220       2.62200      78.96080      10.20000
    3800.00000      -7.22220      76.00430      20.03170      17.50000    -999.00000      19.29520      17.81220      21.19610      28.02730       2.63410      78.38240      10.20000
    3800.50000      -7.25916      77.12850      20.03170      17.50000    -999.00000      19.42360      17.93690      21.54330      28.50350       2.63590      77.75820      10.20000
    3801.00000      -7.29611      77.92230      20.03180      17.50000    -999.00000      19.53430      18.04090      21.89280      27.91260       2.65320      77.00850      10.20000
    3801.50000      -7.35199      78.53550      20.03180      17.50000    -999.00000      19.57970      18.14540      22.06380      27.17080       2.65200      77.32100      10.20000
    3802.00000      -7.34134      78.34440      20.03180      17.50000    -999.00000      19.62520      18.25060      22.23600      26.39680       2.64740      77.63810      10.20000
    3802.50000      -7.26620      78.43760      20.03190      17.50000    -999.00000      19.67080      18.28370      22.38280      25.94740       2.64020      77.93860      10.20000
    3803.00000      -7.33939      78.63190      20.03190      17.50000    -999.00000      19.71650      18.25300      22.29340      25.81570       2.61000      78.82430      10.20000
    3803.50000      -7.77414      78.01530      20.03200      17.50000    -999.00000      19.76230      18.12020      22.20430      26.19190       2.62110      78.98900      10.20000
    3804.00000      -7.69370      77.05730      20.03200      17.50000    -999.00000      19.80820      18.11020      22.11560      26.57890       2.62420      78.69830      10.20000
    3804.50000      -7.69437      76.75050      20.03200      17.50000    -999.00000      19.85720      18.40460      22.02730      26.73210       2.62750      79.11760      10.20000
    3805.00000      -7.80472      76.20480      20.03210      17.50000    -999.00000      19.92710      18.70380      22.02590      26.46950       2.62530      78.90590      10.20000
    3805.50000      -7.91498      74.83550      20.03210      17.50000    -999.00000      19.99730      18.88980      22.03950      26.14360       2.61580      78.69700      10.20000
    3806.00000      -8.02533      73.96670      20.03220      17.50000    -999.00000      20.09440      18.25290      22.05310      26.00930       2.61740      78.54320      10.20000
    3806.50000      -8.13559      74.64570      20.03220      17.50000    -999.00000      20.23200      18.26340      22.06680      26.01530       2.60380      78.54690      10.20000
    3807.00000      -8.24817      76.34330      20.03220      17.50000    -999.00000      20.34830      18.41130      22.08040      25.80070       2.60470      78.32960      10.20000
    3807.50000      -8.36563      77.58240      20.03230      17.50000    -999.00000      20.40480      18.75060      22.18190      25.60930       2.60780      79.11790      10.20000
    3808.00000      -8.48300      77.70430      20.03230      17.50000    -999.00000      20.50730      19.09630      22.31110      25.74570       2.60610      79.11600      10.20000
    3808.50000      -8.77246      77.50710      20.03240      17.50000    -999.00000      20.55700      19.44830      22.44110      25.87660       2.60890      78.78040      10.20000
    3809.00000      -8.79071      76.82470      20.03240      17.50000    -999.00000      20.57250      19.58770      22.57180      25.86200       2.61770      78.14860      10.20000
    3809.50000      -8.93579      75.40480      20.03240      17.50000    -999.00000      20.95890      19.64480      22.78200      25.72970       2.62840      78.13950      10.20000
    3810.00000      -9.11594      74.83780      20.03250      17.50000    -999.00000      20.92690      19.70200      23.12910      24.97360       2.61110      77.89680      10.20000
    3810.50000      -9.20059      74.60260      20.03250      17.50000    -999.00000      20.78760      19.75940      23.48160      24.34890       2.60250      77.62440      10.20000
    3811.00000      -9.28897      74.68180      20.03260      17.50000    -999.00000      20.64920      19.12130      24.15830      25.09470       2.59150      78.61140      10.20000
    3811.50000      -9.37775      73.82470      20.03260      17.50000    -999.00000      21.25160      18.96090      24.87770      25.39760       2.58590      79.15490      10.20000
