~VERSION INFORMATION
VERS.      2.0   :CWLS LOG ASCII STANDARD--VERSION 2.0
WRAP.      NO    :ONE LINE PER DEPTH STEP
~WELL INFORMATION
#MNEM.UNIT              DATA          DESCRIPTION
#================================================
STRT.FT                         50.00000 :START DEPTH
STOP.FT                      11200.00000 :STOP DEPTH
STEP.FT                          0.50000 :STEP
NULL.                         -999.00000 :NULL VALUE
COMP.   Data output from TerraStation II         : COMPANY
WELL.   Awuna 1                                  : WELL NAME
UWI.    50-155-20001                             : WELL UWI
API.    50-155-20001                             : WELL API
LOC.    30   3S  25W                             : WELL LOCATION
DATE.   NorthSlope.W44                           : WELL DATE
FLD.    No Project Selected                      : Project NAME
~CURVE INFORMATION
#================================================
M__DEPTH.FT                  :M__DEPTH
SP      .MV                  :SP
GR      .GAPI                :GR
CALI    .IN                  :CALI
BitSize .IN                  :BitSize
MSFL    .OHMM                :MSFL
LL8     .OHMM                :LL8
ILM     .OHMM                :ILM
ILD     .OHMM                :ILD
NPHI    .%                   :NPHI
RHOB    .G/CC                :RHOB
DT      .US/F                :DT
MudWgt  .LBS/GAL             :MudWgt
~PARAMETER INFORMATION
#================================================
~OTHER INFORMATION
#================================================
~A
# ...
    2316.00000      -4.72845      97.35860      20.02180      17.50000    -999.00000      13.46290      16.37830      20.06280      23.38870       2.61330      83.59570       9.90000
    2316.50000      -1.88538     101.70340      20.02180      17.50000    -999.00000      13.04000      16.33220      20.06760      23.67300       2.61770      84.19510       9.90000
    2317.00000      -2.02380     100.94900      20.02180      17.50000    -999.00000      13.21200      16.54810      20.07760      23.96440       2.60990      86.05040       9.90000
    2317.50000      -2.16211      98.80940      20.02170      17.50000    -999.00000      13.43540      16.77880      20.09890      24.20860       2.59160     100.89600       9.90000
    2318.00000      -2.73865      96.80550      20.02170      17.50000    -999.00000      13.66260      16.64200      19.55600      24.44500       2.58660      89.08080       9.90000
    2318.50000      -4.02225      93.28480      20.02170      17.50000    -999.00000      13.89360      16.50640      19.93950      23.84430       2.58290      85.48710       9.90000
    2319.00000      -5.30576      90.52150      20.02160      17.50000    -999.00000      14.06610      16.37180      20.03690      23.15800       2.59280      84.58700       9.90000
    2319.50000      -3.85718      91.19100      20.02160      17.50000    -999.00000      13.84200      16.24170      20.13410      23.01160       2.60060      84.57900       9.90000
    2320.00000      -2.16821      91.64350      20.02160      17.50000    -999.00000      13.62170      16.29700      20.13020      23.21020       2.60300      84.81110       9.90000
    2320.50000      -2.04333      91.16950      20.02150      17.50000    -999.00000      13.52920      16.35240      20.12630      23.39110       2.60770      84.36010       9.90000
    2321.00000      -2.37094      89.96630      20.02150      17.50000    -999.00000      13.75100      16.40810      20.12240      23.93230       2.62880      76.32530       9.90000
    2321.50000      -1.55869      89.01520      20.02150      17.50000    -999.00000      13.95160      16.42290      20.09380      24.66730       2.63930      76.11670       9.90000
    2322.00000      -2.55060      87.78460      20.02140      17.50000    -999.00000      13.86460      16.26770      19.83700      24.46110       2.64150      84.56190       9.90000
    2322.50000      -3.60022      87.11200      20.02140      17.50000    -999.00000      13.65690      16.12110      19.95500      24.01550       2.64220      85.12470       9.90000
    2323.00000      -4.64972      87.53120      20.02130      17.50000    -999.00000      13.36390      16.41060      19.82850      24.43240       2.63660      85.93440       9.90000
    2323.50000      -3.95795      88.71610      20.02130      17.50000    -999.00000      13.48410      16.64170      19.81260      25.05030       2.63740      87.58040       9.90000
    2324.00000      -2.92557      90.40840      20.02130      17.50000    -999.00000      13.79580      16.49300      19.71180      25.34290       2.63190     115.83290       9.90000
    2324.50000      -3.29819      92.61680      20.02120      17.50000    -999.00000      13.92810      16.23260      19.57310      25.46510       2.61040     113.61500       9.90000
    2325.00000      -6.67023      94.04080      20.02120      17.50000    -999.00000      14.06170      15.97620      19.59730      25.30200       2.59920      84.83800       9.90000
    2325.50000      -8.62994      94.21010      20.02120      17.50000    -999.00000      14.19660      15.73890      19.72080      25.37560       2.60180      76.22870       9.90000
    2326.00000      -9.28635      92.64880      20.02110      17.50000    -999.00000      14.03440      15.77270      19.88230      25.36960       2.61820      80.64260       9.90000
    2326.50000      -9.21689      91.22180      20.02110      17.50000    -999.00000      13.78390      15.80660      19.81230      24.95690       2.61580      85.05650       9.90000
    2327.00000      -8.82172      91.54920      20.02110      17.50000    -999.00000      13.54730      15.96490      19.95260      25.20630       2.60600      85.90470       9.90000
    2327.50000      -8.75394      90.78050      20.02100      17.50000    -999.00000      13.69260      16.11110      19.97900      25.91640       2.62610      83.91480       9.90000
    2328.00000      -8.75143      89.72790      20.02100      17.50000    -999.00000      13.69510      16.27400      20.00550      26.56660       2.62230      78.81490       9.90000
    2328.50000      -8.77127      89.68250      20.02100      17.50000    -999.00000      13.69060      16.46540      20.03190      26.60600       2.62270      75.83620       9.90000
    2329.00000      -8.72910      90.05470      20.02090      17.50000    -999.00000      13.77970      16.69330      20.23630      26.34540       2.64180      82.27720       9.90000
    2329.50000      -8.82300      89.94760      20.02090      17.50000    -999.00000      13.95970      16.86580      20.48670      25.99520       2.63030      77.26820       9.90000
    2330.00000      -9.25574      88.88780      20.02080      17.50000    -999.00000      14.23620      17.22660      21.13920      25.91990       2.62200      75.31830       9.90000
    2330.50000      -9.30725      87.95600      20.02080      17.50000    -999.00000      14.46040      17.52450      21.09340      25.89420       2.60930      81.91710       9.90000
    2331.00000      -9.20737      87.59700      20.02080      17.50000    -999.00000      14.46170      17.60680      21.02110      25.47540       2.59520      84.34840       9.90000
    2331.50000     -10.62589      88.31060      20.02070      17.50000    -999.00000      14.38980      17.60690      20.94900      24.90370       2.61270      86.51780       9.90000
    2332.00000     -10.54431      89.12250      20.02070      17.50000    -999.00000      14.36620      17.55440      20.99520      24.54750       2.66280      85.56910       9.90000
    2332.50000      -9.70114      89.04470      20.02070      17.50000    -999.00000      14.38800      17.56860      21.05890      24.31030       2.64630      83.41420       9.90000
    2333.00000      -9.85745      88.12840      20.02060      17.50000    -999.00000      14.40880      17.56750      21.12270      24.15100       2.62460      84.47730       9.90000
    2333.50000     -10.50287      87.81010      20.02060      17.50000    -999.00000      14.27480      17.47360      21.18680      23.95930       2.60390      84.65000       9.90000
    2334.00000     -10.48300      86.64880      20.02060      17.50000    -999.00000      14.16280      17.30710      21.20890      23.98550       2.59120      84.34680       9.90000
    2334.50000     -10.13791      85.83340      20.02050      17.50000    -999.00000      14.12560      17.13440      21.19300      23.90200       2.58720      83.53640       9.90000
    2335.00000     -10.28015      85.90770      20.02050      17.50000    -999.00000      14.01550      16.96340      21.17710      23.29580       2.59380      82.88020       9.90000
    2335.50000     -10.65945      86.64440      20.02050      17.50000    -999.00000      13.90630      16.86020      21.16120      23.42850       2.60820      83.90810       9.90000
    2336.00000     -10.65607      88.05780      20.02040      17.50000    -999.00000      13.75350      16.83390      21.14540      23.28450       2.62800      83.60810       9.90000
    2336.50000     -10.19879      88.81370      20.02040      17.50000    -999.00000      13.62180      16.91740      21.14480      22.94410       2.62770      79.56860       9.90000
    2337.00000      -9.90863      89.04390      20.02040      17.50000    -999.00000      13.82420      17.23170      21.36870      23.23750       2.61210      70.32180       9.90000
    2337.50000      -9.70004      88.61830      20.02030      17.50000    -999.00000      14.08590      17.55190      21.59490      23.87500       2.57920      70.57730       9.90000
