~VERSION INFORMATION
VERS.      2.0   :CWLS LOG ASCII STANDARD--VERSION 2.0
WRAP.      NO    :ONE LINE PER DEPTH STEP
~WELL INFORMATION
#MNEM.UNIT              DATA          DESCRIPTION
#================================================
STRT.FT                         50.00000 :START DEPTH
STOP.FT                      11200.00000 :STOP DEPTH
STEP.FT                          0.50000 :STEP
NULL.                         -999.00000 :NULL VALUE
COMP.   Data output from TerraStation II         : COMPANY
WELL.   Awuna 1                                  : WELL NAME
UWI.    50-155-20001                             : WELL UWI
API.    50-155-20001                             : WELL API
LOC.    30   3S  25W                             : WELL LOCATION
DATE.   NorthSlope.W44                           : WELL DATE
FLD.    No Project Selected                      : Project NAME
~CURVE INFORMATION
#================================================
M__DEPTH.FT                  :M__DEPTH
SP      .MV                  :SP
GR      .GAPI                :GR
CALI    .IN                  :CALI
BitSize .IN                  :BitSize
MSFL    .OHMM                :MSFL
LL8     .OHMM                :LL8
ILM     .OHMM                :ILM
ILD     .OHMM                :ILD
NPHI    .%                   :NPHI
RHOB    .G/CC                :RHOB
DT      .US/F                :DT
MudWgt  .LBS/GAL             :MudWgt
~PARAMETER INFORMATION
#================================================
~OTHER INFORMATION
#================================================
~A
# ...
    7464.00000      -8.66351      62.98110      19.97860      12.25000    -999.00000       7.47290       9.63830       8.97450      21.62140       2.66250      69.56040      15.30000
    7464.50000      -8.64520      62.18930      19.97730      12.25000    -999.00000       7.44670       9.67750       8.95360      22.13260       2.64680      69.84090      15.30000
    7465.00000      -8.57877      63.20070      19.97610      12.25000    -999.00000       7.41760       9.71690       8.95190      23.12140       2.63180      69.89180      15.30000
    7465.50000      -8.51236      64.38440      19.97490      12.25000    -999.00000       7.38850       9.75640       8.95400      23.53920       2.62490      69.88570      15.30000
    7466.00000      -8.41824      63.68880      19.97370      12.25000    -999.00000       7.35950       9.79580       8.95600      23.63120       2.62530      69.76670      15.30000
    7466.50000      -8.68893      63.71040      19.97250      12.25000    -999.00000       7.33060       9.83490       8.95810      23.22130       2.63820      68.95560      15.30000
    7467.00000      -8.52252      65.22930      19.97130      12.25000    -999.00000       7.30180       9.87410       9.07630      22.73430       2.62700      68.31580      15.30000
    7467.50000      -8.40662      66.71160      19.97000      12.25000    -999.00000       7.43460       9.91350       9.19970      22.49420       2.63000      67.90720      15.30000
    7468.00000      -8.36880      67.51370      19.96880      12.25000    -999.00000       7.72890       9.95310       9.32480      22.52740       2.64190      67.37710      15.30000
    7468.50000      -8.48520      67.04590      19.96760      12.25000    -999.00000       8.03490       9.99280       9.45160      22.52770       2.64590      67.56030      15.30000
    7469.00000      -8.60318      65.13050      19.96640      12.25000    -999.00000       8.20790      10.03260       9.58010      22.71810       2.63280      67.66770      15.30000
    7469.50000      -8.59125      63.21640      19.96520      12.25000    -999.00000       8.36270      10.07260       9.70070      22.83270       2.60820      67.62770      15.30000
    7470.00000      -8.57944      62.03260      19.96390      12.25000    -999.00000       8.52050      10.11280       9.80920      22.94550       2.60840      67.58690      15.30000
    7470.50000      -8.56754      62.89650      19.96270      12.25000    -999.00000       8.37290      10.14150       9.91890      23.12690       2.63430      68.38760      15.30000
    7471.00000      -8.55573      65.00810      19.96150      12.25000    -999.00000       8.08240      10.12800      10.02980      23.69950       2.65000      68.93040      15.30000
    7471.50000      -8.54379      66.72600      19.96030      12.25000    -999.00000       7.80210      10.11450      10.14190      23.41240       2.63590      69.26250      15.30000
    7472.00000      -8.53198      66.87720      19.95910      12.25000    -999.00000       7.53150      10.10100      10.25540      22.66880       2.62210      69.59280      15.30000
    7472.50000      -8.49207      65.53760      19.95780      12.25000    -999.00000       7.27020      10.08750      10.27380      24.05880       2.62390      69.81970      15.30000
    7473.00000      -8.43054      63.88310      19.95660      12.25000    -999.00000       7.33380      10.07400      10.17720      24.75160       2.62620      69.89390      15.30000
    7473.50000      -8.36914      63.91580      19.95540      12.25000    -999.00000       7.39950      10.06050      10.08150      24.10570       2.62940      69.97680      15.30000
    7474.00000      -8.30771      65.36850      19.95420      12.25000    -999.00000       7.46580      10.02960       9.98660      23.67100       2.64540      70.12580      15.30000
    7474.50000      -8.24622      66.60110      19.95300      12.25000    -999.00000       7.51490       9.99710       9.89270      23.10190       2.64460      70.27900      15.30000
    7475.00000      -8.18478      67.06680      19.95170      12.25000    -999.00000       7.52840       9.96470       9.79970      23.58100       2.63520      70.52710      15.30000
    7475.50000      -8.12338      67.34520      19.96450      12.25000    -999.00000       7.54190       9.93250       9.70750      22.98500       2.62890      71.11610      15.30000
    7476.00000      -8.06195      69.81190      19.98540      12.25000    -999.00000       7.55540       9.90030       9.61620      22.27330       2.64120      71.87150      15.30000
    7476.50000      -8.00046      67.45020      19.98550      12.25000    -999.00000       7.56890       9.86820       9.52570      21.71440       2.64160      72.03150      15.30000
    7477.00000      -7.93903      63.41650      19.98550      12.25000    -999.00000       7.58250       9.83620       9.50050      21.62410       2.61440      71.55890      15.30000
    7477.50000      -7.94833      61.85040      19.98560      12.25000    -999.00000       7.49080       9.80440       9.49540      21.59020       2.59120      71.37610      15.30000
    7478.00000      -7.96182      60.25840      19.98560      12.25000    -999.00000       7.37770       9.77260       9.49020      22.00360       2.58320      69.11530      15.30000
    7478.50000      -7.97531      58.62980      19.98570      12.25000    -999.00000       7.27260       9.74090       9.48500      22.80940       2.57960      66.80810      15.30000
    7479.00000      -7.98880      57.82850      19.98570      12.25000    -999.00000       7.25620       9.72740       9.47990      23.77920       2.55220      66.41710      15.30000
    7479.50000      -8.00229      58.76090      19.98580      12.25000    -999.00000       7.23990       9.74040       9.47470      24.62680       2.53720      66.53670      15.30000
    7480.00000      -7.99817      62.22320      19.98580      12.25000    -999.00000       7.22360       9.75340       9.46960      25.25400       2.58640      67.96540      15.30000
    7480.50000      -7.96936      65.33490      19.98590      12.25000    -999.00000       7.01720       9.76650       9.46440      24.57220       2.65580      69.91900      15.30000
    7481.00000      -7.94043      64.86230      19.98590      12.25000    -999.00000       6.71830       9.77960       9.45930      22.97820       2.66590      70.01050      15.30000
    7481.50000      -7.91162      64.62720      19.98600      12.25000    -999.00000       6.58780       9.79370       9.45410      21.49990       2.64120      70.25690      15.30000
    7482.00000      -7.88272      64.44900      19.98600      12.25000    -999.00000       6.80410       9.81040       9.44900      21.83300       2.61470      70.23530      15.30000
    7482.50000      -7.85388      62.81580      19.98610      12.25000    -999.00000       7.02750       9.82720       9.45590      22.70370       2.62450      70.23950      15.30000
    7483.00000      -7.82498      61.34110      19.98620      12.25000    -999.00000       7.18080       9.84400       9.46950      23.92850       2.63730      70.42730      15.30000
    7483.50000      -7.79617      61.57310      19.98620      12.25000    -999.00000       7.06670       9.86090       9.48310      23.61310       2.64770      70.52930      15.30000
    7484.00000      -7.76724      61.45910      19.98630      12.25000    -999.00000       6.95430       9.87770       9.49670      22.68870       2.64600      70.58780      15.30000
    7484.50000      -7.76123      60.82610      19.98630      12.25000    -999.00000       6.84370       9.89460       9.51030      22.49240       2.63870      70.11120      15.30000
    7485.00000      -7.75992      60.64150      19.98640      12.25000    -999.00000       6.82910       9.91150       9.52390      22.55950       2.64500      68.83070      15.30000
    7485.50000      -7.75870      60.55120      19.98640      12.25000    -999.00000       7.00660       9.92850       9.53760      21.93540       2.64840      68.32830      15.30000
