~VERSION INFORMATION
VERS.      2.0   :CWLS LOG ASCII STANDARD--VERSION 2.0
WRAP.      NO    :ONE LINE PER DEPTH STEP
~WELL INFORMATION
#MNEM.UNIT              DATA          DESCRIPTION
#================================================
STRT.FT                         50.00000 :START DEPTH
STOP.FT                      11200.00000 :STOP DEPTH
STEP.FT                          0.50000 :STEP
NULL.                         -999.00000 :NULL VALUE
COMP.   Data output from TerraStation II         : COMPANY
WELL.   Awuna 1                                  : WELL NAME
UWI.    50-155-20001                             : WELL UWI
API.    50-155-20001                             : WELL API
LOC.    30   3S  25W                             : WELL LOCATION
DATE.   NorthSlope.W44                           : WELL DATE
FLD.    No Project Selected                      : Project NAME
~CURVE INFORMATION
#================================================
M__DEPTH.FT                  :M__DEPTH
SP      .MV                  :SP
GR      .GAPI                :GR
CALI    .IN                  :CALI
BitSize .IN                  :BitSize
MSFL    .OHMM                :MSFL
LL8     .OHMM                :LL8
ILM     .OHMM                :ILM
ILD     .OHMM                :ILD
NPHI    .%                   :NPHI
RHOB    .G/CC                :RHOB
DT      .US/F                :DT
MudWgt  .LBS/GAL             :MudWgt
~PARAMETER INFORMATION
#================================================
~OTHER INFORMATION
#================================================
~A
# ...
     116.00000     -43.85513    -999.00000      16.91480      17.50000    -999.00000    -999.00000    -999.00000    -999.00000    -999.00000       1.99950    -999.00000       8.70000
     116.50000     -48.63065    -999.00000      16.91810      17.50000    -999.00000    -999.00000    -999.00000    -999.00000    -999.00000       1.99950    -999.00000       8.70000
     117.00000     -50.68695    -999.00000      16.91750      17.50000    -999.00000    -999.00000    -999.00000    -999.00000    -999.00000       1.99950    -999.00000       8.70000
     117.50000     -51.47714    -999.00000      16.91480      17.50000    -999.00000    -999.00000    -999.00000    -999.00000    -999.00000       1.99950    -999.00000       8.70000
     118.00000     -52.57184    -999.00000      16.91200      17.50000    -999.00000    -999.00000    -999.00000    -999.00000    -999.00000       1.99950    -999.00000       8.70000
     118.50000     -53.78506    -999.00000      16.90920      17.50000    -999.00000    -999.00000    -999.00000    -999.00000    -999.00000       1.99960    -999.00000       8.70000
     119.00000     -54.26675    -999.00000      16.90650      17.50000    -999.00000    -999.00000    -999.00000    -999.00000    -999.00000       1.99960    -999.00000       8.70000
     119.50000     -54.93655      65.79270      16.90370      17.50000    -999.00000    -999.00000    -999.00000    -999.00000    -999.00000       1.99960    -999.00000       8.70000
     120.00000     -55.56387      72.11310      16.90090      17.50000    -999.00000    -999.00000    -999.00000    -999.00000      53.97810       2.05740    -999.00000       8.70000
     120.50000     -56.42087      75.01460      16.89820      17.50000    -999.00000    -999.00000    -999.00000    -999.00000      52.32410       2.15140    -999.00000       8.70000
     121.00000     -57.21475      75.75810      16.89540      17.50000    -999.00000    -999.00000    -999.00000    -999.00000      50.51960       2.30360    -999.00000       8.70000
     121.50000     -58.55566      75.99410      16.89260      17.50000    -999.00000    -999.00000    -999.00000    -999.00000      48.41430       2.32510    -999.00000       8.70000
     122.00000     -59.30658      75.12650      16.88990      17.50000    -999.00000    -999.00000    -999.00000    -999.00000      46.20650       2.35940    -999.00000       8.70000
     122.50000     -59.94507      74.19130      16.88710      17.50000    -999.00000    -999.00000    -999.00000    -999.00000      43.32970       2.44300    -999.00000       8.70000
     123.00000     -60.72928      74.60850      16.88430      17.50000    -999.00000    -999.00000    -999.00000    -999.00000      40.52660       2.46840    -999.00000       8.70000
     123.50000     -61.80099      73.88620      16.88160      17.50000    -999.00000    -999.00000    -999.00000    -999.00000      39.36900       2.47160    -999.00000       8.70000
     124.00000     -62.48920      72.66050      16.87880      17.50000     109.25030    -999.00000    -999.00000    -999.00000      39.97860       2.46890    -999.00000       8.70000
     124.50000     -63.13919      72.65840      16.87600      17.50000     117.72100    -999.00000      28.60680    -999.00000      41.06030       2.45400    -999.00000       8.70000
     125.00000     -63.78070      71.00920      16.87330      17.50000     121.81630    -999.00000      23.64640    -999.00000      42.88190       2.41530    -999.00000       8.70000
     125.50000     -64.30640      68.21740      16.87050      17.50000     124.07610    -999.00000      22.83280    -999.00000      44.19200       2.39880    -999.00000       8.70000
     126.00000     -65.00601      67.76650      16.86770      17.50000     123.60720    -999.00000      22.67570    -999.00000      45.36810       2.37130    -999.00000       8.70000
     126.50000     -66.38321      68.20740      16.86500      17.50000     124.30210    -999.00000      22.59040      39.90830      46.31390       2.35150    -999.00000       8.70000
     127.00000     -67.22751      68.91010      16.86220      17.50000     125.35210    -999.00000      22.37830      40.87740      47.29570       2.30800    -999.00000       8.70000
     127.50000     -67.66049      69.65430      16.85950      17.50000     122.77280    -999.00000      21.88490      47.37830      49.46500       2.29580    -999.00000       8.70000
     128.00000     -68.44232      70.35350      16.85670      17.50000     117.99450    -999.00000      21.32380      52.10360      49.88110       2.32630    -999.00000       8.70000
     128.50000     -69.47531      71.05260      16.85390      17.50000     113.72260    -999.00000      20.89100      51.49600      49.23650       2.33140    -999.00000       8.70000
     129.00000     -70.19720      70.97410      16.85120      17.50000     110.10660    -999.00000      20.58770      50.17590      48.24820       2.32470    -999.00000       8.70000
     129.50000     -71.29742      70.10870      16.84950      17.50000     108.15000    -999.00000      20.43870      49.35650      47.48870       2.35170    -999.00000       8.70000
     130.00000     -73.49292      69.67210      16.84870      17.50000     102.59460    -999.00000      20.37950      48.78030      46.35630       2.36790    -999.00000       8.70000
     130.50000     -76.10373      70.05380      16.84780      17.50000     100.65810    -999.00000      20.38580      48.84790      44.55760       2.35890    -999.00000       8.70000
     131.00000     -78.54434      70.66860      16.84700      17.50000      99.27850    -999.00000      20.61680      48.91570      44.17510       2.35280    -999.00000       8.70000
     131.50000     -82.92953      70.44610      16.84610      17.50000     102.10020    -999.00000      21.24410      48.74520      44.07830       2.33730    -999.00000       8.70000
     132.00000     -84.36212      69.79430      16.84530      17.50000     105.47270    -999.00000      21.47090      48.52070      44.08900       2.31910    -999.00000       8.70000
     132.50000     -85.23914      69.55740      16.84440      17.50000     104.06400    -999.00000      21.49490      48.29730      44.24470       2.28330    -999.00000       8.70000
     133.00000     -86.11624      69.76000      16.84360      17.50000     100.64610    -999.00000      21.17500      46.63580      44.39810       2.23760    -999.00000       8.70000
     133.50000     -87.33875      69.57790      16.84270      17.50000      96.93060    -999.00000      20.70080      46.84880      45.86160       2.15810    -999.00000       8.70000
     134.00000     -87.40845      69.39990      16.84190      17.50000      92.46330    -999.00000      20.45200      48.08040      47.69730       2.14370    -999.00000       8.70000
     134.50000     -87.37024      69.57780      16.84100      17.50000      86.76850    -999.00000      20.31610      49.28140      47.60310       2.14630    -999.00000       8.70000
     135.00000     -87.73996      70.24600      16.84020      17.50000      79.94940    -999.00000      20.87080      50.94180      47.48140       2.13320    -999.00000       8.70000
     135.50000     -88.22037      71.81120      16.83930      17.50000      76.17610    -999.00000      22.30330      52.38530      47.24510       2.16780    -999.00000       8.70000
     136.00000     -88.58044      72.75560      16.83850      17.50000      78.49650    -999.00000      24.06500      52.86120      47.00880       2.22760    -999.00000       8.70000
     136.50000     -88.93536      72.57370      16.83760      17.50000      82.56310    -999.00000      25.37170      53.72660      46.65900       2.26820    -999.00000       8.70000
     137.00000     -89.21027      70.52960      16.83680      17.50000      86.79470    -999.00000      25.68630      56.41740      46.09570       2.26060    -999.00000       8.70000
     137.50000     -89.47076      68.58260      16.83590      17.50000      87.20070    -999.00000      25.96390      59.61620      45.01790       2.28110    -999.00000       8.70000
