~VERSION INFORMATION
VERS.      2.0   :CWLS LOG ASCII STANDARD--VERSION 2.0
WRAP.      NO    :ONE LINE PER DEPTH STEP
~WELL INFORMATION
#MNEM.UNIT              DATA          DESCRIPTION
#================================================
STRT.FT                         50.00000 :START DEPTH
STOP.FT                      11200.00000 :STOP DEPTH
STEP.FT                          0.50000 :STEP
NULL.                         -999.00000 :NULL VALUE
COMP.   Data output from TerraStation II         : COMPANY
WELL.   Awuna 1                                  : WELL NAME
UWI.    50-155-20001                             : WELL UWI
API.    50-155-20001                             : WELL API
LOC.    30   3S  25W                             : WELL LOCATION
DATE.   NorthSlope.W44                           : WELL DATE
FLD.    No Project Selected                      : Project NAME
~CURVE INFORMATION
#================================================
M__DEPTH.FT                  :M__DEPTH
SP      .MV                  :SP
GR      .GAPI                :GR
CALI    .IN                  :CALI
BitSize .IN                  :BitSize
MSFL    .OHMM                :MSFL
LL8     .OHMM                :LL8
ILM     .OHMM                :ILM
ILD     .OHMM                :ILD
NPHI    .%                   :NPHI
RHOB    .G/CC                :RHOB
DT      .US/F                :DT
MudWgt  .LBS/GAL             :MudWgt
~PARAMETER INFORMATION
#================================================
~OTHER INFORMATION
#================================================
~A
# ...
    6738.00000      -9.63217      62.25520      20.02110      12.25000    -999.00000      10.10870      13.59970      13.61980      20.80900       2.67270      62.52740      12.50000
    6738.50000      -9.58517      62.44350      20.02130      12.25000    -999.00000      10.21980      13.07380      13.01220      19.75080       2.66350      60.74930      12.50000
    6739.00000      -9.53815      61.81680      20.02140      12.25000    -999.00000       9.91860      13.56380      11.86170      18.08460       2.66470      60.35150      12.50000
    6739.50000      -9.50574      61.26810      20.02160      12.25000    -999.00000       9.46300      14.14130      11.83580      17.94250       2.66900      61.12880      12.50000
    6740.00000      -9.48782      61.11400      20.02170      12.25000    -999.00000       9.02670      14.63870      14.56630      18.13980       2.65830      61.74810      12.50000
    6740.50000      -9.47000      60.60210      20.02190      12.25000    -999.00000       9.75150      15.02220      14.56480      18.76300       2.66840      62.32870      12.50000
    6741.00000      -9.45221      61.27670      20.02200      12.25000    -999.00000      11.09640      15.41570      14.54050      18.94310       2.66430      62.39870      12.50000
    6741.50000      -9.43439      62.75310      20.02220      12.25000    -999.00000      11.10950      15.75590      14.20350      18.92030       2.66000      62.60400      12.50000
    6742.00000      -9.41647      64.16370      20.02230      12.25000    -999.00000      10.24630      16.07790      14.81840      19.02300       2.66330      62.78660      12.50000
    6742.50000      -9.39865      66.37160      20.02250      12.25000    -999.00000       9.67010      16.40650      15.48220      19.28510       2.66840      62.92190      12.50000
    6743.00000      -9.38083      65.95960      20.02260      12.25000    -999.00000       9.68520      16.71240      15.61870      19.36150       2.66500      63.18180      12.50000
    6743.50000      -9.36801      63.99920      20.02280      12.25000    -999.00000       9.69760      16.63260      15.70000      19.47980       2.66200      63.27890      12.50000
    6744.00000      -9.36411      63.67640      20.02300      12.25000    -999.00000       9.71000      16.55310      15.66760      19.67620       2.66810      63.13260      12.50000
    6744.50000      -9.36020      63.13100      20.02310      12.25000    -999.00000       9.72250      16.47400      15.59170      19.57390       2.67820      62.92050      12.50000
    6745.00000      -9.35626      61.79980      20.02330      12.25000    -999.00000       9.74110      16.39530      15.51620      19.30160       2.67330      62.68610      12.50000
    6745.50000      -9.35236      59.69450      20.02340      12.25000    -999.00000       9.77890      16.22290      15.44110      19.29980       2.66400      62.64690      12.50000
    6746.00000      -9.34845      58.31220      20.02360      12.25000    -999.00000       9.76200      16.04720      15.15310      19.16740       2.66400      63.07690      12.50000
    6746.50000      -9.34454      58.58640      20.02370      12.25000    -999.00000       9.57090      15.84190      14.78980      19.47960       2.66980      63.61800      12.50000
    6747.00000      -9.34073      58.90550      20.02390      12.25000    -999.00000       9.42120      15.59260      14.49680      19.46350       2.69110      64.22550      12.50000
    6747.50000      -9.33679      58.84580      20.02400      12.25000    -999.00000       9.36890      15.34710      14.50010      18.95280       2.70320      64.80340      12.50000
    6748.00000      -9.33292      59.25150      20.02420      12.25000    -999.00000       9.59860      15.10560      14.40220      18.35660       2.69040      64.89710      12.50000
    6748.50000      -9.32898      60.07230      20.02430      12.25000    -999.00000       9.76280      14.86780      14.16270      17.93430       2.68270      64.82590      12.50000
    6749.00000      -9.32507      60.94270      20.02450      12.25000    -999.00000       9.66450      14.63380      13.92710      18.04480       2.67120      64.65650      12.50000
    6749.50000      -9.32056      63.17170      20.02460      12.25000    -999.00000       9.39750      14.56650      13.88410      18.09440       2.66280      64.34290      12.50000
    6750.00000      -9.31555      65.69200      20.02480      12.25000    -999.00000       8.35170      14.61220      13.90640      18.62240       2.64940      64.10870      12.50000
    6750.50000      -9.31042      65.42260      20.02490      12.25000    -999.00000       8.99020      14.65790      13.84480      19.15290       2.63760      63.81900      12.50000
    6751.00000      -9.30542      63.52310      20.02510      12.25000    -999.00000       9.58590      14.67610      13.55950      19.20320       2.63840      63.46390      12.50000
    6751.50000      -9.30029      60.84090      20.02530      12.25000    -999.00000       9.94490      14.57050      13.29230      19.26160       2.65720      62.94650      12.50000
    6752.00000      -9.29529      61.05010      20.02540      12.25000    -999.00000      10.01330      14.66630      13.91420      19.50540       2.67490      62.67310      12.50000
    6752.50000      -9.29016      60.72330      20.02560      12.25000    -999.00000       9.53180      14.98800      14.33970      19.76910       2.66020      63.77870      12.50000
    6753.00000      -9.28516      59.64180      20.02570      12.25000    -999.00000       9.32610      15.31670      14.37450      20.02150       2.64940      64.68540      12.50000
    6753.50000      -9.28006      58.43500      20.02590      12.25000    -999.00000       9.32110      15.50650      14.51780      20.50310       2.64770      66.24680      12.50000
    6754.00000      -9.27493      57.32420      20.02600      12.25000    -999.00000       9.31610      15.49760      14.72640      21.61600       2.63320      69.19020      12.50000
    6754.50000      -9.26993      57.73910      20.02620      12.25000    -999.00000       9.31100      15.40510      14.51080      22.87080       2.61250      69.87690      12.50000
    6755.00000      -9.23221      59.23900      20.02630      12.25000    -999.00000       9.28210      14.61190      14.22540      23.45770       2.64010      69.06980      12.50000
    6755.50000      -9.07678      58.36370      20.02650      12.25000    -999.00000       9.21860      13.57180      13.91860      22.05730       2.65500      67.98480      12.50000
    6756.00000      -8.92126      58.11470      20.02660      12.25000    -999.00000       8.97930      12.41390      13.29650      20.26970       2.66430      64.15850      12.50000
    6756.50000      -8.76587      59.69670      20.02680      12.25000    -999.00000       8.35610      10.87540      12.67090      18.84630       2.67200      63.04190      12.50000
    6757.00000      -8.62366      60.41820      20.02690      12.25000    -999.00000       7.74970      10.59990      12.40470      18.64600       2.67310      63.99600      12.50000
    6757.50000      -8.67484      60.28890      20.02710      12.25000    -999.00000       6.94610      12.13110      12.23090      18.78160       2.67710      64.54460      12.50000
    6758.00000      -8.72601      58.98760      20.02730      12.25000    -999.00000       7.83020      15.57150      12.09600      19.68790       2.68270      63.75000      12.50000
    6758.50000      -8.77719      58.23440      20.02740      12.25000    -999.00000       9.00820      14.31750      12.13860      20.32090       2.68180      62.97740      12.50000
    6759.00000      -8.82837      59.26110      20.02760      12.25000    -999.00000       9.47030      13.09550      12.63270      20.32950       2.67970      62.83390      12.50000
    6759.50000      -8.81708      62.22180      20.02770      12.25000    -999.00000       9.44550      13.62460      13.14690      19.61940       2.67120      63.91260      12.50000
