~VERSION INFORMATION
VERS.      2.0   :CWLS LOG ASCII STANDARD--VERSION 2.0
WRAP.      NO    :ONE LINE PER DEPTH STEP
~WELL INFORMATION
#MNEM.UNIT              DATA          DESCRIPTION
#================================================
STRT.FT                         50.00000 :START DEPTH
STOP.FT                      11200.00000 :STOP DEPTH
STEP.FT                          0.50000 :STEP
NULL.                         -999.00000 :NULL VALUE
COMP.   Data output from TerraStation II         : COMPANY
WELL.   Awuna 1                                  : WELL NAME
UWI.    50-155-20001                             : WELL UWI
API.    50-155-20001                             : WELL API
LOC.    30   3S  25W                             : WELL LOCATION
DATE.   NorthSlope.W44                           : WELL DATE
FLD.    No Project Selected                      : Project NAME
~CURVE INFORMATION
#================================================
M__DEPTH.FT                  :M__DEPTH
SP      .MV                  :SP
GR      .GAPI                :GR
CALI    .IN                  :CALI
BitSize .IN                  :BitSize
MSFL    .OHMM                :MSFL
LL8     .OHMM                :LL8
ILM     .OHMM                :ILM
ILD     .OHMM                :ILD
NPHI    .%                   :NPHI
RHOB    .G/CC                :RHOB
DT      .US/F                :DT
MudWgt  .LBS/GAL             :MudWgt
~PARAMETER INFORMATION
#================================================
~OTHER INFORMATION
#================================================
~A
# ...
    9686.00000      -3.40094      47.52792    -999.00000       6.50000    -999.00000      14.71480      17.28200      14.62290      36.44630    -999.00000      64.15710      16.60000
    9686.50000      -3.17532      47.39256    -999.00000       6.50000    -999.00000      15.39260      17.20530      13.92680      35.97890    -999.00000      67.08510      16.60000
    9687.00000      -3.62076      47.50402    -999.00000       6.50000    -999.00000      16.99290      16.86340      13.46790      34.57940    -999.00000      68.08920      16.60000
    9687.50000      -2.78958      49.59188    -999.00000       6.50000    -999.00000      18.31950      15.09180      13.20640      33.12180    -999.00000      66.90220      16.60000
    9688.00000      -2.95792      51.79493    -999.00000       6.50000    -999.00000      14.35190      13.71940      12.93560      31.04620    -999.00000      66.33950      16.60000
    9688.50000      -3.50995      53.57952    -999.00000       6.50000    -999.00000      12.91140      12.63110      12.47440      28.47790    -999.00000      65.62800      16.60000
    9689.00000      -3.52878      54.67565    -999.00000       6.50000    -999.00000      12.43270      12.71400      12.06750      28.18030    -999.00000      66.20730      16.60000
    9689.50000      -2.65851      55.33617    -999.00000       6.50000    -999.00000      13.40610      13.42310      12.66660      28.34120    -999.00000      64.95710      16.60000
    9690.00000      -1.44534      54.61085    -999.00000       6.50000    -999.00000      14.39000      14.66710      13.29560      30.23590    -999.00000      64.12410      16.60000
    9690.50000      -1.25436      53.69731    -999.00000       6.50000    -999.00000      14.39320      16.02640      13.99500      30.43030    -999.00000      63.60220      16.60000
    9691.00000      -1.14514      54.10022    -999.00000       6.50000    -999.00000      14.74180      17.26400      14.81040      30.13130    -999.00000      64.19850      16.60000
    9691.50000      -1.64276      54.94853    -999.00000       6.50000    -999.00000      15.43620      18.21830      15.67330      28.88630    -999.00000      65.67810      16.60000
    9692.00000      -2.04218      55.02658    -999.00000       6.50000    -999.00000      16.29890      17.35750      16.55710      28.48310    -999.00000      65.45930      16.60000
    9692.50000      -2.63843      55.83974    -999.00000       6.50000    -999.00000      17.41100      16.11640      16.36860      28.12190    -999.00000      64.94790      16.60000
    9693.00000      -3.93805      57.42850    -999.00000       6.50000    -999.00000      17.94950      14.73180      15.06610      27.44460    -999.00000      66.16580      16.60000
    9693.50000      -4.57538      58.46400    -999.00000       6.50000    -999.00000      16.88800      13.79980      13.86730      26.96090    -999.00000      67.38140      16.60000
    9694.00000      -4.20911      58.25419    -999.00000       6.50000    -999.00000      13.94070      13.00170      13.13170      26.52800    -999.00000      67.12380      16.60000
    9694.50000      -3.52124      56.82643    -999.00000       6.50000    -999.00000      12.46470      12.49690      12.65270      26.04870    -999.00000      66.40470      16.60000
    9695.00000      -3.17471      55.12810    -999.00000       6.50000    -999.00000      12.22350      12.40240      12.19100      27.16220    -999.00000      65.91980      16.60000
    9695.50000      -3.19125      54.92060    -999.00000       6.50000    -999.00000      13.21720      13.24160      13.14380      29.25840    -999.00000      65.93760      16.60000
    9696.00000      -3.21628      53.64749    -999.00000       6.50000    -999.00000      14.29150      14.10640      14.36000      31.07860    -999.00000      65.20270      16.60000
    9696.50000      -4.01840      51.78499    -999.00000       6.50000    -999.00000      14.12570      14.68700      14.05210      32.04730    -999.00000      62.96620      16.60000
    9697.00000      -5.83774      50.55495    -999.00000       6.50000    -999.00000      13.32020      15.39350      13.39250      31.79500    -999.00000      62.94820      16.60000
    9697.50000      -6.50906      48.98030    -999.00000       6.50000    -999.00000      13.05180      16.63800      13.14110      32.11400    -999.00000      62.93610      16.60000
    9698.00000      -7.39780      48.53463    -999.00000       6.50000    -999.00000      16.86280      16.48470      15.07530      32.12080    -999.00000      64.53630      16.60000
    9698.50000      -8.57065      47.44238    -999.00000       6.50000    -999.00000      23.91810      16.06850      16.93950      31.12380    -999.00000      69.10190      16.60000
    9699.00000      -8.77167      46.08835    -999.00000       6.50000    -999.00000      26.46380      18.14240      17.39160      29.49020    -999.00000      70.44880      16.60000
    9699.50000      -8.95822      44.82014    -999.00000       6.50000    -999.00000      22.43030      16.63680      17.11490      27.55140    -999.00000      69.33060      16.60000
    9700.00000      -9.37875      43.91957    -999.00000       6.50000    -999.00000      17.89140      15.44350      16.84260      24.22400    -999.00000      69.74440      16.60000
    9700.50000      -9.51410      46.74500    -999.00000       6.50000    -999.00000      15.23710      15.28380      16.57470      22.94150    -999.00000      63.86960      16.60000
    9701.00000      -9.33884      49.64530    -999.00000       6.50000    -999.00000      15.27970      15.18790      16.31110      24.37660    -999.00000      64.64250      16.60000
    9701.50000      -8.92206      51.01661    -999.00000       6.50000    -999.00000      15.19910      15.25600      16.05160      26.97920    -999.00000      63.96240      16.60000
    9702.00000      -8.86069      52.56950    -999.00000       6.50000    -999.00000      15.08250      15.32450      15.79630      28.98470    -999.00000      63.04370      16.60000
    9702.50000      -9.04510      52.53005    -999.00000       6.50000    -999.00000      15.28850      15.39320      15.59810      29.01170    -999.00000      62.57160      16.60000
    9703.00000      -9.23166      50.26723    -999.00000       6.50000    -999.00000      15.67930      15.63290      16.01780      28.49040    -999.00000      61.23010      16.60000
    9703.50000      -9.02274      48.83300    -999.00000       6.50000    -999.00000      16.51040      16.16680      16.44890      27.76700    -999.00000      63.07340      16.60000
    9704.00000      -8.81845      47.81463    -999.00000       6.50000    -999.00000      18.24780      16.13870      16.49040      27.63420    -999.00000      53.91240      16.60000
    9704.50000      -8.60507      46.91851    -999.00000       6.50000    -999.00000      20.07260      15.84940      16.15140      27.73580    -999.00000      50.72070      16.60000
    9705.00000      -8.40732      45.69466    -999.00000       6.50000    -999.00000      21.79220      16.86760      18.70860      27.72440    -999.00000      50.82530      16.60000
    9705.50000      -8.26025      43.02821    -999.00000       6.50000    -999.00000      24.80500      22.41420      22.23340      27.49740    -999.00000      57.05200      16.60000
    9706.00000      -8.11307      40.46746    -999.00000       6.50000    -999.00000      30.27570      20.06470      21.58250      28.10640    -999.00000      57.90560      16.60000
    9706.50000      -7.67160      39.10810    -999.00000       6.50000    -999.00000      27.43960      16.62250      21.18840      28.31410    -999.00000      61.86390      16.60000
    9707.00000      -7.61725      39.90917    -999.00000       6.50000    -999.00000      21.34910      16.41810      20.67790      25.64880    -999.00000      62.30150      16.60000
    9707.50000      -8.09930      41.35162    -999.00000       6.50000    -999.00000      20.84070      17.16800      19.83450      24.79590    -999.00000      62.14500      16.60000
