~VERSION INFORMATION
VERS.      2.0   :CWLS LOG ASCII STANDARD--VERSION 2.0
WRAP.      NO    :ONE LINE PER DEPTH STEP
~WELL INFORMATION
#MNEM.UNIT              DATA          DESCRIPTION
#================================================
STRT.FT                         50.00000 :START DEPTH
STOP.FT                      11200.00000 :STOP DEPTH
STEP.FT                          0.50000 :STEP
NULL.                         -999.00000 :NULL VALUE
COMP.   Data output from TerraStation II         : COMPANY
WELL.   Awuna 1                                  : WELL NAME
UWI.    50-155-20001                             : WELL UWI
API.    50-155-20001                             : WELL API
LOC.    30   3S  25W                             : WELL LOCATION
DATE.   NorthSlope.W44                           : WELL DATE
FLD.    No Project Selected                      : Project NAME
~CURVE INFORMATION
#================================================
M__DEPTH.FT                  :M__DEPTH
SP      .MV                  :SP
GR      .GAPI                :GR
CALI    .IN                  :CALI
BitSize .IN                  :BitSize
MSFL    .OHMM                :MSFL
LL8     .OHMM                :LL8
ILM     .OHMM                :ILM
ILD     .OHMM                :ILD
NPHI    .%                   :NPHI
RHOB    .G/CC                :RHOB
DT      .US/F                :DT
MudWgt  .LBS/GAL             :MudWgt
~PARAMETER INFORMATION
#================================================
~OTHER INFORMATION
#================================================
~A
# ...
    1590.00000     -17.73947      74.52180      20.00010      17.50000    -999.00000      12.98220      10.79670      14.33000      44.80110       1.61760      98.04080       9.30000
    1590.50000     -16.60391      73.38860      20.00010      17.50000    -999.00000      12.95840      10.79180      14.26720      44.87150       1.59810      98.55740       9.30000
    1591.00000     -15.46835      73.07330      20.00020      17.50000    -999.00000      12.93460      10.78680      14.20470      44.86780       1.57490      98.00180       9.30000
    1591.50000     -14.33276      72.79200      20.00020      17.50000    -999.00000      12.91080      10.78180      14.14240      44.86400       1.57420      96.11030       9.30000
    1592.00000     -13.33951      72.59980      20.00020      17.50000    -999.00000      12.88710      10.66570      14.08040      44.86030       1.58740      96.38290       9.30000
    1592.50000     -12.35822      72.93660      20.00020      17.50000    -999.00000      12.82600      10.52440      14.01870      44.85650       1.59760      97.59720       9.30000
    1593.00000     -11.37695      74.49850      20.00020      17.50000    -999.00000      12.73620      10.42490      13.95730      44.85280       1.60620      98.09890       9.30000
    1593.50000     -10.39569      75.64720      20.00030      17.50000    -999.00000      12.64700      10.32910      13.82480      44.84900       1.61270     100.24170       9.30000
    1594.00000      -9.74683      75.54330      20.00030      17.50000    -999.00000      12.55850      10.23420      13.64960      44.84530       1.61670     101.76330       9.30000
    1594.50000      -9.60104      75.39410      20.00030      17.50000    -999.00000      12.43680      10.14010      13.47660      44.19780       1.62300     103.34230       9.30000
    1595.00000      -7.92847      75.43060      20.00030      17.50000    -999.00000      12.26430      10.04700      13.30590      43.80730       1.62700     104.57310       9.30000
    1595.50000      -7.73599      75.75350      20.00040      17.50000    -999.00000      12.09430       9.95470      13.13730      44.83100       1.63080     101.49530       9.30000
    1596.00000      -8.78983      76.91380      20.00040      17.50000    -999.00000      11.82630       9.87970      12.97080      44.83000       1.63140      98.04160       9.30000
    1596.50000      -9.95956      77.23280      20.00040      17.50000    -999.00000      11.92750       9.81010      12.80640      44.82900       1.63170      96.11420       9.30000
    1597.00000      -8.91159      76.36240      20.00040      17.50000    -999.00000      12.23540       9.74110      12.75020      44.82800       1.64170      95.82670       9.30000
    1597.50000      -7.53851      74.58860      20.00050      17.50000    -999.00000      12.08840       9.67250      12.73000      44.43940       1.66780      95.39970       9.30000
    1598.00000      -6.74374      72.60230      20.00050      17.50000    -999.00000      11.94320       9.60440      12.69230      43.21150       1.68000      95.07220       9.30000
    1598.50000      -6.04749      72.58390      20.00050      17.50000    -999.00000      11.79980       9.53870      12.59750      43.10430       1.71290      94.96750       9.30000
    1599.00000      -5.73181      74.10000      20.00050      17.50000    -999.00000      11.66410       9.47480      12.50350      42.99710       1.72840      94.96010       9.30000
    1599.50000      -5.41626      75.41480      20.00050      17.50000    -999.00000      11.54230       9.41130      12.41010      44.63380       1.72740      95.43310       9.30000
    1600.00000      -4.66556      75.85150      20.00060      17.50000    -999.00000      11.42170       9.34810      12.31750      44.88940       1.73090      96.41930       9.30000
    1600.50000      -3.84061      75.67370      20.00060      17.50000    -999.00000      11.30240       9.36690      12.22560      44.88190       1.75160      97.97230       9.30000
    1601.00000      -3.01562      74.33930      20.00060      17.50000    -999.00000      11.24020       9.44730      12.26430      44.87430       1.77380      98.39300       9.30000
    1601.50000      -5.12265      72.86450      20.00060      17.50000    -999.00000      11.48840       9.52830      12.38670      44.86670       1.77440      98.44450       9.30000
    1602.00000      -5.54330      72.88480      20.00070      17.50000    -999.00000      11.74190       9.61010      12.51040      44.85920       1.74930      97.60110       9.30000
    1602.50000      -3.44601      73.16210      20.00070      17.50000    -999.00000      12.00110       9.69250      12.63520      44.85160       1.72880      96.16560       9.30000
    1603.00000      -1.59564      73.52170      20.00070      17.50000    -999.00000      12.14330       9.77570      12.76130      44.84410       1.71690      94.41750       9.30000
    1603.50000      -1.39398      75.06870      20.00070      17.50000    -999.00000      11.97190       9.84410      12.88870      44.83650       1.69980      95.07590       9.30000
    1604.00000      -1.72281      76.87390      20.00070      17.50000    -999.00000      11.80520       9.84990      12.96140      44.82890       1.72380      96.20850       9.30000
    1604.50000      -2.58151      77.50880      20.00080      17.50000    -999.00000      11.67270       9.85560      12.95150      44.82140       1.79870      97.59350       9.50000
    1605.00000      -4.09665      77.05710      20.00080      17.50000    -999.00000      11.54180       9.86140      12.94160      44.81380       1.85390      97.94890       9.50000
    1605.50000      -4.61499      76.90260      20.00080      17.50000    -999.00000      11.49560       9.86710      12.93170      44.80630       1.87020      98.74220       9.50000
    1606.00000      -5.47083      76.37390      20.00080      17.50000    -999.00000      11.47070       9.88170      12.89140      44.79870       1.85320      99.03410       9.50000
    1606.50000      -4.95316      75.00610      20.00090      17.50000    -999.00000      11.44590       9.90110      12.81770      44.79110       1.85660      99.03900       9.50000
    1607.00000      -1.92047      72.94500      20.00090      17.50000    -999.00000      11.42110       9.90780      12.74440      44.63790       1.86030      98.02120       9.50000
    1607.50000      -0.65842      72.26530      20.00090      17.50000    -999.00000      11.39640       9.95200      12.67150      44.39520       1.86340      96.46700       9.50000
    1608.00000       0.27545      73.18720      20.00090      17.50000    -999.00000      11.37180       9.92630      12.59900      44.70360       1.85480      95.91910       9.50000
    1608.50000       1.09064      74.21590      20.00100      17.50000    -999.00000      11.34760       9.91180      12.52690      44.87520       1.85600      95.03080       9.50000
    1609.00000       0.89969      75.04970      20.00100      17.50000    -999.00000      11.46820       9.89330      12.48710      44.39160       1.85870      93.95960       9.50000
    1609.50000       0.66498      75.40380      20.00100      17.50000    -999.00000      11.59000       9.87440      12.46860      42.93770       1.83660      94.25390       9.50000
    1610.00000      -0.65506      75.14750      20.00100      17.50000    -999.00000      11.71310       9.85570      12.45020      42.39110       1.82870      94.32460       9.50000
    1610.50000      -1.07779      74.68100      20.00100      17.50000    -999.00000      11.76100       9.83690      12.43180      43.52150       1.80020      94.67100       9.50000
    1611.00000      -1.29941      73.78210      20.00110      17.50000    -999.00000      11.58850       9.81820      12.41350      44.85540       1.79070      95.84310       9.50000
    1611.50000      -2.29474      72.52520      20.00110      17.50000    -999.00000      11.41850       9.79960      12.39510      44.85490       1.82640      98.39780       9.50000
