~VERSION INFORMATION
VERS.      2.0   :CWLS LOG ASCII STANDARD--VERSION 2.0
WRAP.      NO    :ONE LINE PER DEPTH STEP
~WELL INFORMATION
#MNEM.UNIT              DATA          DESCRIPTION
#================================================
STRT.FT                         50.00000 :START DEPTH
STOP.FT                      11200.00000 :STOP DEPTH
STEP.FT                          0.50000 :STEP
NULL.                         -999.00000 :NULL VALUE
COMP.   Data output from TerraStation II         : COMPANY
WELL.   Awuna 1                                  : WELL NAME
UWI.    50-155-20001                             : WELL UWI
API.    50-155-20001                             : WELL API
LOC.    30   3S  25W                             : WELL LOCATION
DATE.   NorthSlope.W44                           : WELL DATE
FLD.    No Project Selected                      : Project NAME
~CURVE INFORMATION
#================================================
M__DEPTH.FT                  :M__DEPTH
SP      .MV                  :SP
GR      .GAPI                :GR
CALI    .IN                  :CALI
BitSize .IN                  :BitSize
MSFL    .OHMM                :MSFL
LL8     .OHMM                :LL8
ILM     .OHMM                :ILM
ILD     .OHMM                :ILD
NPHI    .%                   :NPHI
RHOB    .G/CC                :RHOB
DT      .US/F                :DT
MudWgt  .LBS/GAL             :MudWgt
~PARAMETER INFORMATION
#================================================
~OTHER INFORMATION
#================================================
~A
# ...
    3064.00000      -2.89142      74.69410      19.99700      17.50000    -999.00000      12.40820      11.86030      16.50950      44.86130       2.33130     100.52060      10.00000
    3064.50000      -2.77298      75.92110      19.99640      17.50000    -999.00000      12.45040      11.74010      15.79390      44.85670       2.32860      97.56380      10.00000
    3065.00000      -2.83124      78.43650      19.99580      17.50000    -999.00000      12.55260      11.58740      15.56350      44.85200       2.28940      92.94800      10.00000
    3065.50000      -3.16351      79.17350      19.99520      17.50000    -999.00000      12.65570      11.40380      15.60850      44.84740       2.30290      87.35180      10.00000
    3066.00000      -3.49567      79.84440      19.99460      17.50000    -999.00000      12.75960      11.56380      15.54050      44.84280       2.30870      81.72140      10.00000
    3066.50000      -3.82791      81.19670      19.99410      17.50000    -999.00000      12.86440      11.81140      15.68230      44.83810       2.33910      84.07420      10.00000
    3067.00000      -3.70990      82.83430      19.99350      17.50000    -999.00000      12.97010      11.85880      15.81280      44.20850       2.35360      85.83530      10.00000
    3067.50000      -3.48196      81.94600      19.99290      17.50000    -999.00000      13.07660      11.90640      15.67240      42.30280       2.32080      90.52530      10.00000
    3068.00000      -3.25391      80.77650      19.99230      17.50000    -999.00000      13.18390      11.79490      15.40560      41.00090       2.33100      97.64310      10.00000
    3068.50000      -3.02597      80.96230      19.82470      17.50000    -999.00000      13.32360      11.55050      15.11200      39.60630       2.39030     100.99780      10.00000
    3069.00000      -2.79337      81.64300      19.99060      17.50000    -999.00000      13.34500      11.11300      15.31080      37.04120       2.42300      97.91550      10.00000
    3069.50000      -2.45160      81.92690      19.98830      17.50000    -999.00000      13.12110      10.97290      15.33950      35.93740       2.43830      95.04260      10.00000
    3070.00000      -2.11908      81.55360      19.98610      17.50000    -999.00000      13.14410      11.08180      15.58250      35.99550       2.40840      89.66860      10.00000
    3070.50000      -1.88184      81.05720      19.98380      17.50000    -999.00000      13.16710      11.57070      15.74860      35.97270       2.36830      83.75370      10.00000
    3071.00000      -1.64468      80.20450      19.98160      17.50000    -999.00000      13.27970      12.08110      15.79440      35.45680       2.38610      85.19560      10.00000
    3071.50000      -1.92426      79.23630      19.97930      17.50000    -999.00000      13.60700      12.58590      16.03980      35.64580       2.39200      82.18530      10.00000
    3072.00000      -2.51041      79.82040      19.97710      17.50000    -999.00000      13.91570      12.91270      16.46230      37.52260       2.33710      78.98420      10.00000
    3072.50000      -3.09650      81.18250      19.97480      17.50000    -999.00000      13.97980      13.24800      16.89580      38.36730       2.39680      82.65450      10.00000
    3073.00000      -3.73645      79.84350      19.97260      17.50000    -999.00000      14.04420      13.59200      17.23430      37.48080       2.46980      90.17250      10.00000
    3073.50000      -3.76501      76.57700      19.97030      17.50000    -999.00000      14.10890      13.55470      17.34370      36.18010       2.44110      91.96270      10.00000
    3074.00000      -2.97607      74.78530      19.96810      17.50000    -999.00000      14.17390      13.43520      17.65840      36.18140       2.41970      87.66630      10.00000
    3074.50000      -2.73114      73.85460      19.96580      17.50000    -999.00000      13.80640      13.31670      17.97320      36.80730       2.41480      84.21540      10.00000
    3075.00000      -4.51749      74.98000      19.96360      17.50000    -999.00000      13.44510      13.23710      18.30820      37.62680       2.38060      75.29460      10.00000
    3075.50000      -5.06015      76.23480      19.96130      17.50000    -999.00000      13.59160      13.56120      18.47020      37.64230       2.37200      76.17930      10.00000
    3076.00000      -3.55951      76.36670      19.95910      17.50000    -999.00000      14.11750      13.89330      18.34100      36.58630       2.36170      80.89440      10.00000
    3076.50000      -2.34500      76.86270      19.95680      17.50000    -999.00000      14.46660      14.23350      18.10320      36.08710       2.30540      90.54120      10.00000
    3077.00000      -2.37265      77.81230      19.95460      17.50000    -999.00000      14.42420      14.20450      17.47980      36.54350       2.25430      96.48420      10.00000
    3077.50000      -2.62671      77.82200      19.66850      17.50000    -999.00000      14.26700      13.76900      17.07350      36.57200       2.24810      96.15470      10.00000
    3078.00000      -2.88068      76.62300      19.69880      17.50000    -999.00000      13.57080      13.09760      16.95920      36.93930       2.21570      92.18490      10.00000
    3078.50000      -3.13464      75.74530      20.00680      17.50000    -999.00000      12.76130      12.45490      16.84570      39.77450       2.19160      85.13930      10.00000
    3079.00000      -3.02121      76.91740      20.00630      17.50000    -999.00000      12.34590      11.91910      16.82700      43.63870       2.23820      82.61260      10.00000
    3079.50000      -2.79376      78.12000      20.00580      17.50000    -999.00000      12.43950      12.21440      16.71810      44.73790       2.26480      88.51740      10.00000
    3080.00000      -2.55115      78.28990      20.00530      17.50000    -999.00000      12.77690      12.51690      16.15300      42.94580       2.30360      95.52370      10.00000
    3080.50000      -2.75201      78.05870      20.00480      17.50000    -999.00000      13.37210      12.82700      15.52500      40.82730       2.39040      97.94570      10.00000
    3081.00000      -3.19858      77.48330      20.00430      17.50000    -999.00000      14.03110      12.56220      14.96350      39.55700       2.40360      98.17280      10.00000
    3081.50000      -3.63861      76.19440      20.00380      17.50000    -999.00000      13.29380      12.10080      15.41520      38.76700       2.38070      94.33350      10.00000
    3082.00000      -4.07867      74.68310      20.00340      17.50000    -999.00000      12.51470      11.65630      15.83960      39.45040       2.29530      87.68210      10.00000
    3082.50000      -4.28925      73.66760      20.00290      17.50000    -999.00000      12.28990      12.02440      16.33630      41.40450       2.24800      84.42720      10.00000
    3083.00000      -3.91010      74.14230      20.00240      17.50000    -999.00000      12.50460      12.40710      16.48020      43.23880       2.18520      84.05660      10.00000
    3083.50000      -3.53537      73.38810      20.00190      17.50000    -999.00000      13.01530      12.80190      16.37860      43.12130       2.18460      86.64590      10.00000
    3084.00000      -3.31476      71.95300      20.00140      17.50000    -999.00000      13.46040      12.72340      16.22250      44.44370       2.21450      91.09890      10.00000
    3084.50000      -3.11670      71.47620      20.00090      17.50000    -999.00000      13.91070      12.48890      16.02530      44.84580       2.14230      95.89220      10.00000
    3085.00000      -3.19995      72.19400      20.00040      17.50000    -999.00000      13.70970      12.14690      16.27630      44.85860       2.16940      96.49480      10.00000
    3085.50000      -3.28311      72.36060      19.99990      17.50000    -999.00000      13.20870      11.65420      16.67240      44.87130       2.19420      94.96390      10.00000
