~VERSION INFORMATION
VERS.      2.0   :CWLS LOG ASCII STANDARD--VERSION 2.0
WRAP.      NO    :ONE LINE PER DEPTH STEP
~WELL INFORMATION
#MNEM.UNIT              DATA          DESCRIPTION
#================================================
STRT.FT                         50.00000 :START DEPTH
STOP.FT                      11200.00000 :STOP DEPTH
STEP.FT                          0.50000 :STEP
NULL.                         -999.00000 :NULL VALUE
COMP.   Data output from TerraStation II         : COMPANY
WELL.   Awuna 1                                  : WELL NAME
UWI.    50-155-20001                             : WELL UWI
API.    50-155-20001                             : WELL API
LOC.    30   3S  25W                             : WELL LOCATION
DATE.   NorthSlope.W44                           : WELL DATE
FLD.    No Project Selected                      : Project NAME
~CURVE INFORMATION
#================================================
M__DEPTH.FT                  :M__DEPTH
SP      .MV                  :SP
GR      .GAPI                :GR
CALI    .IN                  :CALI
BitSize .IN                  :BitSize
MSFL    .OHMM                :MSFL
LL8     .OHMM                :LL8
ILM     .OHMM                :ILM
ILD     .OHMM                :ILD
NPHI    .%                   :NPHI
RHOB    .G/CC                :RHOB
DT      .US/F                :DT
MudWgt  .LBS/GAL             :MudWgt
~PARAMETER INFORMATION
#================================================
~OTHER INFORMATION
#================================================
~A
# ...
    8960.00000      -7.90372      48.63053    -999.00000       6.50000    -999.00000      25.42570      20.00460      19.87300      17.06730    -999.00000      59.85410      17.20000
    8960.50000      -7.90359      47.69064    -999.00000       6.50000    -999.00000      23.19530      19.51170      19.57080      17.02390    -999.00000      56.30350      17.20000
    8961.00000      -7.99722      47.10989    -999.00000       6.50000    -999.00000      20.41400      19.39210      19.32740      17.07840    -999.00000      52.59680      17.20000
    8961.50000      -8.07202      46.28002    -999.00000       6.50000    -999.00000      19.88670      19.41830      20.24160      17.68830    -999.00000      52.61380      17.20000
    8962.00000      -7.96213      44.56037    -999.00000       6.50000    -999.00000      30.27590      19.83550      25.68280      18.06270    -999.00000      54.10780      17.20000
    8962.50000      -7.85220      42.20136    -999.00000       6.50000    -999.00000      54.06400      20.37370      26.87120      17.17750    -999.00000      55.73290      17.20000
    8963.00000      -7.62750      39.93782    -999.00000       6.50000    -999.00000      64.71260      20.62280      25.50120      15.78050    -999.00000      57.22250      17.20000
    8963.50000      -7.60239      41.46696    -999.00000       6.50000    -999.00000      28.55560      21.24710      24.26490      14.05840    -999.00000      58.22960      17.20000
    8964.00000      -7.54941      44.77119    -999.00000       6.50000    -999.00000      25.02770      21.52950      23.56920      13.43000    -999.00000      59.07460      17.20000
    8964.50000      -7.49649      47.20032    -999.00000       6.50000    -999.00000      28.36560      21.71090      22.11740      13.37890    -999.00000      58.21780      17.20000
    8965.00000      -7.54730      46.66896    -999.00000       6.50000    -999.00000      25.18800      19.96300      20.82100      14.61360    -999.00000      56.63350      17.20000
    8965.50000      -7.64297      46.78056    -999.00000       6.50000    -999.00000      19.19650      18.78490      20.25340      15.92070    -999.00000      57.08700      17.20000
    8966.00000      -7.73669      47.28240    -999.00000       6.50000    -999.00000      17.14560      20.07510      19.87150      16.67230    -999.00000      58.70230      17.20000
    8966.50000      -7.75006      46.26044    -999.00000       6.50000    -999.00000      16.70740      29.15770      19.92610      17.21630    -999.00000      60.13900      17.20000
    8967.00000      -7.46008      44.07984    -999.00000       6.50000    -999.00000      16.37810      48.11790      19.83090      18.10190    -999.00000      60.03540      17.20000
    8967.50000      -7.33279      43.93570    -999.00000       6.50000    -999.00000      15.38340      24.11640      19.12920      17.94620    -999.00000      56.10160      17.20000
    8968.00000      -7.20450      46.70655    -999.00000       6.50000    -999.00000      13.47310      16.88140      17.57520      16.37760    -999.00000      53.90220      17.20000
    8968.50000      -7.10486      48.88887    -999.00000       6.50000    -999.00000      16.94270      21.08030      16.14740      16.51410    -999.00000      55.48500      17.20000
    8969.00000      -7.12155      47.19413    -999.00000       6.50000    -999.00000      46.84910      24.50720      15.40190      18.58850    -999.00000      55.97560      17.20000
    8969.50000      -7.17456      42.92439    -999.00000       6.50000    -999.00000      55.46240      20.61270      15.18440      20.44030    -999.00000      55.87970      17.20000
    8970.00000      -7.19455      44.26748    -999.00000       6.50000    -999.00000      46.73310      16.50480      15.05090      18.63670    -999.00000      56.67300      17.20000
    8970.50000      -7.26895      45.14371    -999.00000       6.50000    -999.00000      15.42140      14.96960      15.07540      15.75810    -999.00000      55.55720      17.20000
    8971.00000      -7.39838      45.54591    -999.00000       6.50000    -999.00000      12.82480      15.75440      16.71250      14.13870    -999.00000      53.59310      17.20000
    8971.50000      -7.27737      44.72453    -999.00000       6.50000    -999.00000      15.70830      18.74340      19.81530      14.49930    -999.00000      52.81260      17.20000
    8972.00000      -7.12784      43.18344    -999.00000       6.50000    -999.00000      19.19610      20.82470      23.49400      14.74680    -999.00000      52.33910      17.20000
    8972.50000      -7.02396      41.46711    -999.00000       6.50000    -999.00000      21.98330      19.78220      25.34930      14.99420    -999.00000      52.29740      17.20000
    8973.00000      -6.89453      39.49229    -999.00000       6.50000    -999.00000      38.86290      19.60700      25.34300      15.00500    -999.00000      53.01940      17.20000
    8973.50000      -6.78796      38.84443    -999.00000       6.50000    -999.00000      52.41260      22.47220      25.19610      14.36950    -999.00000      53.23580      17.20000
    8974.00000      -7.44846      40.59850    -999.00000       6.50000    -999.00000      35.18270      25.41000      25.94300      13.92500    -999.00000      53.44510      17.20000
    8974.50000      -7.89093      41.14627    -999.00000       6.50000    -999.00000      28.57920      28.96660      26.71210      13.46790    -999.00000      54.72210      17.20000
    8975.00000      -7.12631      41.85274    -999.00000       6.50000    -999.00000      37.08170      33.00500      26.47830      12.67760    -999.00000      58.39770      17.20000
    8975.50000      -6.71713      43.08293    -999.00000       6.50000    -999.00000      43.32530      31.59840      25.97990      12.26510    -999.00000      60.94710      17.20000
    8976.00000      -6.97421      46.12752    -999.00000       6.50000    -999.00000      34.57140      26.92750      22.76770      13.18140    -999.00000      61.57280      17.20000
    8976.50000      -7.20053      51.07162    -999.00000       6.50000    -999.00000      25.29880      19.57170      20.21770      13.79700    -999.00000      61.11030      17.20000
    8977.00000      -7.25903      56.88375    -999.00000       6.50000    -999.00000      18.28120      18.09670      19.21480      13.82970    -999.00000      60.73270      17.20000
    8977.50000      -7.09473      60.38626    -999.00000       6.50000    -999.00000      15.87580      16.49230      18.26170      14.95180    -999.00000      62.16510      17.20000
    8978.00000      -6.99091      61.82338    -999.00000       6.50000    -999.00000      18.71260      14.80570      17.29580      17.13860    -999.00000      65.27200      17.20000
    8978.50000      -6.97482      61.14197    -999.00000       6.50000    -999.00000      22.44910      13.36860      16.13640      19.30100    -999.00000      67.60020      17.20000
    8979.00000      -6.90991      59.77988    -999.00000       6.50000    -999.00000      19.49620      12.56070      14.50100      20.64930    -999.00000      69.09830      17.20000
    8979.50000      -6.84500      61.73079    -999.00000       6.50000    -999.00000      16.55320      11.80170      13.08880      20.96490    -999.00000      69.45710      17.20000
    8980.00000      -6.78012      63.65218    -999.00000       6.50000    -999.00000      13.75380      11.17270      11.85100      21.26260    -999.00000      66.43490      17.20000
    8980.50000      -6.71521      65.29882    -999.00000       6.50000    -999.00000      11.49040      10.80320      11.06830      22.81300    -999.00000      61.00680      17.20000
    8981.00000      -7.32471      66.27888    -999.00000       6.50000    -999.00000      10.88010      10.44600      11.27780      24.60760    -999.00000      54.91030      17.20000
    8981.50000      -7.32309      65.22495    -999.00000       6.50000    -999.00000      11.37160      10.67640      12.54730      27.22920    -999.00000      50.14830      17.20000
