~VERSION INFORMATION
VERS.      2.0   :CWLS LOG ASCII STANDARD--VERSION 2.0
WRAP.      NO    :ONE LINE PER DEPTH STEP
~WELL INFORMATION
#MNEM.UNIT              DATA          DESCRIPTION
#================================================
STRT.FT                         20.00000 :START DEPTH
STOP.FT                       7505.00000 :STOP DEPTH
STEP.FT                          0.50000 :STEP
NULL.                         -999.00000 :NULL VALUE
COMP.   Data output from TerraStation II         : COMPANY
WELL.   East Simpson 2                           : WELL NAME
UWI.    50-279-20007                             : WELL UWI
API.    50-279-20007                             : WELL API
LOC.    23 19N 11W                               : WELL LOCATION
DATE.   NorthSlope.W40                           : WELL DATE
FLD.    No Project Selected                      : Project NAME
~CURVE INFORMATION
#================================================
M__DEPTH.FT                  :M__DEPTH
SP      .MV                  :SP
GR      .GAPI                :GR
CALI    .IN                  :CALI
BitSize .IN                  :BitSize
LL8     .OHMM                :LL8
ILM     .OHMM                :ILM
ILD     .OHMM                :ILD
RHOB    .G/CC                :RHOB
NPHI    .%                   :NPHI
DT      .US/F                :DT
MudWgt  .LBS/GAL             :MudWgt
~PARAMETER INFORMATION
#================================================
~OTHER INFORMATION
#================================================
~A
# ...
    1076.00000      -9.11612      89.21440      12.78040      12.25000       6.24460       5.15540       5.48830       2.29050      52.12720     139.52260       9.80000
    1076.50000      -8.79302      89.64660      12.71770      12.25000       6.27580       5.30520       5.53540       2.30220      52.95360     139.03120       9.80000
    1077.00000      -8.01682      89.83510      12.71280      12.25000       6.29490       5.40970       5.60690       2.31390      52.99460     139.46440       9.80000
    1077.50000      -7.33772      90.02360      12.71840      12.25000       6.39460       5.49380       5.67300       2.31590      52.53140     140.17230       9.80000
    1078.00000      -7.02322      90.21210      12.72310      12.25000       6.37640       5.49140       5.71820       2.29190      52.78560     140.97211       9.80000
    1078.50000      -6.99512      90.55910      12.75040      12.25000       6.26130       5.59630       5.76380       2.28290      52.16160     141.49960       9.80000
    1079.00000      -6.86842      90.95580      12.81900      12.25000       6.14820       5.70330       5.80970       2.27800      50.90500     141.65660       9.80000
    1079.50000      -6.95992      91.03000      12.86030      12.25000       6.03940       5.81230       5.85610       2.27010      48.61190     140.97290       9.80000
    1080.00000      -7.95932      90.70370      12.89840      12.25000       6.03940       6.05640       5.83180       2.27890      47.73260     139.68240       9.80000
    1080.50000     -10.86952      89.59730      12.92650      12.25000       6.98740       6.35190       5.78850       2.28500      47.95260     139.13910       9.80000
    1081.00000     -14.48612      87.91680      12.95140      12.25000       8.62060       6.42370       5.74550       2.30230      47.74620     139.12520       9.80000
    1081.50000     -17.95053      87.32390      12.93000      12.25000       9.40490       6.22960       5.70290       2.30350      47.18250     139.19850       9.80000
    1082.00000     -19.53772      87.03860      12.95270      12.25000       8.54760       6.02250       5.60970       2.31310      45.31410     138.51790       9.80000
    1082.50000     -20.99372      85.71180      12.99550      12.25000       7.22880       5.80430       5.48780       2.31920      43.50080     135.87320       9.80000
    1083.00000     -23.88383      82.38140      13.04100      12.25000       7.34860       5.57470       5.36850       2.31310      42.11200     131.46100       9.80000
    1083.50000     -26.39053      77.97320      13.10160      12.25000       8.26980       5.35410       5.18100       2.32180      41.43910     125.21350       9.80000
    1084.00000     -23.36413      74.41390      13.16220      12.25000       8.83480       5.14230       5.06360       2.33520      41.76460     120.32550       9.80000
    1084.50000     -18.90073      72.24200      12.86650      12.25000       7.19210       4.97610       4.96670       2.35840      42.22090     116.90500       9.80000
    1085.00000     -13.69852      72.03830      12.51590      12.25000       5.90320       4.83110       4.96650       2.36160      42.17030     116.66730       9.80000
    1085.50000     -11.51513      71.23810      12.49390      12.25000       5.59820       4.79230       5.03980       2.34220      41.77490     118.78120       9.80000
    1086.00000     -11.40612      69.28960      12.48860      12.25000       6.08240       4.80460       5.02830       2.31600      40.70580     121.27630       9.80000
    1086.50000     -11.03213      68.00420      12.50490      12.25000       6.28660       4.88640       5.04000       2.29520      39.52530     122.54850       9.80000
    1087.00000     -10.58593      69.02460      12.52310      12.25000       5.84040       5.00970       5.09720       2.27270      39.42140     124.94800       9.80000
    1087.50000     -10.22053      72.39730      12.56440      12.25000       5.74270       5.13610       5.17990       2.27060      40.61330     128.57210       9.80000
    1088.00000     -10.09052      76.23050      12.71360      12.25000       5.96580       5.23390       5.20940       2.26620      42.56220     131.95509       9.80000
    1088.50000     -10.17383      80.17430      13.35690      12.25000       6.21080       5.24360       5.20980       2.28370      43.68560     134.79500       9.80000
    1089.00000     -10.10653      81.43550      13.42020      12.25000       6.53010       5.25210       5.21020       2.32620      44.28920     136.45461       9.80000
    1089.50000     -10.03453      77.92520      13.44550      12.25000       6.46720       5.25550       5.21050       2.33540      44.61640     136.07719       9.80000
    1090.00000      -9.96243      78.24730      13.48140      12.25000       6.23270       5.28970       5.21090       2.33840      44.84570     135.40810       9.80000
    1090.50000     -10.06383      79.14360      13.48140      12.25000       5.79270       5.34410       5.21120       2.33020      44.86140     134.74100       9.80000
    1091.00000     -11.06983      77.05920      13.42480      12.25000       5.90640       5.41370       5.16720       2.31800      44.42280     132.78819       9.80000
    1091.50000     -13.60123      76.90060      13.32580      12.25000       6.17130       5.51680       5.10490       2.30860      44.01850     131.26390       9.80000
    1092.00000     -16.92243      78.41870      13.23540      12.25000       6.58170       5.52100       4.90480       2.29810      44.32060     130.41710       9.80000
    1092.50000     -22.32153      79.11590      13.14510      12.25000       6.86230       5.27420       4.63240       2.29570      44.59500     130.11980       9.80000
    1093.00000     -28.80583      78.20370      13.06620      12.25000       6.93490       4.94870       4.37260       2.30200      44.79370     130.55980       9.80000
    1093.50000     -34.79823      77.95600      13.04690      12.25000       7.22760       4.54470       4.12730       2.30040      44.68860     131.36031       9.80000
    1094.00000     -40.03923      77.93320      13.08890      12.25000       7.48390       4.17800       3.89570       2.28860      43.87980     130.90759       9.80000
    1094.50000     -41.88883      77.22220      13.13090      12.25000       7.31640       3.80950       3.67720       2.29550      42.98040     128.01920       9.80000
    1095.00000     -42.39573      75.60920      13.16890      12.25000       6.90250       3.72330       3.49630       2.28870      42.24050     124.48430       9.80000
    1095.50000     -42.21743      72.22190      13.05010      12.25000       6.76690       3.66450       3.42230       2.28650      42.10830     122.35770       9.80000
    1096.00000     -41.85083      68.61210      12.87420      12.25000       7.11790       3.55500       3.39540       2.28700      42.38400     121.55250       9.80000
    1096.50000     -37.26633      65.29810      12.72350      12.25000       7.43530       3.61190       3.49800       2.26170      42.53950     121.40010       9.80000
    1097.00000     -30.75183      62.18280      12.49510      12.25000       7.13140       3.68790       3.60370       2.22780      42.31940     122.01440       9.80000
    1097.50000     -22.66963      59.79700      12.44160      12.25000       6.28540       3.76930       3.71250       2.22150      42.11290     122.66560       9.80000
    1098.00000     -16.12283      58.96990      12.43220      12.25000       5.25430       3.88240       3.82470       2.19790      42.09070     122.88700       9.80000
    1098.50000     -14.41223      59.79560      12.43850      12.25000       4.71570       4.03460       3.94030       2.18720      42.42450     123.06370       9.80000
    1099.00000     -13.12853      61.62450      12.44670      12.25000       4.89940       4.18940       3.98350       2.18790      42.75840     123.27250       9.80000
    1099.50000     -12.21843      64.61770      12.45740      12.25000       5.31940       4.25110       4.02500       2.19170      43.21840     123.58940       9.80000
