~VERSION INFORMATION
VERS.      2.0   :CWLS LOG ASCII STANDARD--VERSION 2.0
WRAP.      NO    :ONE LINE PER DEPTH STEP
~WELL INFORMATION
#MNEM.UNIT              DATA          DESCRIPTION
#================================================
STRT.FT                         20.00000 :START DEPTH
STOP.FT                       7505.00000 :STOP DEPTH
STEP.FT                          0.50000 :STEP
NULL.                         -999.00000 :NULL VALUE
COMP.   Data output from TerraStation II         : COMPANY
WELL.   East Simpson 2                           : WELL NAME
UWI.    50-279-20007                             : WELL UWI
API.    50-279-20007                             : WELL API
LOC.    23 19N 11W                               : WELL LOCATION
DATE.   NorthSlope.W40                           : WELL DATE
FLD.    No Project Selected                      : Project NAME
~CURVE INFORMATION
#================================================
M__DEPTH.FT                  :M__DEPTH
SP      .MV                  :SP
GR      .GAPI                :GR
CALI    .IN                  :CALI
BitSize .IN                  :BitSize
LL8     .OHMM                :LL8
ILM     .OHMM                :ILM
ILD     .OHMM                :ILD
RHOB    .G/CC                :RHOB
NPHI    .%                   :NPHI
DT      .US/F                :DT
MudWgt  .LBS/GAL             :MudWgt
~PARAMETER INFORMATION
#================================================
~OTHER INFORMATION
#================================================
~A
# ...
    4508.00000       0.73005      85.57260      13.99180      12.25000       7.00820       6.35040       5.80420       2.49360      33.17590      90.84840       9.70000
    4508.50000       0.52686      86.03930      14.02560      12.25000       7.73110       6.41560       5.82570       2.48990      33.16950      91.27950       9.70000
    4509.00000       0.35118      86.14190      14.11550      12.25000       8.40970       6.41560       5.84920       2.49760      33.23420      92.57940       9.70000
    4509.50000       0.17558      85.43390      13.97740      12.25000       7.99100       6.32930       5.87290       2.51180      33.30410      94.42270       9.70000
    4510.00000       0.00000      84.93450      13.84720      12.25000       6.89610       6.29820       5.89660       2.51760      33.38380      95.56420       9.70000
    4510.50000       0.04286      84.70310      13.76370      12.25000       7.37750       6.29800       5.92040       2.50760      33.39820      94.21950       9.70000
    4511.00000       0.10762      84.02020      13.75760      12.25000       7.49940       6.29770       5.94440       2.48640      32.95820      91.98530       9.70000
    4511.50000       0.14528      82.63010      13.74590      12.25000       7.11930       6.37840       5.94340       2.49140      32.04910      90.68230       9.70000
    4512.00000       0.00140      81.60950      13.73420      12.25000       7.35700       6.51480       5.94200       2.50740      30.77440      90.10320       9.70000
    4512.50000       0.14425      80.91390      13.72260      12.25000       7.93800       6.60850       5.94060       2.50810      30.13000      90.03290       9.70000
    4513.00000    -999.00000      79.15270      13.67590      12.25000       8.53220       6.50340       5.93920       2.49890      30.65480      90.65020       9.70000
    4513.50000    -999.00000      77.19520      13.62280      12.25000       8.27460       6.29400       5.95530       2.47530      32.10100      90.80810       9.70000
    4514.00000    -999.00000      76.53850      13.86120      12.25000       7.24810       6.17480       5.98850       2.49270      33.54810      91.03410       9.70000
    4514.50000    -999.00000      76.36460      13.95130      12.25000       6.76470       6.20530       6.02190       2.50780      34.28480      92.20710       9.70000
    4515.00000    -999.00000      76.83040      13.88830      12.25000       6.75050       6.25890       6.05550       2.49580      34.54730      93.50260       9.70000
    4515.50000    -999.00000      78.26470      13.84700      12.25000       7.01950       6.32250       6.02010       2.48760      34.16860      92.98990       9.70000
    4516.00000    -999.00000      79.62600      13.92330      12.25000       7.78120       6.35280       5.93790       2.48530      33.41920      91.98350       9.70000
    4516.50000    -999.00000      80.31700      14.01870      12.25000       7.96400       6.31050       5.85680       2.49300      32.59240      90.85700       9.70000
    4517.00000    -999.00000      79.82880      14.12580      12.25000       7.88650       6.22470       5.79540       2.49620      32.77510      89.36620       9.70000
    4517.50000    -999.00000      79.20260      14.32590      12.25000       7.86020       6.13640       5.79410       2.49450      33.41230      89.64270       9.70000
    4518.00000    -999.00000      79.38670      14.68710      12.25000       7.34020       6.05190       5.82590       2.48990      34.17280      90.66880       9.70000
    4518.50000    -999.00000      80.21630      15.05340      12.25000       6.81030       6.03120       5.90310       2.47270      34.71900      92.38660       9.70000
    4519.00000    -999.00000      82.15670      14.77450      12.25000       6.48110       6.02600       5.91650       2.46370      34.20660      94.32650       9.70000
    4519.50000    -999.00000      84.05430      14.20640      12.25000       6.50630       6.06300       5.92990       2.45420      32.94040      93.99990       9.70000
    4520.00000    -999.00000      85.34980      14.30210      12.25000       7.38000       6.10040       5.94340       2.45980      31.77170      93.75100       9.70000
    4520.50000    -999.00000      85.24930      14.63040      12.25000       8.20010       6.15100       6.00450       2.47030      31.40230      91.63330       9.70000
    4521.00000    -999.00000      83.70150      14.33270      12.25000       7.62950       6.27620       6.07480       2.46790      31.68630      89.50720       9.70000
    4521.50000    -999.00000      81.85940      14.15370      12.25000       7.27490       6.44030       6.14590       2.46390      32.39000      90.51600       9.70000
    4522.00000    -999.00000      80.20650      13.94560      12.25000       7.71170       6.63140       6.21780       2.48890      33.25200      92.13690       9.70000
    4522.50000    -999.00000      78.47010      14.01980      12.25000       8.48260       6.72330       6.29050       2.49750      33.93700      94.78390       9.70000
    4523.00000    -999.00000      77.67640      13.92550      12.25000       8.31900       6.75430       6.33690       2.51430      34.19010      96.50890       9.70000
    4523.50000    -999.00000      77.57320      13.78420      12.25000       8.11590       6.79250       6.38180       2.52780      33.82810      96.60260       9.70000
    4524.00000    -999.00000      77.36240      13.76660      12.25000       7.73300       6.83100       6.42700       2.51030      33.60540      94.11700       9.70000
    4524.50000    -999.00000      77.06350      13.89170      12.25000       7.44950       6.86980       6.47260       2.47800      33.77900      91.95470       9.70000
    4525.00000    -999.00000      76.95660      13.97760      12.25000       7.76080       6.90870       6.51870       2.46770      33.82170      91.39850       9.70000
    4525.50000    -999.00000      77.36320      13.69370      12.25000       7.97980       6.94790       6.56540       2.45570      32.62270      90.54730       9.70000
    4526.00000    -999.00000      78.06120      13.53060      12.25000       8.02600       6.98720       6.61240       2.43440      31.81080      90.16550       9.70000
    4526.50000    -999.00000      78.13010      13.44800      12.25000       7.99750       7.03520       6.65970       2.41710      31.66090      89.32760       9.70000
    4527.00000    -999.00000      77.23050      13.37550      12.25000       7.99330       7.08450       6.70740       2.43860      32.55310      88.15000       9.70000
    4527.50000    -999.00000      77.15790      13.35180      12.25000       8.11230       7.13410       6.75540       2.44960      33.66590      90.69100       9.70000
    4528.00000    -999.00000      78.11640      13.29480      12.25000       8.31400       7.18400       6.79140       2.47460      34.47810      93.91780       9.70000
    4528.50000    -999.00000      79.01690      13.23790      12.25000       8.39760       7.23430       6.81380       2.47290      34.33710      94.29340       9.70000
    4529.00000    -999.00000      80.10600      13.25570      12.25000       8.24340       7.27770       6.83630       2.44800      34.24590      93.94840       9.70000
    4529.50000    -999.00000      81.31120      13.24360      12.25000       7.99050       7.31700       6.85890       2.45350      34.98700      92.08990       9.70000
    4530.00000    -999.00000      81.60800      13.23550      12.25000       7.94160       7.35650       6.88150       2.47290      35.82540      89.39970       9.70000
    4530.50000    -999.00000      81.86430      13.22430      12.25000       8.14050       7.39620       6.90420       2.48930      36.38710      88.43980       9.70000
    4531.00000    -999.00000      82.36120      13.15250      12.25000       8.29240       7.44420       6.92700       2.49230      35.67020      88.36990       9.70000
    4531.50000    -999.00000      81.93500      13.08640      12.25000       8.41610       7.46260       6.94990       2.48200      34.59860      88.26400       9.70000
