~VERSION INFORMATION
VERS.      2.0   :CWLS LOG ASCII STANDARD--VERSION 2.0
WRAP.      NO    :ONE LINE PER DEPTH STEP
~WELL INFORMATION
#MNEM.UNIT              DATA          DESCRIPTION
#================================================
STRT.FT                         20.00000 :START DEPTH
STOP.FT                       7505.00000 :STOP DEPTH
STEP.FT                          0.50000 :STEP
NULL.                         -999.00000 :NULL VALUE
COMP.   Data output from TerraStation II         : COMPANY
WELL.   East Simpson 2                           : WELL NAME
UWI.    50-279-20007                             : WELL UWI
API.    50-279-20007                             : WELL API
LOC.    23 19N 11W                               : WELL LOCATION
DATE.   NorthSlope.W40                           : WELL DATE
FLD.    No Project Selected                      : Project NAME
~CURVE INFORMATION
#================================================
M__DEPTH.FT                  :M__DEPTH
SP      .MV                  :SP
GR      .GAPI                :GR
CALI    .IN                  :CALI
BitSize .IN                  :BitSize
LL8     .OHMM                :LL8
ILM     .OHMM                :ILM
ILD     .OHMM                :ILD
RHOB    .G/CC                :RHOB
NPHI    .%                   :NPHI
DT      .US/F                :DT
MudWgt  .LBS/GAL             :MudWgt
~PARAMETER INFORMATION
#================================================
~OTHER INFORMATION
#================================================
~A
# ...
      92.00000     -37.07596      82.13090      12.85370      12.25000    -999.00000    -999.00000    -999.00000    -999.00000      53.15070    -999.00000    -999.00000
      92.50000     -37.24836      84.24350      12.87510      12.25000    -999.00000    -999.00000    -999.00000    -999.00000      53.93070    -999.00000    -999.00000
      93.00000     -36.83857      86.04410      12.87130      12.25000    -999.00000    -999.00000    -999.00000    -999.00000      54.26620    -999.00000    -999.00000
      93.50000     -36.62429      86.13270      12.76870      12.25000    -999.00000    -999.00000    -999.00000    -999.00000      54.42390    -999.00000    -999.00000
      94.00000     -37.81392      84.52160      12.63360      12.25000    -999.00000    -999.00000    -999.00000    -999.00000      54.48650    -999.00000    -999.00000
      94.50000     -39.00355      82.59470      12.57770      12.25000    -999.00000    -999.00000    -999.00000    -999.00000      54.47540    -999.00000    -999.00000
      95.00000     -40.20687      81.21510      12.77460      12.25000      34.93480    -999.00000    -999.00000    -999.00000      54.22640    -999.00000    -999.00000
      95.50000     -40.72920      81.16150      13.53950      12.25000      38.58780    -999.00000    -999.00000    -999.00000      53.85330    -999.00000    -999.00000
      96.00000     -40.39412      82.17650      14.37360      12.25000      42.50950       9.49650    -999.00000    -999.00000      53.53680    -999.00000    -999.00000
      96.50000     -39.81305      83.06580      14.54100      12.25000      46.82950       7.59300    -999.00000    -999.00000      53.21650    -999.00000    -999.00000
      97.00000     -39.74938      83.54130      14.68470      12.25000      49.85140       7.45820    -999.00000    -999.00000      52.44400    -999.00000    -999.00000
      97.50000     -40.22450      84.13320      15.53240      12.25000      53.15370       7.91990      14.13870       2.10310      51.72250    -999.00000    -999.00000
      98.00000     -40.43783      85.17020      16.68040      12.25000      54.62090       8.72350      16.94310       2.11710      51.05810    -999.00000    -999.00000
      98.50000     -40.61885      86.05680      15.74150      12.25000      55.06940       8.16490      23.98840       2.14610      50.39370    -999.00000    -999.00000
      99.00000     -40.87658      86.48480      14.97370      12.25000      55.61990       7.00380      30.71140       2.15860      50.54120    -999.00000       9.40000
      99.50000     -41.65021      86.72340      14.27890      12.25000      56.33190       7.08740      32.54340       2.15630      51.69250    -999.00000       9.40000
     100.00000     -43.23843      86.49660      13.62970      12.25000      59.21210       7.57020      25.57630       2.16100      51.87760    -999.00000       9.40000
     100.50000     -44.20496      86.21230      13.39250      12.25000      62.80150       7.72640      21.25490       2.16680      51.45850    -999.00000       9.40000
     101.00000     -44.31729      85.53890      13.32810      12.25000      63.12370       7.88570      17.66360       2.16220      51.81170    -999.00000       9.40000
     101.50000     -43.77741      85.21740      13.45700      12.25000      60.15310       8.04840      17.52220       2.15970      52.65000    -999.00000       9.40000
     102.00000     -43.82204      85.76730      13.61670      12.25000      58.67920       8.14640      18.68870       2.15570      53.68960    -999.00000       9.40000
     102.50000     -44.06297      86.26360      13.77510      12.25000      59.25780       8.07910      19.81050       2.15640      54.39580    -999.00000       9.40000
     103.00000     -44.21159      86.57030      13.89290      12.25000      59.69690       7.77360      21.29640       2.16020      54.40410    -999.00000       9.40000
     103.50000     -44.20972      86.60850      13.94200      12.25000      59.42590       7.73590      20.09110       2.15800      55.27310    -999.00000       9.40000
     104.00000     -44.61094      86.94730      13.96600      12.25000      59.65190       7.73980      19.05760       2.13440      56.65600    -999.00000       9.40000
     104.50000     -44.94017      86.54080      13.99650      12.25000      60.18980       7.73440      19.87130       2.12290      56.13340    -999.00000       9.40000
     105.00000     -44.62490      85.33370      14.11520      12.25000      61.55580       7.64280      21.30870       2.10630      54.09700    -999.00000       9.40000
     105.50000     -44.21922      84.09870      14.56380      12.25000      63.00960       7.69710      21.01460       2.10490      50.60160    -999.00000       9.40000
     106.00000     -43.82895      83.95760      15.05670      12.25000      64.46930       7.75670      20.27840       2.12320      48.08860    -999.00000       9.40000
     106.50000     -43.47297      85.12320      15.55320      12.25000      65.87330       7.74820      19.97390       2.14760      46.64560    -999.00000       9.40000
     107.00000     -43.36990      86.98520      15.80900      12.25000      66.00540       7.89470      19.66550       2.15480      46.55980    -999.00000       9.40000
     107.50000     -44.03933      89.91040      15.64070      12.25000      62.85450       8.06880      18.63960       2.16080      47.31340    -999.00000       9.40000
     108.00000     -45.27166      91.91210      14.79310      12.25000      60.79500       7.46410      19.26210       2.16490      48.01510    -999.00000       9.40000
     108.50000     -46.50308      93.12770      14.45710      12.25000      58.93940       6.86040      20.31450       2.15310      48.71670    -999.00000       9.40000
     109.00000     -47.19580      93.19490      14.31580      12.25000      56.57170       7.52980      19.31170       2.14810      49.64260    -999.00000       9.40000
     109.50000     -47.80213      92.96750      14.17450      12.25000      55.04880       8.39200      18.96750       2.14120      50.65030    -999.00000       9.40000
     110.00000     -48.30846      92.74010      14.07500      12.25000      56.18650       8.14830      19.46610       2.13980      51.82220    -999.00000       9.40000
     110.50000     -48.82938      92.51280      14.01350      12.25000      57.54420       7.96800      19.91620       2.13890      52.89240    -999.00000       9.40000
     111.00000     -49.35461      92.12040      13.95200      12.25000      58.90640       8.04770      20.01060       2.14780      52.71720    -999.00000       9.40000
     111.50000     -50.04204      91.43470      13.96450      12.25000      60.12890       8.10910      20.12200       2.15290      52.20970    -999.00000       9.40000
     112.00000     -50.58426      89.70800      14.06820      12.25000      60.25650       7.86240      19.58380       2.14850      51.19180    -999.00000       9.40000
     112.50000     -51.08499      86.10600      14.19470      12.25000      59.02620       7.67390      18.29510       2.13930      50.11810    -999.00000       9.40000
     113.00000     -51.01381      83.49480      14.36680      12.25000      57.30770       7.62440      18.31210       2.13910      49.45300    -999.00000       9.40000
     113.50000     -50.36184      82.87050      14.93880      12.25000      56.44650       7.68610      18.88940       2.14470      50.05730    -999.00000       9.40000
     114.00000     -48.98407      82.98160      15.34150      12.25000      56.62880       7.74140      17.28390       2.13850      50.91620    -999.00000       9.40000
     114.50000     -47.89339      83.36420      15.71980      12.25000      57.15040       7.56450      16.27560       2.14710      51.77510    -999.00000       9.40000
     115.00000     -46.83252      83.67620      15.25460      12.25000      53.41650       7.14660      15.85650       2.15840      52.32550    -999.00000       9.40000
     115.50000     -45.02634      83.76480      15.12150      12.25000      50.29490       6.86710      15.79880       2.15760      52.59200    -999.00000       9.40000
