~VERSION INFORMATION
VERS.      2.0   :CWLS LOG ASCII STANDARD--VERSION 2.0
WRAP.      NO    :ONE LINE PER DEPTH STEP
~WELL INFORMATION
#MNEM.UNIT              DATA          DESCRIPTION
#================================================
STRT.FT                         20.00000 :START DEPTH
STOP.FT                       7505.00000 :STOP DEPTH
STEP.FT                          0.50000 :STEP
NULL.                         -999.00000 :NULL VALUE
COMP.   Data output from TerraStation II         : COMPANY
WELL.   East Simpson 2                           : WELL NAME
UWI.    50-279-20007                             : WELL UWI
API.    50-279-20007                             : WELL API
LOC.    23 19N 11W                               : WELL LOCATION
DATE.   NorthSlope.W40                           : WELL DATE
FLD.    No Project Selected                      : Project NAME
~CURVE INFORMATION
#================================================
M__DEPTH.FT                  :M__DEPTH
SP      .MV                  :SP
GR      .GAPI                :GR
CALI    .IN                  :CALI
BitSize .IN                  :BitSize
LL8     .OHMM                :LL8
ILM     .OHMM                :ILM
ILD     .OHMM                :ILD
RHOB    .G/CC                :RHOB
NPHI    .%                   :NPHI
DT      .US/F                :DT
MudWgt  .LBS/GAL             :MudWgt
~PARAMETER INFORMATION
#================================================
~OTHER INFORMATION
#================================================
~A
# ...
    5012.00000      -3.84167      94.14960      15.53050      12.25000       5.55840       3.87740       3.75350       2.47950      31.59290      89.36240       9.70000
    5012.50000      -3.69936      94.84210      15.59570      12.25000       4.87330       3.79540       3.65150       2.47490      33.64660      95.10170       9.70000
    5013.00000      -3.38945      96.44370      15.64320      12.25000       4.66710       3.71510       3.55230       2.46190      36.09020      98.65520       9.70000
    5013.50000      -3.37124      97.53760      15.56460      12.25000       4.63780       3.65310       3.55060       2.45330      36.74530      99.12300       9.70000
    5014.00000      -3.33874      98.20340      15.44160      12.25000       4.44660       3.67320       3.55820       2.43870      36.25760      96.86730       9.70000
    5014.50000      -3.42932      98.93420      15.35940      12.25000       4.72140       3.80810       3.58060       2.40170      36.09250      95.14560       9.70000
    5015.00000      -3.75561      99.43730      15.35450      12.25000       5.62700       3.93890       3.64310       2.38380      36.91920      94.57720       9.70000
    5015.50000      -4.10740      99.45670      15.41830      12.25000       5.98980       4.07430       3.70680       2.38800      37.60770      96.33150       9.70000
    5016.00000      -4.44920      98.37180      15.68740      12.25000       6.20220       4.18750       3.77160       2.41540      37.68920      98.50810       9.70000
    5016.50000      -4.80239      97.16340      16.08910      12.25000       6.15690       4.23090       3.83750       2.43090      37.98110     100.22640       9.70000
    5017.00000      -4.94988      95.68500      15.94290      12.25000       6.02210       4.21740       3.90450       2.41710      38.71710     104.03750       9.70000
    5017.50000      -5.22217      93.75600      15.87140      12.25000       5.55980       4.20380       3.93820       2.43070      38.98010     107.49290       9.70000
    5018.00000      -5.45396      90.49030      15.81990      12.25000       5.34950       4.18100       3.91660       2.43670      38.46460     108.08710       9.70000
    5018.50000      -5.18856      88.41470      15.72830      12.25000       5.48130       4.15520       3.89510       2.43120      37.97750     105.26450       9.70000
    5019.00000      -4.75814      88.79080      15.85090      12.25000       5.47720       4.12950       3.87370       2.42660      37.56350     100.98980       9.70000
    5019.50000      -4.32774      89.69540      15.89590      12.25000       5.35620       4.10400       3.85880       2.44040      35.93850      97.14500       9.70000
    5020.00000      -3.89723      90.30950      15.80370      12.25000       5.37610       4.12190       3.86160       2.45900      35.00720      94.09920       9.70000
    5020.50000      -3.46682      90.74450      16.02050      12.25000       5.45730       4.16560       3.86440       2.43910      34.54850      93.41190       9.70000
    5021.00000      -3.27802      90.95290      15.55160      12.25000       5.56530       4.20970       3.86730       2.42550      35.62180      95.00020       9.70000
    5021.50000      -3.18841      91.49140      16.23270      12.25000       5.49080       4.27060       3.92620       2.43290      37.17880      97.52580       9.70000
    5022.00000      -3.09880      92.15550      16.59870      12.25000       5.63490       4.34730       3.99670       2.43710      38.50230      97.62300       9.70000
    5022.50000      -3.00919      91.78330      16.50810      12.25000       5.94290       4.42530       4.06840       2.43360      39.74660      97.56620       9.70000
    5023.00000      -3.03488      91.18990      16.64530      12.25000       6.07360       4.50480       4.14140       2.42580      40.87390      98.71410       9.70000
    5023.50000      -3.52528      92.19440      16.65080      12.25000       5.95940       4.62470       4.21850       2.44060      41.53780      99.34450       9.70000
    5024.00000      -3.93556      93.10530      16.40110      12.25000       5.88450       4.75660       4.33890       2.48970      39.94160      98.95670       9.70000
    5024.50000      -4.30586      92.45760      16.43090      12.25000       6.14750       4.89220       4.46260       2.49800      37.89340      98.32140       9.70000
    5025.00000      -4.41625      91.68240      16.42840      12.25000       6.40960       5.03170       4.58990       2.50330      36.58520      96.16630       9.70000
    5025.50000      -4.60324      91.61530      16.22560      12.25000       6.39900       5.17140       4.72080       2.51310      35.13880      94.40770       9.70000
    5026.00000      -4.80203      91.83930      16.09820      12.25000       6.50910       5.30620       4.85550       2.51180      34.55250      93.91470       9.70000
    5026.50000      -5.00093      91.09080      16.08820      12.25000       6.84960       5.44460       4.99340       2.50490      34.19780      94.48250       9.70000
    5027.00000      -5.40842      90.46950      16.13250      12.25000       7.05480       5.50430       5.01680       2.47830      34.51770      95.00120       9.70000
    5027.50000      -6.00731      90.63780      16.12380      12.25000       6.97580       5.48570       4.95660       2.49290      35.05230      95.73750       9.70000
    5028.00000      -6.36260      91.33430      15.78400      12.25000       6.78670       5.46720       4.89470       2.50180      35.17820      96.48180       9.70000
    5028.50000      -6.49039      91.41900      15.44870      12.25000       6.88440       5.32580       4.83350       2.50700      34.75440      95.84370       9.70000
    5029.00000      -6.52198      90.49820      15.39100      12.25000       6.68800       5.17200       4.75070       2.50190      33.86920      95.44780       9.70000
    5029.50000      -6.52998      89.38940      15.34110      12.25000       6.30310       4.97490       4.63610       2.48180      33.70970      94.58060       9.70000
    5030.00000      -6.37297      89.39920      15.32110      12.25000       5.95440       4.78680       4.52440       2.46110      33.25020      92.58310       9.70000
    5030.50000      -6.21596      90.67650      15.28470      12.25000       5.67970       4.73450       4.43160       2.43220      32.66500      90.83690       9.70000
    5031.00000      -6.04645      91.79010      15.12100      12.25000       5.56530       4.71410       4.38530       2.43370      32.13020      89.76770       9.70000
    5031.50000      -5.79224      91.16980      15.07470      12.25000       5.63310       4.70580       4.33960       2.41940      32.03270      88.82540       9.70000
    5032.00000      -5.63173      90.21340      15.18360      12.25000       5.67280       4.69760       4.31700       2.40560      33.25390      89.81410       9.70000
    5032.50000      -5.49142      89.58470      15.37210      12.25000       5.77420       4.68930       4.31230       2.39840      34.71380      91.43450       9.70000
    5033.00000      -5.37862      89.35020      15.51110      12.25000       5.87340       4.68110       4.31030       2.35350      36.14300      92.08060       9.70000
    5033.50000      -5.32371      90.02130      15.60940      12.25000       5.96800       4.68780       4.32890       2.35150      36.82710      93.05060       9.70000
    5034.00000      -5.53820      92.01590      15.41650      12.25000       5.96250       4.68980       4.33600       2.35190      37.75060      94.46210       9.70000
    5034.50000      -5.81119      93.93420      15.25150      12.25000       5.91460       4.67990       4.32680       2.33210      39.27520      98.08410       9.70000
    5035.00000      -6.28429      95.70210      15.17000      12.25000       5.90640       4.67000       4.31770       2.34480      40.94360      99.89980       9.70000
    5035.50000      -6.48178      97.50130      15.20400      12.25000       5.93510       4.66010       4.30860       2.39730      41.55770      98.52770       9.70000
