~VERSION INFORMATION
VERS.      2.0   :CWLS LOG ASCII STANDARD--VERSION 2.0
WRAP.      NO    :ONE LINE PER DEPTH STEP
~WELL INFORMATION
#MNEM.UNIT              DATA          DESCRIPTION
#================================================
STRT.FT                         20.00000 :START DEPTH
STOP.FT                       7505.00000 :STOP DEPTH
STEP.FT                          0.50000 :STEP
NULL.                         -999.00000 :NULL VALUE
COMP.   Data output from TerraStation II         : COMPANY
WELL.   East Simpson 2                           : WELL NAME
UWI.    50-279-20007                             : WELL UWI
API.    50-279-20007                             : WELL API
LOC.    23 19N 11W                               : WELL LOCATION
DATE.   NorthSlope.W40                           : WELL DATE
FLD.    No Project Selected                      : Project NAME
~CURVE INFORMATION
#================================================
M__DEPTH.FT                  :M__DEPTH
SP      .MV                  :SP
GR      .GAPI                :GR
CALI    .IN                  :CALI
BitSize .IN                  :BitSize
LL8     .OHMM                :LL8
ILM     .OHMM                :ILM
ILD     .OHMM                :ILD
RHOB    .G/CC                :RHOB
NPHI    .%                   :NPHI
DT      .US/F                :DT
MudWgt  .LBS/GAL             :MudWgt
~PARAMETER INFORMATION
#================================================
~OTHER INFORMATION
#================================================
~A
# ...
    5996.00000      -0.96309      81.23340      13.22940      12.25000       6.60560       5.71490       5.09620       2.44660      34.57190      85.52740       9.90000
    5996.50000      -0.96225      79.84480      13.50860      12.25000       6.58210       5.73720       5.11610       2.43530      34.96730      85.36900       9.90000
    5997.00000      -0.94130      79.69950      13.45530      12.25000       6.70490       5.75960       5.13610       2.41890      36.03440      86.01920       9.90000
    5997.50000      -0.91807      80.58410      13.66210      12.25000       6.89270       5.78210       5.15610       2.41460      36.83510      85.97610       9.90000
    5998.00000      -0.89472      81.68910      13.59270      12.25000       7.18800       5.76670       5.17630       2.39900      37.13150      85.64050       9.90000
    5998.50000      -0.79348      81.97440      13.42790      12.25000       7.10180       5.70670       5.18800       2.40000      37.21460      85.51420       9.90000
    5999.00000      -0.71194      81.81000      13.52450      12.25000       6.82310       5.64740       5.16470       2.38760      37.33700      84.96150       9.90000
    5999.50000      -0.64720      81.74600      13.76980      12.25000       6.42720       5.60350       5.14150       2.38090      36.79940      84.46060       9.90000
    6000.00000      -0.58256      81.86240      14.16340      12.25000       6.25450       5.56680       5.11830       2.40320      36.47940      84.06920       9.90000
    6000.50000      -0.51782      82.23760      13.78270      12.25000       6.21780       5.56230       5.09530       2.44240      36.24980      84.56550       9.90000
    6001.00000      -0.45317      83.50260      13.94310      12.25000       6.23210       5.57920       5.07970       2.47060      36.36940      84.96920       9.90000
    6001.50000      -0.70073      84.29420      13.82090      12.25000       6.37160       5.59620       5.07450       2.46830      36.50110      85.94440       9.90000
    6002.00000      -0.98619      84.18190      13.65950      12.25000       6.62510       5.61310       5.07170       2.45860      36.33300      87.24670       9.90000
    6002.50000      -1.23516      83.94420      13.37530      12.25000       6.86340       5.64300       5.08330       2.45940      35.88310      87.40040       9.90000
    6003.00000      -1.46921      83.87570      13.10970      12.25000       6.91420       5.65240       5.09500       2.45970      35.39100      87.14930       9.90000
    6003.50000      -1.66767      84.29940      12.87940      12.25000       6.81370       5.63910       5.10660       2.44570      35.38960      86.28900       9.90000
    6004.00000      -1.77843      85.14470      12.87370      12.25000       6.66160       5.62590       5.11830       2.45810      35.01170      86.28880       9.90000
    6004.50000      -1.78019      84.77120      12.97570      12.25000       6.54860       5.61270       5.13000       2.44530      34.34520      86.50870       9.90000
    6005.00000      -2.07015      83.16820      13.09840      12.25000       6.63410       5.59950       5.14180       2.43720      33.62090      86.28810       9.90000
    6005.50000      -2.13860      81.95550      12.97840      12.25000       6.75730       5.56880       5.15360       2.44090      33.74850      86.47160       9.90000
    6006.00000      -2.20717      79.69930      12.86430      12.25000       6.72990       5.52920       5.15090       2.45840      34.08810      87.18930       9.90000
    6006.50000      -2.25783      77.70990      12.73530      12.25000       6.61580       5.48990       5.12500       2.47340      34.61220      87.49420       9.90000
    6007.00000      -2.27669      76.29010      12.90640      12.25000       6.54950       5.50210       5.09920       2.46960      36.03310      87.54650       9.90000
    6007.50000      -2.15914      75.22770      14.20700      12.25000       6.48040       5.52150       5.07360       2.43660      36.94850      87.28610       9.90000
    6008.00000      -1.99510      74.61960      14.42810      12.25000       6.45070       5.58780       5.14400       2.39340      37.04030      86.61410       9.90000
    6008.50000      -2.29706      74.10680      14.52630      12.25000       6.56810       5.70870       5.20620       2.34970      36.73030      86.83010       9.90000
    6009.00000      -2.42812      73.02650      14.72270      12.25000       6.98480       5.83230       5.26920       2.32380      35.87030      86.28580       9.90000
    6009.50000      -2.60188      71.06440      14.48430      12.25000       7.42370       5.94010       5.38960       2.33730      34.52030      85.71610       9.90000
    6010.00000      -3.77524      67.30160      13.82440      12.25000       7.27210       6.04590       5.64620       2.32410      33.47360      85.62030       9.90000
    6010.50000      -5.38600      62.26790      13.42200      12.25000       6.65920       6.15360       5.91550       2.31170      32.90450      84.71460       9.90000
    6011.00000      -6.99686      57.66120      13.22530      12.25000       6.66340       6.75030       6.19770       2.28190      33.06100      84.59640       9.90000
    6011.50000      -9.11811      53.13860      13.03740      12.25000       8.20690       7.44630       6.33310       2.28830      32.78890      84.68920       9.90000
    6012.00000     -11.74117      50.14750      12.87430      12.25000      11.09220       7.93220       6.62650       2.36940      29.81060      85.71140       9.90000
    6012.50000     -13.70393      49.16450      12.73100      12.25000      11.84680       8.21640       6.95800       2.45090      26.46790      86.37840       9.90000
    6013.00000     -15.28829      49.28440      12.71440      12.25000      11.46510       8.42660       7.31910       2.44800      22.92330      85.28160       9.90000
    6013.50000     -16.65565      50.27160      12.71210      12.25000      11.16300       8.64220       7.69880       2.45000      22.10160      82.30030       9.90000
    6014.00000     -17.41271      50.98280      12.71100      12.25000      11.11230       8.79030       8.09830       2.44920      22.13680      77.85960       9.90000
    6014.50000     -18.14337      50.70780      12.71050      12.25000      11.10120       8.90970       8.27950       2.45220      22.19690      75.65570       9.90000
    6015.00000     -18.54783      50.26310      12.71000      12.25000      11.03380       8.98270       8.33110       2.44740      22.27620      75.83170       9.90000
    6015.50000     -18.90998      50.70660      12.71080      12.25000      10.91710       8.97390       8.30760       2.45490      22.50430      76.57400       9.90000
    6016.00000     -19.12254      51.23820      12.71180      12.25000      10.83010       8.96610       8.18940       2.46230      22.39320      76.25930       9.90000
    6016.50000     -18.78041      51.40130      12.71240      12.25000      10.79520       8.97180       8.05870       2.46760      21.89340      75.65930       9.90000
    6017.00000     -17.86926      52.05400      12.71220      12.25000      10.76860       8.86130       7.91070       2.48050      21.35330      75.68940       9.90000
    6017.50000     -16.95812      54.24100      12.70740      12.25000      10.76920       8.75210       7.78190       2.48190      21.64100      75.99680       9.90000
    6018.00000     -16.04708      58.01250      12.70950      12.25000      10.64920       8.64170       7.65060       2.48710      22.06700      76.08720       9.90000
    6018.50000     -14.42714      62.22170      12.71150      12.25000      10.34720       8.48120       7.52150       2.49510      22.60030      75.98890       9.90000
    6019.00000     -12.74390      65.66840      12.73200      12.25000       9.67430       8.32000       7.39460       2.50700      23.28780      75.87620       9.90000
    6019.50000     -11.25345      67.36630      12.74780      12.25000       8.65590       8.16180       7.26980       2.50910      24.07630      76.00860       9.90000
