~VERSION INFORMATION
VERS.      2.0   :CWLS LOG ASCII STANDARD--VERSION 2.0
WRAP.      NO    :ONE LINE PER DEPTH STEP
~WELL INFORMATION
#MNEM.UNIT              DATA          DESCRIPTION
#================================================
STRT.FT                         20.00000 :START DEPTH
STOP.FT                       7505.00000 :STOP DEPTH
STEP.FT                          0.50000 :STEP
NULL.                         -999.00000 :NULL VALUE
COMP.   Data output from TerraStation II         : COMPANY
WELL.   East Simpson 2                           : WELL NAME
UWI.    50-279-20007                             : WELL UWI
API.    50-279-20007                             : WELL API
LOC.    23 19N 11W                               : WELL LOCATION
DATE.   NorthSlope.W40                           : WELL DATE
FLD.    No Project Selected                      : Project NAME
~CURVE INFORMATION
#================================================
M__DEPTH.FT                  :M__DEPTH
SP      .MV                  :SP
GR      .GAPI                :GR
CALI    .IN                  :CALI
BitSize .IN                  :BitSize
LL8     .OHMM                :LL8
ILM     .OHMM                :ILM
ILD     .OHMM                :ILD
RHOB    .G/CC                :RHOB
NPHI    .%                   :NPHI
DT      .US/F                :DT
MudWgt  .LBS/GAL             :MudWgt
~PARAMETER INFORMATION
#================================================
~OTHER INFORMATION
#================================================
~A
# ...
    6476.00000      -1.67860      90.57770      11.55110       8.50000       4.76190       3.42180       3.00790       2.06870      43.17360      96.16900       9.30000
    6476.50000      -1.60974      89.10430      12.06750       8.50000       4.83430       3.44180       3.02390       2.09320      42.69110      95.81210       9.30000
    6477.00000      -1.60808      90.56520      12.54990       8.50000       4.82760       3.41380       3.02830       2.12860      41.89820      96.08870       9.30000
    6477.50000      -1.73222      92.79780      12.13650       8.50000       4.58060       3.35570       3.04870       2.09680      40.87100      94.59170       9.30000
    6478.00000      -2.15946      92.22230      12.35740       8.50000       4.29150       3.32760       3.07610       2.08480      40.09210      94.75520       9.30000
    6478.50000      -1.97540      90.95930      12.57820       8.50000       4.33470       3.33470       3.08520       2.06950      39.85820      94.59590       9.30000
    6479.00000      -2.24324      90.66710      13.14550       8.50000       4.29030       3.39110       3.08340       2.07290      40.19220      94.71670       9.30000
    6479.50000      -2.48138      90.26540      12.78070       8.50000       4.26660       3.47550       3.06330       2.09200      40.20340      95.29100       9.30000
    6480.00000      -2.36442      88.97700      12.22180       8.50000       4.67620       3.52140       3.04290       2.15610      39.21160      96.83220       9.30000
    6480.50000      -2.39545      88.11270      12.59870       8.50000       5.28880       3.55750       3.02270       2.21120      38.08990      94.68500       9.30000
    6481.00000      -2.44240      86.77090      13.30680       8.50000       5.09960       3.48600       3.00060       2.20790      37.59270      93.77260       9.30000
    6481.50000      -2.41824      84.28030      13.12340       8.50000       4.66000       3.41580       2.97380       2.17440      38.80080      92.64810       9.30000
    6482.00000      -2.25198      82.96930      12.92770       8.50000       4.39300       3.32120       2.93940       2.17450      40.11550      91.64700       9.30000
    6482.50000      -2.08561      83.10810      13.15900       8.50000       4.25950       3.21360       2.87320       2.14430      41.63560      93.92170       9.30000
    6483.00000      -2.04685      84.69720      12.99880       8.50000       4.10390       3.09080       2.80850       2.09550      43.55540      94.43230       9.30000
    6483.50000      -2.01690      88.42730      12.83860       8.50000       3.84550       3.04680       2.75780       2.05060      44.80230      95.66690       9.30000
    6484.00000      -1.94774      90.58160      12.89870       8.50000       3.75200       3.06960       2.76440       2.07780      45.20450      95.76870       9.30000
    6484.50000      -1.87468      90.04280      12.84140       8.50000       3.98030       3.09260       2.76900       2.14780      44.37240      95.70480       9.30000
    6485.00000      -1.80161      88.75890      12.73670       8.50000       4.34950       3.16350       2.77240       2.16350      43.34370      95.78890       9.30000
    6485.50000      -1.72865      88.59700      12.88640       8.50000       4.46030       3.20570       2.83670       2.15020      42.78880      96.70350       9.30000
    6486.00000      -1.65559      89.50830      13.19090       8.50000       4.48780       3.27130       2.91650       2.11960      43.46010      96.14950       9.30000
    6486.50000      -1.65983      89.13900      13.48980       8.50000       4.52310       3.34540       2.97710       2.09320      44.66800      96.01560       9.30000
    6487.00000      -1.81687      86.90020      13.30390       8.50000       4.57850       3.42540       3.02130       2.08890      44.26760      95.29810       9.30000
    6487.50000      -1.97391      84.67600      12.08740       8.50000       4.68220       3.44590       3.06610       2.11810      43.26090      94.15490       9.30000
    6488.00000      -2.12075      83.14960      12.55790       8.50000       4.66460       3.41390       3.00120       2.13080      42.05180      93.76030       9.30000
    6488.50000      -2.20299      82.69020      13.15720       8.50000       4.54070       3.31740       2.92470       2.14730      41.12920      93.43340       9.30000
    6489.00000      -2.28534      82.91230      13.20110       8.50000       4.49020       3.17520       2.85010       2.15280      41.28640      92.53690       9.30000
    6489.50000      -2.32387      84.77580      13.83390       8.50000       4.33730       3.03000       2.79370       2.12280      42.85790      93.49460       9.30000
    6490.00000      -2.35131      88.01040      13.98730       8.50000       3.96310       2.96160       2.80590       2.05700      45.00220      95.75180       9.30000
    6490.50000      -2.37865      90.10880      13.60720       8.50000       3.79680       2.93040       2.81500       2.06410      45.84310      96.07080       9.30000
    6491.00000      -2.15159      89.81190      13.61880       8.50000       3.89730       3.04680       2.80910       2.07100      44.38840      96.42570       9.30000
    6491.50000      -2.17063      88.51510      13.66900       8.50000       4.08530       3.21700       2.80320       2.06060      43.73880      96.03610       9.30000
    6492.00000      -2.13117      85.42400      13.79570       8.50000       4.62520       3.28080       2.83900       2.08850      42.91620      96.18080       9.30000
    6492.50000      -1.99961      83.26570      13.17200       8.50000       5.19810       3.30610       2.87860       2.14860      41.74360      94.82190       9.30000
    6493.00000      -1.94975      84.32800      13.59060       8.50000       4.89860       3.32990       2.95060       2.20220      40.79030      94.84240       9.30000
    6493.50000      -1.59249      86.73340      13.83410       8.50000       4.52020       3.40980       3.03110       2.19700      40.71890      93.82540       9.30000
    6494.00000      -1.55593      89.07710      14.16100       8.50000       4.53050       3.48650       3.11380       2.18190      41.39600      93.38890       9.30000
    6494.50000      -1.55488      90.29570      14.15840       8.50000       4.73720       3.55350       3.12350       2.16760      43.10490      94.70290       9.30000
    6495.00000      -1.57921      89.70060      13.51410       8.50000       4.82560       3.53840       3.13080       2.14190      44.54700      95.61550       9.30000
    6495.50000      -1.53685      88.69040      13.45360       8.50000       4.69920       3.49340       3.13700       2.12310      45.23650      95.94870       9.30000
    6496.00000      -1.55589      87.62670      13.74290       8.50000       4.58070       3.46800       3.14040       2.12070      44.69030      95.46280       9.30000
    6496.50000      -1.56873      87.40360      13.57650       8.50000       4.66060       3.45000       3.14380       2.08980      44.49760      95.18800       9.30000
    6497.00000      -1.60787      88.24430      13.41020       8.50000       4.68330       3.48340       3.14730       2.03010      44.88170      95.31960       9.30000
    6497.50000      -1.70151      88.47640      13.61420       8.50000       4.72190       3.54100       3.18760       1.99880      44.74430      96.00930       9.30000
    6498.00000      -1.90165      88.65860      13.59330       8.50000       4.75940       3.60620       3.22880       1.99940      45.19780      96.12350       9.30000
    6498.50000      -1.87619      89.61260      13.38500       8.50000       4.85470       3.68060       3.27060       2.00010      45.05010      96.43750       9.30000
    6499.00000      -1.92783      89.77300      13.47200       8.50000       5.01210       3.78680       3.30410       2.00140      44.61850      95.79220       9.30000
    6499.50000      -2.08816      89.35680      13.12120       8.50000       5.26040       3.81430       3.32720       2.04410      44.12290      95.35130       9.30000
