~VERSION INFORMATION
VERS.      2.0   :CWLS LOG ASCII STANDARD--VERSION 2.0
WRAP.      NO    :ONE LINE PER DEPTH STEP
~WELL INFORMATION
#MNEM.UNIT              DATA          DESCRIPTION
#================================================
STRT.FT                         20.00000 :START DEPTH
STOP.FT                       7505.00000 :STOP DEPTH
STEP.FT                          0.50000 :STEP
NULL.                         -999.00000 :NULL VALUE
COMP.   Data output from TerraStation II         : COMPANY
WELL.   East Simpson 2                           : WELL NAME
UWI.    50-279-20007                             : WELL UWI
API.    50-279-20007                             : WELL API
LOC.    23 19N 11W                               : WELL LOCATION
DATE.   NorthSlope.W40                           : WELL DATE
FLD.    No Project Selected                      : Project NAME
~CURVE INFORMATION
#================================================
M__DEPTH.FT                  :M__DEPTH
SP      .MV                  :SP
GR      .GAPI                :GR
CALI    .IN                  :CALI
BitSize .IN                  :BitSize
LL8     .OHMM                :LL8
ILM     .OHMM                :ILM
ILD     .OHMM                :ILD
RHOB    .G/CC                :RHOB
NPHI    .%                   :NPHI
DT      .US/F                :DT
MudWgt  .LBS/GAL             :MudWgt
~PARAMETER INFORMATION
#================================================
~OTHER INFORMATION
#================================================
~A
# ...
    3044.00000      -3.18255      78.24530      13.39610      12.25000       6.52380       5.51590       5.61980       2.16980      45.50760     106.86190       9.60000
    3044.50000      -3.33300      78.43640      13.30370      12.25000       6.71580       5.49930       5.61090       2.16560      45.58140     110.10760       9.60000
    3045.00000      -4.02545      77.15360      13.18410      12.25000       6.71910       5.47130       5.57560       2.17710      45.31810     111.59750       9.60000
    3045.50000      -4.49030      75.91470      13.03490      12.25000       6.62040       5.41110       5.54050       2.20760      44.69520     113.36110       9.60000
    3046.00000      -4.92735      76.21470      12.82860      12.25000       6.42280       5.31360       5.50560       2.25370      42.90060     112.41660       9.60000
    3046.50000      -5.22090      77.38660      12.70520      12.25000       6.22830       5.21780       5.47090       2.28540      41.34310     107.74810       9.60000
    3047.00000      -4.87285      78.71620      12.65090      12.25000       6.02200       5.17080       5.43640       2.29210      40.83760     106.51210       9.60000
    3047.50000      -4.45690      79.81220      12.62180      12.25000       5.90770       5.12900       5.40900       2.27500      41.38810     105.91820       9.60000
    3048.00000      -3.92865      80.86200      12.73930      12.25000       6.01940       5.10820       5.39380       2.27840      42.33610     104.24900       9.60000
    3048.50000      -3.38220      81.84480      12.85670      12.25000       6.11690       5.12020       5.37860       2.27060      43.48150     104.44350       9.60000
    3049.00000      -3.07906      82.35960      13.03090      12.25000       5.95340       5.13220       5.36350       2.23490      44.62330     106.83120       9.60000
    3049.50000      -2.75771      82.25680      13.13890      12.25000       5.84940       5.14430       5.34840       2.23370      44.33920     107.73550       9.60000
    3050.00000      -2.40096      81.81480      13.16250      12.25000       5.93170       5.15630       5.33340       2.23870      43.54510     109.43200       9.60000
    3050.50000      -2.04421      81.49430      13.14580      12.25000       6.07750       5.16840       5.32720       2.23820      42.87710     111.24680       9.60000
    3051.00000      -1.72646      81.99300      13.12210      12.25000       6.09280       5.18060       5.33250       2.27370      42.20560     111.14230       9.60000
    3051.50000      -1.74361      82.75120      13.10130      12.25000       6.05300       5.19270       5.33780       2.27600      41.74050     111.44200       9.60000
    3052.00000      -1.85246      82.64840      13.06980      12.25000       6.24280       5.20040       5.34310       2.27750      42.56710     112.58770       9.60000
    3052.50000      -2.06091      81.91100      12.93420      12.25000       6.23500       5.19980       5.34840       2.28130      43.70150     113.73900       9.60000
    3053.00000      -2.38016      80.76360      12.92980      12.25000       6.19130       5.19920       5.35380       2.29010      44.29760     112.12500       9.60000
    3053.50000      -2.98131      80.21050      13.01730      12.25000       6.14450       5.19860       5.36310       2.29840      44.12460     111.57680       9.60000
    3054.00000      -3.29626      80.47140      13.08210      12.25000       6.13570       5.19800       5.37400       2.31180      43.70440     110.03920       9.60000
    3054.50000      -3.56611      80.88840      13.14360      12.25000       6.18810       5.19740       5.38500       2.29580      42.88250     108.15680       9.60000
    3055.00000      -3.72436      80.99790      13.22000      12.25000       6.28600       5.19680       5.39590       2.26390      41.91040     109.75630       9.60000
    3055.50000      -3.71381      80.51830      13.30010      12.25000       6.12440       5.19620       5.40690       2.26470      40.81510     110.45440       9.60000
    3056.00000      -3.70326      80.97960      13.32760      12.25000       6.04240       5.19560       5.41790       2.23900      40.36800     110.56250       9.60000
    3056.50000      -3.87571      81.67930      13.32750      12.25000       6.11210       5.20060       5.42890       2.23860      40.44050     110.59490       9.60000
    3057.00000      -4.04366      80.83480      13.36780      12.25000       6.49270       5.23560       5.44000       2.24120      41.30430     111.86150       9.60000
    3057.50000      -4.24471      79.64500      13.53500      12.25000       6.51810       5.24830       5.45100       2.24700      42.04570     112.00450       9.60000
    3058.00000      -4.11426      79.88170      13.63390      12.25000       6.11670       5.26110       5.46210       2.24820      42.53590     111.40750       9.60000
    3058.50000      -3.64901      80.67680      13.57060      12.25000       5.96750       5.26890       5.47320       2.24950      42.94940     109.82600       9.60000
    3059.00000      -3.00556      81.00220      13.46560      12.25000       6.14530       5.28820       5.46760       2.27570      43.21210     108.24560       9.60000
    3059.50000      -2.98241      80.53650      13.47520      12.25000       6.35790       5.26500       5.44910       2.27670      43.10890     109.20330       9.60000
    3060.00000      -2.98736      79.83220      13.53670      12.25000       6.33910       5.18280       5.42950       2.27140      42.45980     109.15310       9.60000
    3060.50000      -2.99651      80.26150      13.57030      12.25000       6.27900       5.12640       5.38660       2.26290      41.95850     109.42210       9.60000
    3061.00000      -3.00577      81.46110      13.58450      12.25000       6.18450       5.08250       5.34410       2.26060      43.18510     110.43580       9.60000
    3061.50000      -3.63661      82.17110      13.60460      12.25000       6.04100       5.03890       5.30190       2.24860      44.56080     111.38150       9.60000
    3062.00000      -3.82767      82.47940      13.61690      12.25000       5.83360       5.01080       5.26010       2.21270      44.84900     112.25040       9.60000
    3062.50000      -3.90621      81.53670      13.62610      12.25000       5.75600       4.99860       5.22120       2.22910      44.65400     112.41800       9.60000
    3063.00000      -3.90937      79.93620      13.76720      12.25000       5.78560       4.98650       5.19010       2.23250      44.50410     110.06360       9.60000
    3063.50000      -3.93792      79.36170      13.90840      12.25000       6.03180       4.95080       5.15930       2.19280      44.40550     106.87290       9.60000
    3064.00000      -4.37967      81.71830      14.17280      12.25000       6.15980       4.89590       5.12860       2.17960      44.26940     107.32970       9.60000
    3064.50000      -4.90552      84.56630      14.57120      12.25000       5.89680       4.84150       5.09810       2.20780      43.98250     109.43820       9.60000
    3065.00000      -5.75927      85.78100      14.84570      12.25000       5.56790       4.78780       5.06770       2.24570      44.18530     112.77820       9.60000
    3065.50000      -6.09372      84.64430      15.04810      12.25000       5.54790       4.76490       5.03760       2.25820      44.49490     117.38540       9.60000
    3066.00000      -6.27087      83.71450      14.81220      12.25000       5.69000       4.74970       5.02370       2.25170      44.20650     118.58780       9.60000
    3066.50000      -6.44282      84.70750      14.42570      12.25000       5.76550       4.73460       5.01380       2.25650      43.83790     117.19510       9.60000
    3067.00000      -6.50797      87.24420      14.13830      12.25000       5.59180       4.72560       5.00390       2.30450      43.28010     114.19470       9.60000
    3067.50000      -6.50702      89.38940      13.93800      12.25000       5.39280       4.73600       4.99400       2.32430      43.07830     112.99830       9.60000
