~VERSION INFORMATION
VERS.      2.0   :CWLS LOG ASCII STANDARD--VERSION 2.0
WRAP.      NO    :ONE LINE PER DEPTH STEP
~WELL INFORMATION
#MNEM.UNIT              DATA          DESCRIPTION
#================================================
STRT.FT                         20.00000 :START DEPTH
STOP.FT                       7505.00000 :STOP DEPTH
STEP.FT                          0.50000 :STEP
NULL.                         -999.00000 :NULL VALUE
COMP.   Data output from TerraStation II         : COMPANY
WELL.   East Simpson 2                           : WELL NAME
UWI.    50-279-20007                             : WELL UWI
API.    50-279-20007                             : WELL API
LOC.    23 19N 11W                               : WELL LOCATION
DATE.   NorthSlope.W40                           : WELL DATE
FLD.    No Project Selected                      : Project NAME
~CURVE INFORMATION
#================================================
M__DEPTH.FT                  :M__DEPTH
SP      .MV                  :SP
GR      .GAPI                :GR
CALI    .IN                  :CALI
BitSize .IN                  :BitSize
LL8     .OHMM                :LL8
ILM     .OHMM                :ILM
ILD     .OHMM                :ILD
RHOB    .G/CC                :RHOB
NPHI    .%                   :NPHI
DT      .US/F                :DT
MudWgt  .LBS/GAL             :MudWgt
~PARAMETER INFORMATION
#================================================
~OTHER INFORMATION
#================================================
~A
# ...
    2540.00000     -17.96892      87.91080      12.71590      12.25000       7.02840       6.17140       5.86140       2.45480      46.22530     115.55250       9.80000
    2540.50000     -18.02992      88.66020      12.72740      12.25000       6.94690       6.15080       5.84640       2.40460      47.70190     116.61560       9.80000
    2541.00000     -18.09602      89.34580      12.72960      12.25000       6.94230       6.13020       5.83140       2.39960      47.50630     116.93060       9.80000
    2541.50000     -18.07961      88.57770      12.67640      12.25000       6.98150       6.10980       5.82090       2.39760      46.77130     117.08850       9.80000
    2542.00000     -17.73441      87.50520      12.62530      12.25000       7.04470       6.09290       5.81610       2.36880      45.95670     116.75240       9.80000
    2542.50000     -17.31731      85.98400      12.58670      12.25000       6.99630       6.09440       5.81130       2.35360      45.36580     116.55490       9.80000
    2543.00000     -17.08630      83.81970      12.51530      12.25000       6.80950       6.09580       5.80650       2.37820      45.25930     116.98120       9.80000
    2543.50000     -16.94760      81.50750      12.47500      12.25000       6.64170       6.11360       5.80170       2.40770      44.50890     117.62940       9.80000
    2544.00000     -17.43070      79.59410      12.45060      12.25000       6.69660       6.15500       5.79690       2.40880      43.56220     117.99300       9.80000
    2544.50000     -18.20880      78.22360      12.43020      12.25000       7.09590       6.19660       5.79210       2.38750      42.48260     115.42780       9.80000
    2545.00000     -19.91380      76.42440      12.42270      12.25000       8.03380       6.25790       5.79000       2.38300      41.37230     111.43550       9.80000
    2545.50000     -21.20049      74.65270      12.37780      12.25000       8.15070       6.28720       5.78900       2.38370      40.40010     107.26590       9.80000
    2546.00000     -22.46269      74.16190      12.33280      12.25000       7.93160       6.27410       5.78810       2.38730      40.12220     103.68370       9.80000
    2546.50000     -23.67599      74.94690      12.29080      12.25000       7.91530       6.25040       5.78720       2.40580      39.97100     102.14870       9.80000
    2547.00000     -23.93038      76.32540      12.26410      12.25000       7.56070       6.22670       5.78620       2.42470      39.89740     102.33830       9.80000
    2547.50000     -24.05578      77.75780      12.23740      12.25000       7.00400       6.20320       5.78530       2.40290      39.67590     103.43190       9.80000
    2548.00000     -24.87398      78.13740      12.20040      12.25000       7.41270       6.16200       5.78440       2.41370      39.35140     104.12190       9.80000
    2548.50000     -25.41628      78.55380      12.21170      12.25000       8.36090       6.11850       5.79820       2.43390      39.02690     103.99980       9.80000
    2549.00000     -23.53297      79.24510      12.22840      12.25000       8.49000       6.07530       5.82880       2.44250      39.21540     103.66820       9.80000
    2549.50000     -20.95187      80.81510      12.24840      12.25000       7.27700       6.09030       5.85950       2.45330      40.53400     104.20680       9.80000
    2550.00000     -18.94097      82.68500      12.29690      12.25000       6.86430       6.12200       5.89040       2.46530      42.16100     105.47870       9.80000
    2550.50000     -18.48477      83.13170      12.34540      12.25000       6.85050       6.15390       5.92150       2.46840      43.83210     107.35650       9.80000
    2551.00000     -18.57956      82.30590      12.39390      12.25000       7.24050       6.19750       5.94390       2.45230      44.45730     109.14360       9.80000
    2551.50000     -18.49336      81.78510      12.43980      12.25000       7.29730       6.26260       5.96610       2.42430      44.74110     108.73970       9.80000
    2552.00000     -18.29336      81.63470      12.47410      12.25000       7.25210       6.27990       5.98830       2.40130      44.83610     108.25090       9.80000
    2552.50000     -18.09325      81.55080      12.49920      12.25000       7.13560       6.27580       6.01070       2.40620      44.73660     108.35430       9.80000
    2553.00000     -17.92215      82.07300      12.50790      12.25000       7.14390       6.26880       6.03310       2.41390      44.59550     108.30510       9.80000
    2553.50000     -17.77745      83.89070      12.50440      12.25000       7.17340       6.25850       6.04710       2.41400      43.51720     108.13380       9.80000
    2554.00000     -17.60765      85.36140      12.46430      12.25000       7.21100       6.24830       6.04080       2.40500      42.49780     108.55840       9.80000
    2554.50000     -17.54684      85.96130      12.43950      12.25000       7.18060       6.23800       6.03460       2.39870      42.76770     108.80680       9.80000
    2555.00000     -17.69584      85.94310      12.46430      12.25000       7.06380       6.22780       6.02830       2.41080      43.16670     109.36160       9.80000
    2555.50000     -18.29994      85.56570      12.45770      12.25000       6.94650       6.21750       6.02210       2.41100      43.65900     110.32110       9.80000
    2556.00000     -18.95893      84.56020      12.44930      12.25000       7.34340       6.20730       6.01580       2.40370      44.42990     110.63860       9.80000
    2556.50000     -19.62743      83.95550      12.44120      12.25000       7.66760       6.19720       6.00960       2.39840      45.58180     110.60450       9.80000
    2557.00000     -19.60893      84.15060      12.44150      12.25000       7.42710       6.20890       6.02030       2.41430      47.34900     110.38560       9.80000
    2557.50000     -19.37152      84.80030      12.44560      12.25000       7.14410       6.22330       6.02540       2.42190      48.53050     109.98770       9.80000
    2558.00000     -19.31662      85.97580      12.44970      12.25000       7.09830       6.23760       6.03050       2.41420      48.76810     110.52870       9.80000
    2558.50000     -19.32122      86.41400      12.45290      12.25000       6.99060       6.25200       6.03550       2.40920      48.36860     112.22730       9.80000
    2559.00000     -19.40092      85.44040      12.45470      12.25000       6.99430       6.26640       6.04060       2.40680      47.82610     113.20880       9.80000
    2559.50000     -19.47562      84.16420      12.45670      12.25000       7.08420       6.28320       6.04570       2.39170      46.97750     114.16690       9.80000
    2560.00000     -19.45681      82.56240      12.47220      12.25000       7.30260       6.30320       6.05070       2.39640      46.31170     112.93960       9.80000
    2560.50000     -19.34501      81.04500      12.46980      12.25000       7.49190       6.32320       6.05580       2.40560      45.77440     111.37670       9.80000
    2561.00000     -19.20631      80.21590      12.46470      12.25000       7.46240       6.34330       6.06090       2.40720      45.67890     109.23650       9.80000
    2561.50000     -19.09230      79.58560      12.45180      12.25000       7.33010       6.30190       6.05760       2.43090      46.18830     107.30150       9.80000
    2562.00000     -18.94340      79.95400      12.46170      12.25000       7.19030       6.24690       6.04360       2.42600      46.79930     108.13820       9.80000
    2562.50000     -18.78120      81.19830      12.48080      12.25000       7.04360       6.23540       6.02970       2.41900      46.84950     109.46280       9.80000
    2563.00000     -18.43850      82.59010      12.47610      12.25000       6.93130       6.22400       6.01570       2.43560      46.14820     111.78500       9.80000
    2563.50000     -18.02739      83.42250      12.45630      12.25000       6.86700       6.21250       6.00190       2.44490      45.61040     113.80710       9.80000
