~VERSION INFORMATION
VERS.      2.0   :CWLS LOG ASCII STANDARD--VERSION 2.0
WRAP.      NO    :ONE LINE PER DEPTH STEP
~WELL INFORMATION
#MNEM.UNIT              DATA          DESCRIPTION
#================================================
STRT.FT                         20.00000 :START DEPTH
STOP.FT                       7505.00000 :STOP DEPTH
STEP.FT                          0.50000 :STEP
NULL.                         -999.00000 :NULL VALUE
COMP.   Data output from TerraStation II         : COMPANY
WELL.   East Simpson 2                           : WELL NAME
UWI.    50-279-20007                             : WELL UWI
API.    50-279-20007                             : WELL API
LOC.    23 19N 11W                               : WELL LOCATION
DATE.   NorthSlope.W40                           : WELL DATE
FLD.    No Project Selected                      : Project NAME
~CURVE INFORMATION
#================================================
M__DEPTH.FT                  :M__DEPTH
SP      .MV                  :SP
GR      .GAPI                :GR
CALI    .IN                  :CALI
BitSize .IN                  :BitSize
LL8     .OHMM                :LL8
ILM     .OHMM                :ILM
ILD     .OHMM                :ILD
RHOB    .G/CC                :RHOB
NPHI    .%                   :NPHI
DT      .US/F                :DT
MudWgt  .LBS/GAL             :MudWgt
~PARAMETER INFORMATION
#================================================
~OTHER INFORMATION
#================================================
~A
# ...
    4028.00000      -0.32386      84.69130      13.40680      12.25000       7.29980       6.30000       6.12290       2.48690      35.62580      94.37030       9.70000
    4028.50000      -0.34606      86.04210      13.42330      12.25000       7.61620       6.29940       6.12290       2.50740      35.06620      94.51660       9.70000
    4029.00000      -0.73295      86.69490      13.48630      12.25000       7.57360       6.30820       6.09040       2.52210      34.19730      94.31240       9.70000
    4029.50000      -1.36415      86.98180      13.50490      12.25000       7.25000       6.37090       6.05610       2.52390      34.00600      93.79630       9.70000
    4030.00000      -1.92445      87.88460      13.48980      12.25000       7.22640       6.43240       6.02190       2.52060      33.81000      93.74090       9.70000
    4030.50000      -2.44085      88.91860      13.48260      12.25000       7.74840       6.46580       5.98790       2.51260      33.58020      94.60730       9.70000
    4031.00000      -2.95725      88.83440      13.48560      12.25000       7.90360       6.34290       5.95410       2.51350      33.24470      95.60760       9.70000
    4031.50000      -3.41704      88.54560      13.45980      12.25000       7.51950       6.18690       5.92060       2.51700      33.37830      96.30820       9.70000
    4032.00000      -3.41534      88.25570      13.43390      12.25000       7.04840       6.07840       5.88650       2.51450      33.69800      95.72640       9.70000
    4032.50000      -3.05144      87.26180      13.40810      12.25000       6.67530       6.06870       5.85250       2.50860      34.04590      95.10600       9.70000
    4033.00000      -2.61674      84.76050      13.34460      12.25000       6.50520       6.07730       5.81880       2.48760      34.36110      95.12850       9.70000
    4033.50000      -1.81363      83.10640      13.34490      12.25000       6.49690       6.10180       5.78570       2.48560      34.59380      95.11260       9.70000
    4034.00000      -1.25674      82.92520      13.55930      12.25000       6.59500       6.12650       5.80290       2.47320      34.78480      94.13790       9.70000
    4034.50000      -0.75693      84.05530      13.73700      12.25000       7.18790       6.15120       5.82010       2.46090      35.18240      94.26370       9.70000
    4035.00000      -0.57353      86.55730      13.71630      12.25000       7.93750       6.18180       5.84210       2.45790      35.34750      94.17930       9.70000
    4035.50000      -0.52063      87.49850      13.75870      12.25000       7.97060       6.22510       5.89290       2.46460      35.27350      93.84630       9.70000
    4036.00000      -0.48322      87.29350      13.82060      12.25000       7.75840       6.26860       5.94410       2.47910      35.46450      97.45730       9.70000
    4036.50000      -0.77862      86.92800      13.84790      12.25000       7.59080       6.31240       5.99580       2.48820      35.59520     100.39510       9.70000
    4037.00000      -0.81172      86.86440      13.87520      12.25000       7.37950       6.29990       6.01450       2.49300      34.94310     100.93350       9.70000
    4037.50000      -0.76522      87.04730      13.87680      12.25000       7.35660       6.25790       6.00490       2.49030      34.22800     100.69970       9.70000
    4038.00000      -0.80891      86.87470      13.90010      12.25000       7.50920       6.21620       5.99530       2.48500      33.56300      97.54700       9.70000
    4038.50000      -0.94901      86.64900      13.93400      12.25000       7.40600       6.18370       5.98570       2.48790      33.48710      95.22860       9.70000
    4039.00000      -1.20391      86.61260      13.92880      12.25000       6.99950       6.15430       5.98480       2.48880      33.92840      94.13390       9.70000
    4039.50000      -1.45910      86.73070      13.95830      12.25000       6.90790       6.14510       5.98390       2.49230      34.24870      92.97300       9.70000
    4040.00000      -1.76381      86.93770      13.95750      12.25000       7.17710       6.17070       5.98300       2.49560      33.40260      92.73160       9.70000
    4040.50000      -1.89371      87.19520      13.96760      12.25000       7.31310       6.19630       5.98210       2.49430      32.31660      93.40670       9.70000
    4041.00000      -2.00910      87.43950      14.00600      12.25000       7.21170       6.22360       5.98300       2.49960      31.79390      94.22490       9.70000
    4041.50000      -1.98370      87.85070      14.05610      12.25000       7.16010       6.27690       5.99320       2.50150      32.23590      94.07520       9.70000
    4042.00000      -2.00939      88.00550      14.10620      12.25000       7.25840       6.33060       6.00330       2.48650      33.24840      94.28380       9.70000
    4042.50000      -2.03889      87.71640      14.16260      12.25000       7.61360       6.38470       6.01350       2.50080      34.35170      94.88000       9.70000
    4043.00000      -2.43919      86.89420      14.17670      12.25000       7.97320       6.39820       6.02360       2.51700      34.51540      95.27740       9.70000
    4043.50000      -2.84519      85.78950      14.18660      12.25000       7.88380       6.37000       6.03380       2.53930      34.69950      96.49000       9.70000
    4044.00000      -3.05429      84.62890      14.19230      12.25000       7.28140       6.33560       6.03910       2.54540      34.85240      97.13610       9.70000
    4044.50000      -3.23159      84.11220      14.19780      12.25000       7.03380       6.29420       6.03110       2.53900      34.82780      97.24810       9.70000
    4045.00000      -3.52218      83.42010      14.20330      12.25000       7.26510       6.25310       6.02320       2.50370      34.20200      95.77260       9.70000
    4045.50000      -3.29828      82.54350      14.21380      12.25000       7.50890       6.21920       6.01530       2.50960      33.46700      95.70430       9.70000
    4046.00000      -3.07428      81.54420      14.24450      12.25000       7.42290       6.18730       6.00730       2.51980      33.08210      95.05270       9.70000
    4046.50000      -2.62908      80.40040      14.27520      12.25000       7.08790       6.15560       6.00080       2.51730      32.71760      93.67760       9.70000
    4047.00000      -2.23217      79.51600      14.31860      12.25000       7.00750       6.12400       6.01680       2.51570      32.34200      93.14820       9.70000
    4047.50000      -2.00727      78.46160      14.36010      12.25000       6.86220       6.16090       6.03280       2.51030      32.42430      93.24530       9.70000
    4048.00000      -1.68547      77.28550      14.39670      12.25000       6.91990       6.22890       6.04630       2.50470      32.92540      94.00760       9.70000
    4048.50000      -1.30527      77.39100      14.44600      12.25000       7.65840       6.32300       6.04060       2.49510      32.97140      94.39320       9.70000
    4049.00000      -1.25567      79.29950      14.49130      12.25000       7.93810       6.41490       6.03160       2.49050      32.82880      94.45240       9.70000
    4049.50000      -1.24026      80.95120      14.47960      12.25000       7.83270       6.30440       6.01830       2.49660      33.31920      94.14010       9.70000
    4050.00000      -1.46236      82.58270      14.46800      12.25000       7.41200       6.19570       6.00500       2.50500      34.11190      94.27130       9.70000
    4050.50000      -1.68456      83.74440      14.48570      12.25000       7.02550       6.13750       5.99170       2.50600      34.43060      95.02970       9.70000
    4051.00000      -1.97806      84.76750      14.55510      12.25000       6.81480       6.12890       5.97840       2.50540      33.96760      96.78800       9.70000
    4051.50000      -2.37015      86.11190      14.51640      12.25000       6.90010       6.12030       5.96520       2.51040      33.21490      97.53870       9.70000
