~VERSION INFORMATION
VERS.      2.0   :CWLS LOG ASCII STANDARD--VERSION 2.0
WRAP.      NO    :ONE LINE PER DEPTH STEP
~WELL INFORMATION
#MNEM.UNIT              DATA          DESCRIPTION
#================================================
STRT.FT                         20.00000 :START DEPTH
STOP.FT                       7505.00000 :STOP DEPTH
STEP.FT                          0.50000 :STEP
NULL.                         -999.00000 :NULL VALUE
COMP.   Data output from TerraStation II         : COMPANY
WELL.   East Simpson 2                           : WELL NAME
UWI.    50-279-20007                             : WELL UWI
API.    50-279-20007                             : WELL API
LOC.    23 19N 11W                               : WELL LOCATION
DATE.   NorthSlope.W40                           : WELL DATE
FLD.    No Project Selected                      : Project NAME
~CURVE INFORMATION
#================================================
M__DEPTH.FT                  :M__DEPTH
SP      .MV                  :SP
GR      .GAPI                :GR
CALI    .IN                  :CALI
BitSize .IN                  :BitSize
LL8     .OHMM                :LL8
ILM     .OHMM                :ILM
ILD     .OHMM                :ILD
RHOB    .G/CC                :RHOB
NPHI    .%                   :NPHI
DT      .US/F                :DT
MudWgt  .LBS/GAL             :MudWgt
~PARAMETER INFORMATION
#================================================
~OTHER INFORMATION
#================================================
~A
# ...
     572.00000      -5.29556      86.69160      13.37050      12.25000      13.08910       5.61080       7.23230       2.25420      49.46180     165.25900       9.40000
     572.50000      -5.89156      87.51700      13.42030      12.25000      13.82620       5.75640       7.30160       2.27560      49.58160     166.25200       9.40000
     573.00000      -5.56505      88.00900      13.39170      12.25000      14.62750       5.85140       7.40020       2.27930      49.24260     167.11330       9.40000
     573.50000      -4.92005      87.68550      13.43900      12.25000      14.63250       5.85800       7.50020       2.26920      48.30260     167.07750       9.40000
     574.00000      -4.77964      87.55630      13.51240      12.25000      13.41530       5.84030       7.60150       2.26180      47.51180     166.43559       9.40000
     574.50000      -4.66544      88.50190      13.57930      12.25000      12.30810       5.87330       7.70420       2.25800      47.09510     165.69580       9.40000
     575.00000      -4.71344      89.59130      13.58980      12.25000      12.23770       5.87000       7.72080       2.25160      46.96320     165.21111       9.40000
     575.50000      -5.28974      89.23240      13.66070      12.25000      12.65840       5.86050       7.70030       2.25310      47.50450     164.88530       9.40000
     576.00000      -6.05383      87.70830      13.73160      12.25000      13.03940       5.85090       7.62850       2.24800      48.35960     164.79210       9.40000
     576.50000      -6.40673      87.21830      13.78330      12.25000      13.06040       5.82800       7.56720       2.25190      49.07760     164.95959       9.40000
     577.00000      -6.01523      90.07120      13.82480      12.25000      12.33320       5.83680       7.50640       2.22220      49.69730     164.70360       9.40000
     577.50000      -5.07872      90.89010      13.86280      12.25000      11.71650       5.83160       7.44610       2.22130      49.23210     164.24409       9.40000
     578.00000      -4.93472      90.55410      13.88020      12.25000      12.13200       5.82600       7.38630       2.22810      48.17600     164.18120       9.40000
     578.50000      -5.16732      90.60030      13.88410      12.25000      12.50080       5.80820       7.32690       2.23470      48.13140     164.73109       9.40000
     579.00000      -5.26411      90.58310      13.86560      12.25000      12.15080       5.81100       7.26810       2.24140      47.51620     165.74080       9.40000
     579.50000      -5.15541      90.00990      13.84710      12.25000      12.06730       5.90530       7.20970       2.23010      47.19060     166.83350       9.40000
     580.00000      -4.95701      89.43660      13.83480      12.25000      12.39900       5.86400       7.15630       2.22010      47.51490     167.23770       9.40000
     580.50000      -4.77330      88.91110      13.83250      12.25000      12.69740       5.81650       7.11800       2.21500      48.43580     166.47411       9.40000
     581.00000      -4.58740      88.43140      13.83010      12.25000      12.04540       5.68250       7.07990       2.21770      49.73500     164.60310       9.40000
     581.50000      -4.30470      87.95160      13.83190      12.25000      10.47370       5.46230       7.02610       2.20920      50.44060     162.51579       9.40000
     582.00000      -3.92329      87.78760      13.84840      12.25000       9.87530       5.43430       6.96940       2.20610      49.78540     160.79691       9.40000
     582.50000      -3.53789      88.19980      13.88340      12.25000       9.93710       5.47820       6.99370       2.20560      49.33120     160.60831       9.40000
     583.00000      -3.87088      89.21770      13.98980      12.25000      10.49720       5.58610       7.06110       2.20590      49.13130     161.46710       9.40000
     583.50000      -3.85478      90.23560      14.08120      12.25000      11.24430       5.73480       7.07000       2.21830      48.26010     162.99010       9.40000
     584.00000      -2.84658      89.77500      14.17270      12.25000      11.76910       5.86970       7.13210       2.23150      47.54980     164.21851       9.40000
     584.50000      -2.02548      88.00470      14.19160      12.25000      12.34580       5.99600       7.23820       2.24740      47.07860     164.57300       9.40000
     585.00000      -1.22827      86.44510      14.19010      12.25000      12.39150       5.99290       7.34860       2.24230      46.50920     164.16530       9.40000
     585.50000      -1.06017      87.12180      14.12150      12.25000      11.54370       5.92710       7.46070       2.23850      46.00730     162.84990       9.40000
     586.00000      -1.12427      89.25670      13.94350      12.25000      10.82410       5.86210       7.57450       2.25340      45.75170     160.97980       9.40000
     586.50000      -2.35406      92.51610      13.77980      12.25000      10.51820       5.79770       7.53620       2.25640      45.83520     160.34660       9.40000
     587.00000      -6.74256      93.02910      13.77850      12.25000      10.58560       5.77130       7.42620       2.23990      45.73290     160.36380       9.40000
     587.50000      -6.92536      92.09420      13.86360      12.25000      11.49170       5.74260       7.31780       2.25040      46.39470     161.96080       9.40000
     588.00000      -5.98445      89.51640      14.06240      12.25000      11.74620       5.68110       7.15640       2.26780      46.85160     163.61620       9.40000
     588.50000      -4.34165      86.65260      14.10210      12.25000      11.45670       5.58880       6.98620       2.27900      47.30840     165.51289       9.40000
     589.00000      -3.85415      84.12840      14.11330      12.25000      10.83810       5.53150       6.97080       2.27180      47.74230     165.88620       9.40000
     589.50000      -4.34824      82.78740      14.15700      12.25000      10.62910       5.53370       6.96590       2.25940      48.02220     165.31200       9.40000
     590.00000      -4.78854      84.23650      14.30970      12.25000      10.90470       5.53580       6.95570       2.25170      49.04990     164.56020       9.40000
     590.50000      -4.02353      88.43410      14.32390      12.25000      11.22780       5.53790       6.88730       2.24280      50.40470     164.05890       9.40000
     591.00000      -2.52213      92.42260      14.18480      12.25000      11.17450       5.44530       6.81970       2.23600      50.32500     164.27090       9.40000
     591.50000      -1.02453      95.61130      14.11860      12.25000      10.86800       5.37210       6.74560       2.24240      49.52220     164.39220       9.40000
     592.00000      -0.04903      95.20190      14.12990      12.25000      10.51750       5.34820       6.74180       2.24630      48.52720     164.32021       9.40000
     592.50000      -0.06703      93.27240      14.15150      12.25000      10.41630       5.34610       6.74850       2.24460      48.31850     164.28030       9.40000
     593.00000      -0.83372      91.60990      14.17980      12.25000      10.80420       5.38800       6.75530       2.23640      49.41490     164.15981       9.40000
     593.50000      -1.78642      91.14690      14.23160      12.25000      11.14910       5.43670       6.76200       2.22760      49.72210     164.30330       9.40000
     594.00000      -3.02301      91.00590      14.27930      12.25000      11.30110       5.47200       6.76880       2.22470      49.25260     165.54930       9.40000
     594.50000      -4.17161      91.15550      14.29620      12.25000      11.39890       5.48890       6.76560       2.21880      48.10510     167.15770       9.40000
     595.00000      -3.86941      91.22640      14.34530      12.25000      11.46110       5.48680       6.73710       2.21710      48.43920     167.80910       9.40000
     595.50000      -3.18520      92.80040      14.43020      12.25000      11.35680       5.41380       6.70870       2.22150      49.71160     168.03140       9.40000
