~VERSION INFORMATION
VERS.      2.0   :CWLS LOG ASCII STANDARD--VERSION 2.0
WRAP.      NO    :ONE LINE PER DEPTH STEP
~WELL INFORMATION
#MNEM.UNIT              DATA          DESCRIPTION
#================================================
STRT.FT                         20.00000 :START DEPTH
STOP.FT                       7505.00000 :STOP DEPTH
STEP.FT                          0.50000 :STEP
NULL.                         -999.00000 :NULL VALUE
COMP.   Data output from TerraStation II         : COMPANY
WELL.   East Simpson 2                           : WELL NAME
UWI.    50-279-20007                             : WELL UWI
API.    50-279-20007                             : WELL API
LOC.    23 19N 11W                               : WELL LOCATION
DATE.   NorthSlope.W40                           : WELL DATE
FLD.    No Project Selected                      : Project NAME
~CURVE INFORMATION
#================================================
M__DEPTH.FT                  :M__DEPTH
SP      .MV                  :SP
GR      .GAPI                :GR
CALI    .IN                  :CALI
BitSize .IN                  :BitSize
LL8     .OHMM                :LL8
ILM     .OHMM                :ILM
ILD     .OHMM                :ILD
RHOB    .G/CC                :RHOB
NPHI    .%                   :NPHI
DT      .US/F                :DT
MudWgt  .LBS/GAL             :MudWgt
~PARAMETER INFORMATION
#================================================
~OTHER INFORMATION
#================================================
~A
# ...
    2060.00000     -14.28549      75.90840      12.17370      12.25000       7.97020       5.95180       5.60290       2.36820      42.67540     115.49740       9.90000
    2060.50000     -15.22077      77.32730      12.13280      12.25000       8.48280       5.94080       5.59880       2.34280      43.27540     114.70100       9.90000
    2061.00000     -13.34826      79.24640      12.10650      12.25000       7.73680       5.91690       5.59470       2.33600      43.40810     111.98660       9.90000
    2061.50000     -11.31205      81.01930      12.20160      12.25000       6.74580       5.88250       5.59060       2.34110      43.13090     110.12730       9.90000
    2062.00000     -10.51933      82.36820      12.20520      12.25000       6.29470       5.84840       5.58640       2.35960      43.24150     111.52710       9.90000
    2062.50000     -10.05502      82.81620      12.20080      12.25000       6.52670       5.81440       5.57960       2.34950      43.41270     113.96330       9.90000
    2063.00000      -9.88991      82.86350      12.20580      12.25000       6.89460       5.77110       5.57150       2.35380      43.70210     116.23540       9.90000
    2063.50000      -9.94300      82.95810      12.21880      12.25000       7.28330       5.71840       5.56340       2.36980      44.10270     117.02800       9.90000
    2064.00000     -10.09668      82.85290      12.23300      12.25000       6.96960       5.66620       5.55530       2.37640      44.04020     116.88470       9.90000
    2064.50000     -10.25047      82.26790      12.23720      12.25000       6.25830       5.66280       5.54720       2.37500      43.47140     116.67400       9.90000
    2065.00000     -10.39136      82.59000      12.24040      12.25000       6.27610       5.66830       5.53910       2.37100      43.22770     117.27900       9.90000
    2065.50000     -10.18955      83.98340      12.23420      12.25000       6.52310       5.67370       5.53620       2.36820      43.46900     119.02290       9.90000
    2066.00000      -9.98764      84.93860      12.22570      12.25000       6.91610       5.67910       5.53480       2.36970      44.32580     119.85930       9.90000
    2066.50000      -9.85763      85.29720      12.24800      12.25000       6.83930       5.68460       5.53330       2.35500      45.35200     118.97990       9.90000
    2067.00000      -9.77871      85.68390      12.24720      12.25000       6.47330       5.69000       5.53190       2.34090      46.41410     118.03430       9.90000
    2067.50000      -9.69980      86.06460      12.24840      12.25000       6.52990       5.69550       5.51660       2.33010      47.22860     118.31040       9.90000
    2068.00000      -9.75779      86.21910      12.24120      12.25000       6.95580       5.68370       5.49820       2.32860      47.59990     118.96140       9.90000
    2068.50000     -10.02197      85.97950      12.23240      12.25000       7.16090       5.65370       5.47990       2.33540      47.11690     118.67750       9.90000
    2069.00000     -10.49326      85.22790      12.24330      12.25000       6.92250       5.62140       5.46170       2.33460      46.13620     117.16720       9.90000
    2069.50000     -10.90515      84.75480      12.25500      12.25000       6.69280       5.58930       5.44350       2.33140      44.65780     115.27610       9.90000
    2070.00000     -10.98784      84.87390      12.27450      12.25000       6.50390       5.55740       5.42540       2.34320      43.67260     116.30920       9.90000
    2070.50000     -11.07053      85.22670      12.27170      12.25000       6.44160       5.52560       5.40600       2.35680      42.99060     118.28050       9.90000
    2071.00000     -11.10291      85.02010      12.26840      12.25000       6.49400       5.51750       5.38630       2.37440      43.89060     120.26430       9.90000
    2071.50000     -11.11030      84.01390      12.26400      12.25000       6.53210       5.52410       5.36670       2.36300      44.70000     120.19810       9.90000
    2072.00000     -11.11759      82.93570      12.24760      12.25000       6.41180       5.53070       5.34720       2.34570      45.44210     119.71470       9.90000
    2072.50000     -11.12498      83.36840      12.23120      12.25000       6.51130       5.53730       5.32780       2.35450      44.90890     119.36690       9.90000
    2073.00000     -11.31227      85.31980      12.22020      12.25000       6.86620       5.53640       5.31220       2.36570      43.87940     119.12910       9.90000
    2073.50000     -12.10095      86.14360      12.21870      12.25000       6.97330       5.51250       5.30190       2.34450      42.98400     118.87030       9.90000
    2074.00000     -13.07584      85.68490      12.21560      12.25000       6.23030       5.48870       5.29150       2.32910      43.02710     118.44080       9.90000
    2074.50000     -14.11903      84.15810      12.21240      12.25000       6.08570       5.46510       5.28120       2.32630      43.78480     118.30820       9.90000
    2075.00000     -15.63452      82.50160      12.20260      12.25000       6.92720       5.44150       5.27100       2.32860      45.03920     118.65150       9.90000
    2075.50000     -16.21030      81.36690      12.20880      12.25000       8.77320       5.41900       5.26070       2.31390      46.56340     118.53530       9.90000
    2076.00000     -14.05309      82.40770      12.21980      12.25000       7.24220       5.39670       5.25040       2.32180      47.70200     116.04840       9.90000
    2076.50000     -11.89588      84.58100      12.24080      12.25000       5.99070       5.37450       5.26030       2.33170      48.61890     114.52560       9.90000
    2077.00000     -10.80057      85.33860      12.29290      12.25000       5.82400       5.38620       5.27180       2.33140      49.02350     114.90180       9.90000
    2077.50000     -10.28826      84.48340      12.28540      12.25000       6.06850       5.41720       5.28300       2.31840      48.47950     117.49550       9.90000
    2078.00000      -9.92934      82.99720      12.28000      12.25000       6.24360       5.44740       5.28420       2.31230      47.50280     122.46970       9.90000
    2078.50000      -9.57043      81.81680      12.27980      12.25000       6.41290       5.46380       5.28550       2.32450      47.82140     124.73830       9.90000
    2079.00000      -9.38522      81.58840      12.28770      12.25000       6.64740       5.48010       5.28670       2.35160      48.10540     123.27960       9.90000
    2079.50000      -9.20801      82.96470      12.31580      12.25000       6.89010       5.47910       5.28790       2.35500      47.78960     120.55280       9.90000
    2080.00000      -9.42039      85.13470      12.36620      12.25000       6.73810       5.47810       5.29090       2.36150      47.34030     118.43230       9.90000
    2080.50000      -9.69638      86.51750      12.39560      12.25000       6.40530       5.47700       5.30570       2.37060      46.85580     116.88990       9.90000
    2081.00000      -9.97237      85.43440      12.42310      12.25000       6.08670       5.47620       5.32060       2.35450      46.52920     117.87510       9.90000
    2081.50000     -10.09016      83.80610      12.42430      12.25000       6.08640       5.47530       5.33560       2.34580      46.07250     119.57950       9.90000
    2082.00000     -10.02114      83.09040      12.42320      12.25000       6.28190       5.47450       5.35050       2.34190      45.10860     122.47000       9.90000
    2082.50000      -9.88743      83.98310      12.42200      12.25000       6.37710       5.47360       5.36550       2.31960      44.28320     125.05600       9.90000
    2083.00000      -9.75382      84.84980      12.41650      12.25000       6.34120       5.47140       5.35060       2.30470      43.74260     125.40650       9.90000
    2083.50000      -9.60231      85.06010      12.40170      12.25000       6.47530       5.46650       5.33470       2.28610      43.21190     125.28100       9.90000
