~VERSION INFORMATION
VERS.      2.0   :CWLS LOG ASCII STANDARD--VERSION 2.0
WRAP.      NO    :ONE LINE PER DEPTH STEP
~WELL INFORMATION
#MNEM.UNIT              DATA          DESCRIPTION
#================================================
STRT.FT                         20.00000 :START DEPTH
STOP.FT                       7505.00000 :STOP DEPTH
STEP.FT                          0.50000 :STEP
NULL.                         -999.00000 :NULL VALUE
COMP.   Data output from TerraStation II         : COMPANY
WELL.   East Simpson 2                           : WELL NAME
UWI.    50-279-20007                             : WELL UWI
API.    50-279-20007                             : WELL API
LOC.    23 19N 11W                               : WELL LOCATION
DATE.   NorthSlope.W40                           : WELL DATE
FLD.    No Project Selected                      : Project NAME
~CURVE INFORMATION
#================================================
M__DEPTH.FT                  :M__DEPTH
SP      .MV                  :SP
GR      .GAPI                :GR
CALI    .IN                  :CALI
BitSize .IN                  :BitSize
LL8     .OHMM                :LL8
ILM     .OHMM                :ILM
ILD     .OHMM                :ILD
RHOB    .G/CC                :RHOB
NPHI    .%                   :NPHI
DT      .US/F                :DT
MudWgt  .LBS/GAL             :MudWgt
~PARAMETER INFORMATION
#================================================
~OTHER INFORMATION
#================================================
~A
# ...
    6980.00000      -4.35799      49.06810       9.22840       8.50000      13.05340      11.72430      10.24190       2.50620      19.13510      71.31280       9.40000
    6980.50000      -4.19312      50.81590       9.23630       8.50000      11.67180      11.74760      10.39750       2.50580      19.29040      72.20540       9.40000
    6981.00000      -4.05455      51.74460       9.24310       8.50000      12.37040      11.79350      10.45620       2.50680      19.65230      73.18410       9.40000
    6981.50000      -4.18707      52.01390       9.24990       8.50000      13.66390      12.06520      10.51520       2.51020      20.24460      73.80250       9.40000
    6982.00000      -3.85670      53.19170       9.25670       8.50000      15.66010      12.31250      10.67320       2.51440      20.34300      73.55070       9.40000
    6982.50000      -3.48363      54.81240       9.27060       8.50000      16.74480      12.66130      10.90550       2.51060      19.65850      72.76240       9.40000
    6983.00000      -2.90856      55.16080       9.25380       8.50000      17.47520      13.12240      11.14290       2.50490      18.46460      71.58700       9.40000
    6983.50000      -3.33958      53.64920       9.23500       8.50000      17.10630      13.54640      11.67750       2.53340      17.42450      69.98090       9.40000
    6984.00000      -3.58951      51.27160       9.23790       8.50000      16.13560      14.02150      11.98510       2.53600      16.37850      69.25260       9.40000
    6984.50000      -3.05094      49.18610       9.24410       8.50000      17.64430      14.70860      12.27110       2.51800      15.97630      69.29750       9.40000
    6985.00000      -2.95396      49.30580       9.24480       8.50000      21.42090      15.00120      12.30270       2.51640      16.04030      69.29980       9.40000
    6985.50000      -2.88369      51.41810       9.24180       8.50000      21.85800      14.55490      12.44180       2.52200      16.18340      68.99500       9.40000
    6986.00000      -2.31152      54.19380       9.22140       8.50000      18.70830      13.86040      12.05260       2.51650      16.23550      68.23410       9.40000
    6986.50000      -2.12254      57.21230       9.20100       8.50000      15.85180      13.22610      11.48200       2.51910      16.26830      67.26650       9.40000
    6987.00000      -1.79868      60.92560       9.18060       8.50000      13.86630      12.88830      11.17220       2.54370      16.26420      67.35040       9.40000
    6987.50000      -1.10150      63.43140       9.17290       8.50000      12.88180      12.48080      10.95120       2.54030      16.54540      68.32930       9.40000
    6988.00000      -0.78403      62.82930       9.17470       8.50000      13.40590      12.05290      10.54710       2.54500      17.35320      69.17740       9.40000
    6988.50000      -0.34216      59.91460       9.17590       8.50000      13.84850      11.53000      10.15140       2.52490      18.29640      69.81030       9.40000
    6989.00000      -0.35988      56.51040       9.17460       8.50000      13.35030      11.13590       9.77060       2.52510      19.04110      70.08510       9.40000
    6989.50000      -0.37911      55.22050       9.18880       8.50000      12.44570      10.91220       9.40400       2.52130      19.20410      70.04290       9.40000
    6990.00000      -0.46724      54.69640       9.20680       8.50000      12.81150      10.82470       9.20100       2.51660      18.88810      70.12800       9.40000
    6990.50000      -0.32536      54.75480       9.22470       8.50000      13.93580      10.64460       9.06060       2.51170      18.47170      70.16540       9.40000
    6991.00000       0.01021      56.78450       9.23690       8.50000      13.56370      10.28580       8.90840       2.50970      18.37650      69.72420       9.40000
    6991.50000       0.21948      59.43680       9.24260       8.50000      11.61060      10.11410       8.67960       2.51160      18.36310      69.21490       9.40000
    6992.00000       0.00026      60.64550       9.24820       8.50000      11.53800       9.94920       8.45670       2.53290      17.97950      69.30330       9.40000
    6992.50000      -0.29807      59.75230       9.25360       8.50000      11.73850       9.78710       8.46220       2.54610      17.86140      69.64910       9.40000
    6993.00000      -1.10240      58.13210       9.24960       8.50000      11.21820       9.72640       8.49870       2.55630      18.35490      70.54670       9.40000
    6993.50000      -2.04193      56.19390       9.24550       8.50000      10.47060       9.88740       8.53530       2.55410      18.97590      71.54210       9.40000
    6994.00000      -3.25056      52.43420       9.27760       8.50000      11.12530      10.10660       8.67220       2.56850      19.64510      72.22350       9.40000
    6994.50000      -4.47568      48.86480       9.29940       8.50000      13.00330      10.33830       8.88440       2.54650      20.43550      73.18250       9.40000
    6995.00000      -5.26441      48.88640       9.30980       8.50000      14.29700      10.57410       9.10170       2.52980      21.44570      73.65390       9.40000
    6995.50000      -5.63703      49.58820       9.31910       8.50000      13.71980      10.76160       9.37720       2.52390      21.96450      73.87830       9.40000
    6996.00000      -5.87756      49.36520       9.32560       8.50000      13.15240      11.13750       9.68990       2.52780      21.69820      73.61070       9.40000
    6996.50000      -6.10309      49.62820       9.33200       8.50000      13.31140      11.60980      10.01310       2.53450      21.30460      73.19130       9.40000
    6997.00000      -5.86632      50.97180       9.33840       8.50000      14.61220      12.14140      10.34700       2.54600      20.72740      73.13570       9.40000
    6997.50000      -5.39965      53.20170       9.33860       8.50000      16.12470      12.42090      10.67710       2.54780      20.30640      73.01560       9.40000
    6998.00000      -4.89307      55.77550       9.34280       8.50000      15.88850      12.56180      10.82960       2.54510      20.08910      72.68370       9.40000
    6998.50000      -3.99180      57.96310       9.34730       8.50000      14.82570      12.72820      10.98440       2.53740      19.92850      72.13330       9.40000
    6999.00000      -3.55423      59.68210       9.35340       8.50000      14.52490      12.88640      11.00340       2.53610      19.76900      71.68800       9.40000
    6999.50000      -2.96436      63.17480       9.34550       8.50000      14.92160      12.82910      10.89610       2.56980      19.49320      71.98440       9.40000
    7000.00000      -2.57119      66.69080       9.32980       8.50000      14.67880      12.61360      10.56790       2.55480      19.33950      71.72370       9.40000
    7000.50000      -1.88261      70.34030       9.32860       8.50000      14.51640      12.33420      10.09660       2.55950      19.20660      71.28880       9.40000
    7001.00000      -0.90774      77.18830       9.34380       8.50000      15.52370      11.47800       9.52850       2.59850      19.28560      70.61000       9.40000
    7001.50000       0.06703      88.53150       9.34680       8.50000      15.02630      10.53400       8.99240       2.61190      19.52730      69.69950       9.40000
    7002.00000       0.61081      99.85870       9.34970       8.50000      10.69410       9.66610       8.48640       2.64610      20.05690      69.30360       9.40000
    7002.50000       1.01668     106.53830       9.35940       8.50000       8.98040       9.00610       8.15470       2.67310      20.95330      70.45240       9.40000
    7003.00000       0.72145     109.56930       9.40800       8.50000       8.88930       8.74910       8.09550       2.66780      22.03470      72.22860       9.40000
    7003.50000       0.41883     108.65900       9.45660       8.50000       8.94300       8.66540       8.04130       2.64870      23.91290      72.76800       9.40000
