~VERSION INFORMATION
VERS.      2.0   :CWLS LOG ASCII STANDARD--VERSION 2.0
WRAP.      NO    :ONE LINE PER DEPTH STEP
~WELL INFORMATION
#MNEM.UNIT              DATA          DESCRIPTION
#================================================
STRT.FT                         20.00000 :START DEPTH
STOP.FT                       7505.00000 :STOP DEPTH
STEP.FT                          0.50000 :STEP
NULL.                         -999.00000 :NULL VALUE
COMP.   Data output from TerraStation II         : COMPANY
WELL.   East Simpson 2                           : WELL NAME
UWI.    50-279-20007                             : WELL UWI
API.    50-279-20007                             : WELL API
LOC.    23 19N 11W                               : WELL LOCATION
DATE.   NorthSlope.W40                           : WELL DATE
FLD.    No Project Selected                      : Project NAME
~CURVE INFORMATION
#================================================
M__DEPTH.FT                  :M__DEPTH
SP      .MV                  :SP
GR      .GAPI                :GR
CALI    .IN                  :CALI
BitSize .IN                  :BitSize
LL8     .OHMM                :LL8
ILM     .OHMM                :ILM
ILD     .OHMM                :ILD
RHOB    .G/CC                :RHOB
NPHI    .%                   :NPHI
DT      .US/F                :DT
MudWgt  .LBS/GAL             :MudWgt
~PARAMETER INFORMATION
#================================================
~OTHER INFORMATION
#================================================
~A
# ...
    7460.00000      -0.70354      94.56420       8.52980       8.50000      26.66510      24.24450      23.87570       2.59340      26.33710      63.22220      10.00000
    7460.50000      -0.47070      92.73490       8.50280       8.50000      27.23320      24.44100      23.88380       2.62750      26.43800      62.93700      10.00000
    7461.00000      -0.23786      90.90020       8.40980       8.50000      27.35310      24.47770      23.88490       2.66160      26.68760      62.49310      10.00000
    7461.50000      -0.00512      89.69650       8.44530       8.50000      27.64380      24.49830      23.88600       2.63330      26.90120      62.17620      10.00000
    7462.00000       0.10421      90.50980       8.49050       8.50000      30.61000      24.51900      23.88710       2.60070      26.81240      61.97320      10.00000
    7462.50000       0.17735      91.33100       8.57550       8.50000      33.40600      24.53970      23.88820       2.61600      26.95490      61.76720      10.00000
    7463.00000       0.25048      91.34850       8.55960       8.50000      34.76320      24.56040      23.87360       2.63140      26.92940      61.71390      10.00000
    7463.50000       0.29592      91.66930       8.51160       8.50000      33.11020      24.58110      23.77160       2.63590      26.02540      61.87240      10.00000
    7464.00000       0.29526      91.65120       8.46250       8.50000      31.74910      24.60180      23.67010       2.63670      24.83270      62.16700      10.00000
    7464.50000       0.29459      91.21220       8.43340       8.50000      31.29070      24.56400      23.56900       2.61580      25.03020      62.38040      10.00000
    7465.00000       0.28913      91.54650       8.46060       8.50000      31.74270      24.45300      23.46830       2.60440      25.43560      62.21920      10.00000
    7465.50000       0.11057      92.33660       8.48780       8.50000      32.44330      24.34240      23.36800       2.60050      25.75960      65.20000      10.00000
    7466.00000      -0.06800      93.14830       8.46280       8.50000      32.25350      23.87950      23.09030       2.59190      25.97190      64.24002      10.00000
    7466.50000      -0.20336      93.58390       8.43770       8.50000      30.32370      23.36190      22.72350       2.59880      26.13210      63.28003      10.00000
    7467.00000      -0.30292      93.62380       8.42760       8.50000      27.33560      22.92360      22.38980       2.60290      26.17440      62.31998      10.00000
    7467.50000      -0.40249      93.83850       8.52160       8.50000      24.24550      22.92470      22.47350       2.59690      26.14960      61.36000      10.00000
    7468.00000      -0.50205      93.94230       8.51950       8.50000      22.25420      22.92580      22.55750       2.58180      26.10570      60.40001      10.00000
    7468.50000      -0.57791      94.56480       8.51240       8.50000      21.34990      23.02720      22.64180       2.57140      26.10520      62.00001      10.00000
    7469.00000      -0.39578      94.67450       8.51710       8.50000      21.47040      23.21660      22.83140       2.58850      26.13200      63.60001      10.00000
    7469.50000      -0.21354      93.45550       8.51060       8.50000      24.08240      23.40760      23.04400       2.60280      26.08850      65.20000      10.00000
    7470.00000      -0.03141      91.97150       8.50490       8.50000      29.47750      23.60020      23.25850       2.59460      26.36820      65.21750      10.00000
    7470.50000       0.13982      91.48590       8.50140       8.50000      31.31050      23.79440      23.47500       2.58250      26.68250      64.32960      10.00000
    7471.00000       0.27986      92.58730       8.48630       8.50000      33.95140      23.99020      23.67040       2.56810      26.75360      63.84680      10.00000
    7471.50000       0.41990      95.20980       8.44700       8.50000      31.24320      24.02880      23.81730       2.57420      26.84350      63.11780      10.00000
    7472.00000       0.53454      97.83140       8.40770       8.50000      29.11080      23.99860      23.96510       2.63060      26.76630      62.44970      10.00000
    7472.50000       0.62658      98.30470       8.42370       8.50000      27.79090      23.96830      23.98290       2.62870      26.67000      62.49820      10.00000
    7473.00000       0.71861      95.01210       8.44850       8.50000      27.05790      23.93810      23.81510       2.60240      26.69230      62.72570      10.00000
    7473.50000       0.75105      91.31600       8.47330       8.50000      26.13550      23.90670      23.64840       2.61690      26.55130      63.54750      10.00000
    7474.00000       0.63358      91.14650       8.49810       8.50000      24.69620      23.86810      23.48290       2.63370      26.38840      64.28900      10.00000
    7474.50000       0.51612      91.54410       8.47400       8.50000      24.52700      23.82950      23.31710       2.64430      26.22550      64.74380      10.00000
    7475.00000       0.39855      91.48660       8.41750       8.50000      25.46850      23.79100      23.14740       2.62640      26.47680      65.09090      10.00000
    7475.50000       0.30159      92.89090       8.41430       8.50000      27.09230      23.50240      22.76410       2.60860      26.95890      64.74080      10.00000
    7476.00000       0.20643      96.72870       8.46510       8.50000      28.71310      23.03210      22.24030       2.58090      27.29770      64.06610      10.00000
    7476.50000       0.11126     102.93460       8.51580       8.50000      28.54850      22.57120      21.72840       2.55530      27.72870      63.51480      10.00000
    7477.00000       0.10910     109.38990       8.51740       8.50000      25.86500      21.93680      21.23580       2.55980      27.91730      63.20470      10.00000
    7477.50000       0.15684     111.25660       8.47740       8.50000      21.91260      21.21830      21.13930       2.59190      27.60080      63.21980      10.00000
    7478.00000       0.21827     110.80020       8.42830       8.50000      18.23560      20.96850      21.04340       2.61740      27.94660      63.73460      10.00000
    7478.50000       0.39151    -999.00000       8.39680       8.50000      19.77100      20.94000      20.94780       2.61380      28.52650      64.18670      10.00000
    7479.00000       0.56474    -999.00000       8.37450       8.50000      21.81080      20.91150      20.85270       2.61470      29.16380      63.76480      10.00000
    7479.50000       0.73788    -999.00000       8.35060       8.50000      24.06090      20.88310      20.75800       2.62770      29.19860      63.79270      10.00000
    7480.00000       0.85902    -999.00000       8.33380       8.50000      25.67230      21.20140      21.22040       2.60690      28.95260      63.76970      10.00000
    7480.50000       0.91175    -999.00000       8.33980       8.50000      26.23560      21.96940      21.80030       2.60820      28.58180      63.34200      10.00000
    7481.00000       0.96439    -999.00000       8.43270       8.50000      26.84260      22.76530      22.39590       2.59790      27.54170      62.93150      10.00000
    7481.50000       1.01713    -999.00000       8.47700       8.50000      25.85500      23.59000      23.17970       2.59360      26.53040      62.68410      10.00000
    7482.00000       1.06986    -999.00000       8.45560       8.50000      25.05460      24.44450      24.39620       2.59100      26.14030      62.64620      10.00000
    7482.50000       1.12260    -999.00000       8.42600       8.50000      25.86330      24.88720      25.67640       2.57170      25.81530      62.76320      10.00000
    7483.00000       1.11114    -999.00000       8.44180       8.50000      26.85990      25.30300      26.08330       2.56910      25.41230      62.52820      10.00000
    7483.50000       1.01057    -999.00000       8.45760       8.50000      28.53550      25.72580      26.18080       2.59480      25.36380      62.28630      10.00000
