~VERSION INFORMATION
VERS.      2.0   :CWLS LOG ASCII STANDARD--VERSION 2.0
WRAP.      NO    :ONE LINE PER DEPTH STEP
~WELL INFORMATION
#MNEM.UNIT              DATA          DESCRIPTION
#================================================
STRT.FT                         20.00000 :START DEPTH
STOP.FT                       7505.00000 :STOP DEPTH
STEP.FT                          0.50000 :STEP
NULL.                         -999.00000 :NULL VALUE
COMP.   Data output from TerraStation II         : COMPANY
WELL.   East Simpson 2                           : WELL NAME
UWI.    50-279-20007                             : WELL UWI
API.    50-279-20007                             : WELL API
LOC.    23 19N 11W                               : WELL LOCATION
DATE.   NorthSlope.W40                           : WELL DATE
FLD.    No Project Selected                      : Project NAME
~CURVE INFORMATION
#================================================
M__DEPTH.FT                  :M__DEPTH
SP      .MV                  :SP
GR      .GAPI                :GR
CALI    .IN                  :CALI
BitSize .IN                  :BitSize
LL8     .OHMM                :LL8
ILM     .OHMM                :ILM
ILD     .OHMM                :ILD
RHOB    .G/CC                :RHOB
NPHI    .%                   :NPHI
DT      .US/F                :DT
MudWgt  .LBS/GAL             :MudWgt
~PARAMETER INFORMATION
#================================================
~OTHER INFORMATION
#================================================
~A
# ...
    3524.00000      -2.74252      93.22320      14.58000      12.25000       6.59130       5.38210       5.56540       2.47530      38.52940     103.49310       9.70000
    3524.50000      -2.98194      92.34870      14.57860      12.25000       6.56080       5.42310       5.59460       2.46910      37.90150     103.47030       9.70000
    3525.00000      -2.79066      92.47230      14.55520      12.25000       6.54320       5.46450       5.62200       2.47850      37.19030     104.23180       9.70000
    3525.50000      -2.48008      92.10670      14.53580      12.25000       6.54470       5.50400       5.64950       2.47970      37.43510     104.47270       9.70000
    3526.00000      -2.17070      91.63040      14.52560      12.25000       6.58230       5.48990       5.67710       2.47300      37.85550     104.65250       9.70000
    3526.50000      -2.03322      92.18150      14.51530      12.25000       6.70760       5.47570       5.65230       2.46600      38.09290     104.28170       9.70000
    3527.00000      -1.87953      92.61950      14.50630      12.25000       6.81490       5.46160       5.61290       2.47480      38.16170     103.49840       9.70000
    3527.50000      -1.68295      92.75680      14.49790      12.25000       6.87290       5.42600       5.57390       2.46330      38.35120     102.74090       9.70000
    3528.00000      -1.42967      92.97050      14.48880      12.25000       6.62140       5.37360       5.53500       2.46430      38.44630     102.98400       9.70000
    3528.50000      -1.78739      93.19960      14.47970      12.25000       6.13290       5.31310       5.49650       2.46900      38.18180     103.56430       9.70000
    3529.00000      -1.48290      93.27720      14.46710      12.25000       6.11930       5.25330       5.45510       2.47880      37.82630     104.02670       9.70000
    3529.50000      -1.25723      92.86820      14.46740      12.25000       6.36600       5.18640       5.38750       2.46120      37.47500     103.77490       9.70000
    3530.00000      -1.41325      93.28290      14.46510      12.25000       6.38440       5.11020       5.32080       2.45840      37.04200     102.97600       9.70000
    3530.50000      -1.68117      93.90500      14.46520      12.25000       6.03930       5.05850       5.24350       2.44350      36.75750     102.65620       9.70000
    3531.00000      -1.94908      92.69650      14.47230      12.25000       6.01720       5.01450       5.15510       2.44330      37.05720     101.62060       9.70000
    3531.50000      -2.13031      91.27610      14.47490      12.25000       6.19050       4.97090       5.10000       2.44350      36.83130     102.66960       9.70000
    3532.00000      -2.28752      92.15150      14.47760      12.25000       6.35130       4.89540       5.01130       2.44860      36.01650     104.90720       9.70000
    3532.50000      -2.44474      93.23250      14.47940      12.25000       6.44360       4.77920       4.92400       2.44130      35.12000     105.98850       9.70000
    3533.00000      -2.58856      92.86800      14.47200      12.25000       6.10610       4.67650       4.83830       2.42230      34.51760     106.47160       9.70000
    3533.50000      -2.87158      92.18370      14.46460      12.25000       5.68570       4.62920       4.81010       2.41580      34.73480     106.75730       9.70000
    3534.00000      -3.31580      91.59700      14.47900      12.25000       5.44230       4.62070       4.79670       2.42380      34.78990     105.86410       9.70000
    3534.50000      -3.76001      91.23640      14.50300      12.25000       5.46290       4.63340       4.78340       2.44010      34.64280     105.62740       9.70000
    3535.00000      -4.13604      91.41600      14.52710      12.25000       5.69410       4.68650       4.81930       2.43380      35.09800     106.02760       9.70000
    3535.50000      -4.00825      90.89360      14.57680      12.25000       6.00920       4.74020       4.87280       2.41650      35.49020     105.86900       9.70000
    3536.00000      -3.88057      90.48000      14.60560      12.25000       6.42620       4.79910       4.93250       2.39980      36.19030     104.46670       9.70000
    3536.50000      -3.76069      90.56540      14.59400      12.25000       6.54100       4.89650       5.01840       2.40720      36.89020     104.89530       9.70000
    3537.00000      -3.74391      90.80190      14.61430      12.25000       6.42860       4.99590       5.10580       2.41360      37.76590     106.71280       9.70000
    3537.50000      -3.72723      89.82630      14.68790      12.25000       6.38930       5.05760       5.19480       2.42760      38.30790     108.72570       9.70000
    3538.00000      -3.65855      88.54800      14.74300      12.25000       6.36210       5.11110       5.28530       2.44580      38.66650     110.22620       9.70000
    3538.50000      -3.55257      90.51640      14.79620      12.25000       6.33500       5.16510       5.37740       2.46970      38.76560     110.92930       9.70000
    3539.00000      -3.44658      93.45840      14.78280      12.25000       6.37280       5.21980       5.41320       2.48260      38.24070     108.86290       9.70000
    3539.50000      -3.33251      95.35020      14.78130      12.25000       6.41830       5.25430       5.44470       2.46530      38.01380     106.83940       9.70000
    3540.00000      -3.15902      96.10240      14.78060      12.25000       6.47990       5.27410       5.46930       2.45430      37.72310     104.92700       9.70000
    3540.50000      -2.98544      95.75900      14.78650      12.25000       6.45770       5.29390       5.46660       2.44470      37.33240     103.51040       9.70000
    3541.00000      -2.81196      95.12600      14.80970      12.25000       6.42860       5.31380       5.46400       2.43530      36.95650     103.40890       9.70000
    3541.50000      -2.44398      94.60340      14.81580      12.25000       6.51760       5.30130       5.46140       2.42440      36.78900     103.97380       9.70000
    3542.00000      -1.97440      94.41920      14.82150      12.25000       6.71620       5.28100       5.45880       2.42940      36.79550     104.35670       9.70000
    3542.50000      -1.50482      94.43240      14.81590      12.25000       6.82880       5.26090       5.45610       2.43850      36.42060     104.48620       9.70000
    3543.00000      -1.20694      94.22030      14.81680      12.25000       6.72310       5.24070       5.45350       2.44880      36.66990     104.45670       9.70000
    3543.50000      -1.32996      93.43440      14.81790      12.25000       6.51190       5.21940       5.44350       2.46050      37.44060     105.05070       9.70000
    3544.00000      -1.61857      92.77630      14.80590      12.25000       6.23890       5.19830       5.41950       2.46630      38.44120     105.34270       9.70000
    3544.50000      -1.97429      92.08310      14.79720      12.25000       6.15940       5.17720       5.39570       2.46950      39.05760     105.24070       9.70000
    3545.00000      -2.64651      90.97710      14.80210      12.25000       6.18470       5.15870       5.37200       2.46100      38.58700     105.02870       9.70000
    3545.50000      -3.04713      90.63750      14.79840      12.25000       6.19620       5.14940       5.34840       2.46130      37.06800     104.20260       9.70000
    3546.00000      -3.36675      91.17110      14.81010      12.25000       6.19380       5.14010       5.32600       2.45460      36.06800     102.66090       9.70000
    3546.50000      -3.68046      91.98370      14.82840      12.25000       6.18430       5.13070       5.30780       2.44840      36.05320     101.55850       9.70000
    3547.00000      -3.57739      92.03370      14.84490      12.25000       6.24950       5.12140       5.28970       2.44190      37.25000     101.69730       9.70000
    3547.50000      -3.24161      90.64610      14.84880      12.25000       6.35680       5.11220       5.27160       2.44440      37.98260     101.89910       9.70000
