~VERSION INFORMATION
VERS.      2.0   :CWLS LOG ASCII STANDARD--VERSION 2.0
WRAP.      NO    :ONE LINE PER DEPTH STEP
~WELL INFORMATION
#MNEM.UNIT              DATA          DESCRIPTION
#================================================
STRT.FT                         20.00000 :START DEPTH
STOP.FT                       7505.00000 :STOP DEPTH
STEP.FT                          0.50000 :STEP
NULL.                         -999.00000 :NULL VALUE
COMP.   Data output from TerraStation II         : COMPANY
WELL.   East Simpson 2                           : WELL NAME
UWI.    50-279-20007                             : WELL UWI
API.    50-279-20007                             : WELL API
LOC.    23 19N 11W                               : WELL LOCATION
DATE.   NorthSlope.W40                           : WELL DATE
FLD.    No Project Selected                      : Project NAME
~CURVE INFORMATION
#================================================
M__DEPTH.FT                  :M__DEPTH
SP      .MV                  :SP
GR      .GAPI                :GR
CALI    .IN                  :CALI
BitSize .IN                  :BitSize
LL8     .OHMM                :LL8
ILM     .OHMM                :ILM
ILD     .OHMM                :ILD
RHOB    .G/CC                :RHOB
NPHI    .%                   :NPHI
DT      .US/F                :DT
MudWgt  .LBS/GAL             :MudWgt
~PARAMETER INFORMATION
#================================================
~OTHER INFORMATION
#================================================
~A
# ...
    5492.00000      -1.57275      89.07880      13.12970      12.25000       6.82260       5.49710       4.87920       2.38210      35.01160      88.47250       9.90000
    5492.50000      -1.50420      88.54840      13.18400      12.25000       6.63360       5.44140       4.76100       2.35820      35.24610      87.58660       9.90000
    5493.00000      -1.46176      87.76010      13.25230      12.25000       6.49700       5.34530       4.64560       2.34230      35.81220      87.42500       9.90000
    5493.50000      -1.41921      87.73690      13.14300      12.25000       6.54250       5.22580       4.57570       2.33280      36.74330      87.44660       9.90000
    5494.00000      -1.37667      88.26150      13.26550      12.25000       6.42840       4.98610       4.51120       2.35570      37.38740      88.81630       9.90000
    5494.50000      -1.33413      88.74890      13.33650      12.25000       6.05270       4.77480       4.44760       2.36690      37.43030      91.60004       9.90000
    5495.00000      -1.29168      89.08800      13.30770      12.25000       5.64970       4.79340       4.48770       2.34930      37.53410      92.08006       9.90000
    5495.50000      -1.27624      89.13960      13.39330      12.25000       5.73900       4.92320       4.57130       2.32300      37.77610      92.56003       9.90000
    5496.00000      -1.49069      88.02750      13.54390      12.25000       6.19940       5.06020       4.69970       2.34590      38.00690      93.04005       9.90000
    5496.50000      -1.70525      86.56760      13.35760      12.25000       6.36440       5.20110       4.83170       2.36710      37.88060      93.52001       9.90000
    5497.00000      -1.91970      84.82050      13.21710      12.25000       6.52900       5.62910       5.09700       2.40810      37.02450      94.00003       9.90000
    5497.50000      -2.10496      83.18450      13.16150      12.25000       8.05510       6.13790       5.38070       2.43810      35.26700      93.77560       9.90000
    5498.00000      -2.72151      81.29570      13.15290      12.25000       9.89840       6.64090       5.65230       2.43930      33.95060      92.15840       9.90000
    5498.50000      -2.84697      79.29620      13.17690      12.25000      10.35710       6.82080       5.92460       2.44860      32.34880      89.50650       9.90000
    5499.00000      -2.86752      78.29830      12.83850      12.25000      10.28280       6.87070       6.21010       2.51080      30.04870      87.23320       9.90000
    5499.50000      -2.88808      78.54030      12.75650      12.25000       9.26600       6.99980       6.50940       2.50560      27.04000      84.86520       9.90000
    5500.00000      -2.90863      80.25540      12.79460      12.25000       8.18480       7.16760       6.53300       2.47180      26.64640      81.68920       9.90000
    5500.50000      -2.92099      82.05040      12.83970      12.25000       7.76840       7.33960       6.55620       2.46810      26.83130      80.22790       9.90000
    5501.00000      -2.85465      82.83590      12.96230      12.25000       8.70140       7.44750       6.57940       2.41430      28.06420      80.80820       9.90000
    5501.50000      -2.78840      83.57610      13.23760      12.25000      10.23320       7.25810       6.52920       2.41610      29.47410      82.11760       9.90000
    5502.00000      -2.72205      84.46370      12.98110      12.25000      10.16310       7.01470       6.47390       2.42810      30.02660      82.58640       9.90000
    5502.50000      -2.65582      84.90980      12.63410      12.25000       8.66510       6.97810       6.41910       2.43940      29.43010      82.42080       9.90000
    5503.00000      -2.58947      84.90090      12.60540      12.25000       7.82640       6.94180       6.36470       2.45260      28.84090      81.82190       9.90000
    5503.50000      -2.35342      84.49670      12.73400      12.25000       7.84160       6.89700       6.30580       2.46430      29.59900      81.99510       9.90000
    5504.00000      -2.11108      82.75410      12.83180      12.25000       8.27440       6.84800       6.24640       2.42320      31.05740      83.18920       9.90000
    5504.50000      -2.00143      81.29400      12.86470      12.25000       8.39770       6.76300       6.18750       2.42180      32.37680      84.44940       9.90000
    5505.00000      -2.11119      81.30670      12.84790      12.25000       8.19370       6.67910       6.12920       2.44950      31.98040      85.29450       9.90000
    5505.50000      -2.22074      81.70130      12.86350      12.25000       7.85490       6.59800       6.07140       2.50710      31.17850      85.17780       9.90000
    5506.00000      -2.36820      81.79430      12.89440      12.25000       7.96360       6.55310       6.00670       2.46070      31.05810      84.92970       9.90000
    5506.50000      -2.38245      81.48220      12.92160      12.25000       7.87290       6.50850       5.92560       2.43100      31.43640      84.92150       9.90000
    5507.00000      -2.39671      82.92450      12.97720      12.25000       7.69780       6.46420       5.84550       2.43500      32.02650      85.12710       9.90000
    5507.50000      -2.41096      85.42060      13.06910      12.25000       7.70460       6.36140       5.76660       2.43090      32.29810      85.57740       9.90000
    5508.00000      -2.42522      86.78800      13.23490      12.25000       7.66090       6.22430       5.68870       2.43510      32.28640      85.70490       9.90000
    5508.50000      -2.43948      87.46580      13.30250      12.25000       7.59860       6.09010       5.61180       2.45400      31.99600      85.32680       9.90000
    5509.00000      -2.45373      88.19560      13.22330      12.25000       7.29010       6.04230       5.54050       2.44660      31.61900      85.31440       9.90000
    5509.50000      -2.44959      88.58910      13.12700      12.25000       7.05740       6.00900       5.47370       2.40610      31.87930      85.83100       9.90000
    5510.00000      -2.43074      88.41560      13.16630      12.25000       6.90740       5.97910       5.40770       2.40320      33.18390      86.45820       9.90000
    5510.50000      -2.41200      87.43610      13.54980      12.25000       6.90790       6.00850       5.34250       2.38490      34.51550      88.04880       9.90000
    5511.00000      -2.39316      86.95630      13.64820      12.25000       7.14420       6.03810       5.27810       2.37990      35.92280      88.31120       9.90000
    5511.50000      -2.37430      87.49400      13.45570      12.25000       7.53200       6.03760       5.21440       2.36040      36.42110      88.73190       9.90000
    5512.00000      -2.35546      88.35780      13.22110      12.25000       7.55850       5.79900       5.09220       2.36450      35.51990      88.44530       9.90000
    5512.50000      -2.33672      88.91180      12.99760      12.25000       6.99680       5.48350       4.94390       2.37940      34.38880      86.52380       9.90000
    5513.00000      -2.31797      89.27420      13.08610      12.25000       6.39390       5.18510       4.80000       2.39360      33.56570      86.23030       9.90000
    5513.50000      -2.30853      90.23400      13.26250      12.25000       5.81290       5.02650       4.66030       2.39980      34.36190      85.93040       9.90000
    5514.00000      -2.29908      91.03630      13.70390      12.25000       5.54800       4.87970       4.52470       2.38480      35.55750      85.35530       9.90000
    5514.50000      -2.29644      91.33280      13.69260      12.25000       5.56290       4.74460       4.41260       2.40360      37.36040      88.86270       9.90000
    5515.00000      -2.34319      90.97330      13.52490      12.25000       5.59420       4.70120       4.30920       2.42380      38.28930      92.07520       9.90000
    5515.50000      -2.24985      90.73720      13.38130      12.25000       5.62580       4.65810       4.20830       2.39760      38.66360      94.37300       9.90000
