~VERSION INFORMATION
VERS.      2.0   :CWLS LOG ASCII STANDARD--VERSION 2.0
WRAP.      NO    :ONE LINE PER DEPTH STEP
~WELL INFORMATION
#MNEM.UNIT              DATA          DESCRIPTION
#================================================
STRT.FT                         20.00000 :START DEPTH
STOP.FT                       7505.00000 :STOP DEPTH
STEP.FT                          0.50000 :STEP
NULL.                         -999.00000 :NULL VALUE
COMP.   Data output from TerraStation II         : COMPANY
WELL.   East Simpson 2                           : WELL NAME
UWI.    50-279-20007                             : WELL UWI
API.    50-279-20007                             : WELL API
LOC.    23 19N 11W                               : WELL LOCATION
DATE.   NorthSlope.W40                           : WELL DATE
FLD.    No Project Selected                      : Project NAME
~CURVE INFORMATION
#================================================
M__DEPTH.FT                  :M__DEPTH
SP      .MV                  :SP
GR      .GAPI                :GR
CALI    .IN                  :CALI
BitSize .IN                  :BitSize
LL8     .OHMM                :LL8
ILM     .OHMM                :ILM
ILD     .OHMM                :ILD
RHOB    .G/CC                :RHOB
NPHI    .%                   :NPHI
DT      .US/F                :DT
MudWgt  .LBS/GAL             :MudWgt
~PARAMETER INFORMATION
#================================================
~OTHER INFORMATION
#================================================
~A
# ...
    1556.00000      -2.30205      70.53870      14.45150      12.25000       5.55890       4.70540       4.74870       2.34760      40.72920     112.97210       9.80000
    1556.50000      -0.90868      70.03220      13.97730      12.25000       5.30500       4.72370       4.81770       2.33570      41.50090     112.89210       9.80000
    1557.00000      -0.83960      68.94800      13.07140      12.25000       5.36650       4.74200       4.84070       2.31850      43.03400     112.73280       9.80000
    1557.50000      -2.08752      67.61140      13.25420      12.25000       5.43560       4.74180       4.83210       2.29550      43.52870     113.13700       9.80000
    1558.00000      -3.46585      66.06720      14.18350      12.25000       5.48850       4.72880       4.85950       2.30060      42.99160     114.85240       9.80000
    1558.50000      -3.93928      64.90530      14.54200      12.25000       5.53280       4.72780       4.89770       2.29410      43.11800     117.44880       9.80000
    1559.00000      -2.21830      64.51300      14.38710      12.25000       5.59540       4.76310       4.93620       2.26690      43.99350     118.05380       9.80000
    1559.50000      -0.10093      64.70040      14.27920      12.25000       5.61400       4.85570       4.97500       2.25200      45.31820     117.54690       9.80000
    1560.00000       2.53215      66.25250      14.13150      12.25000       5.67630       4.95010       5.01410       2.23790      46.27470     116.39790       9.80000
    1560.50000       3.73783      70.25700      13.79700      12.25000       5.75480       5.04630       5.06310       2.22010      46.78090     114.83390       9.80000
    1561.00000       4.66220      73.75510      13.42610      12.25000       5.77530       5.12500       5.11430       2.24340      46.08760     114.31280       9.80000
    1561.50000       4.78628      75.33930      13.30800      12.25000       5.73220       5.20130       5.18070       2.28380      44.94570     115.38700       9.80000
    1562.00000       4.72935      76.84460      13.46340      12.25000       5.68020       5.24840       5.18350       2.28380      43.82340     116.57820       9.80000
    1562.50000       4.67233      78.03270      13.62960      12.25000       5.69330       5.29460       5.19350       2.27960      43.10300     116.34810       9.80000
    1563.00000       4.79920      77.99130      13.57280      12.25000       5.70650       5.34130       5.20350       2.28190      43.53050     115.64370       9.80000
    1563.50000       5.39498      77.29310      13.52890      12.25000       5.56790       5.38830       5.21350       2.28170      44.56840     114.91560       9.80000
    1564.00000       6.21315      76.20790      13.06710      12.25000       5.62950       5.43520       5.23880       2.26520      45.66820     113.84280       9.80000
    1564.50000       7.01982      74.91130      12.69460      12.25000       5.69060       5.48250       5.31200       2.24870      46.21830     113.04850       9.80000
    1565.00000       8.14950      73.95130      12.69920      12.25000       5.83830       5.53020       5.38620       2.23440      46.50870     112.88420       9.80000
    1565.50000      10.08438      73.12270      12.92270      12.25000       5.98990       5.57840       5.46150       2.25130      46.59290     113.67080       9.80000
    1566.00000      11.90665      72.18280      13.16370      12.25000       6.05220       5.60060       5.54720       2.25940      46.25290     115.85260       9.80000
    1566.50000      13.17753      70.90730      13.36660      12.25000       6.03270       5.61320       5.57810       2.25330      45.85590     117.51960       9.80000
    1567.00000      13.38010      68.69480      13.42760      12.25000       6.01330       5.62570       5.57850       2.28570      45.77550     118.96800       9.80000
    1567.50000      13.41127      67.08280      13.46950      12.25000       5.99400       5.63830       5.57900       2.32950      45.30570     119.38410       9.80000
    1568.00000      13.38175      67.41090      13.49650      12.25000       6.00260       5.63950       5.57940       2.35820      44.06670     117.02080       9.80000
    1568.50000      13.16173      68.36550      13.42070      12.25000       6.05670       5.62480       5.53830       2.34990      42.82760     114.36850       9.80000
    1569.00000      12.80670      68.52140      13.00350      12.25000       6.09260       5.61010       5.49520       2.34750      41.83720     112.25490       9.80000
    1569.50000      12.46798      67.90850      12.63300      12.25000       6.07230       5.59550       5.45250       2.36470      41.15860     110.56260       9.80000
    1570.00000      12.15945      67.29550      12.48910      12.25000       6.08060       5.58090       5.46480       2.36440      40.60910     109.94360       9.80000
    1570.50000      12.00513      66.70320      12.45380      12.25000       6.10710       5.58110       5.47920       2.36610      40.88190     109.45090       9.80000
    1571.00000      11.94700      66.62460      12.45070      12.25000       6.11910       5.58910       5.50120       2.36930      41.32550     109.18040       9.80000
    1571.50000      11.90288      67.56750      12.46860      12.25000       6.15010       5.73060       5.52330       2.35830      41.72790     109.00410       9.80000
    1572.00000      11.08565      68.66710      12.48650      12.25000       6.20710       5.88330       5.60830       2.34370      41.96950     108.95680       9.80000
    1572.50000      10.26842      69.65840      12.50440      12.25000       6.26460       6.04000       5.77210       2.33080      41.41480     109.12290       9.80000
    1573.00000       9.14110      68.73790      12.52010      12.25000       6.32260       6.31580       5.94060       2.32710      39.72460     109.01030       9.80000
    1573.50000       7.96728      67.58800      12.52810      12.25000       6.40210       6.60940       6.13290       2.32950      38.79590     109.14950       9.80000
    1574.00000       7.27635      66.50570      12.52830      12.25000       6.60850       6.96550       6.39210       2.33250      38.22010     111.57860       9.80000
    1574.50000       6.66403      65.53480      12.52480      12.25000       6.86120       7.38440       6.56200       2.33290      38.34190     117.39350       9.80000
    1575.00000       7.79080      64.05430      12.51230      12.25000       9.15950       7.73180       6.72820       2.32490      38.18590     116.62600       9.80000
    1575.50000       7.92257      61.37430      12.53940      12.25000      11.50930       7.44880       6.69070       2.31600      37.83510     107.28810       9.80000
    1576.00000       7.59265      59.48730      12.57500      12.25000      10.09130       6.85910       6.48480       2.31230      36.57930     107.12270       9.80000
    1576.50000       7.26273      58.86890      12.59900      12.25000       6.85960       6.43030       6.24920       2.32390      36.32690     107.88930       9.80000
    1577.00000       7.13200      61.12910      12.49790      12.25000       6.15880       6.18210       6.02200       2.31650      38.75850     108.39670       9.80000
    1577.50000       7.14168      64.46210      12.43290      12.25000       5.97020       5.94340       5.80150       2.30820      42.20290     104.55100       9.80000
    1578.00000       7.15565      69.32240      12.58340      12.25000       6.12080       5.71400       5.58900       2.29430      46.09900      94.31570       9.80000
    1578.50000       7.19293      73.53640      12.81380      12.25000       6.27240       5.56050       5.38440       2.23940      46.73770      91.73630       9.80000
    1579.00000       7.21890      75.27220      13.00340      12.25000       6.13070       5.46690       5.26890       2.21600      46.48380      94.38660       9.80000
    1579.50000       7.21228      77.70380      12.87710      12.25000       5.98440       5.37500       5.21320       2.18070      46.10110     103.81160       9.80000
