~VERSION INFORMATION
VERS.      2.0   :CWLS LOG ASCII STANDARD--VERSION 2.0
WRAP.      NO    :ONE LINE PER DEPTH STEP
~WELL INFORMATION
#MNEM.UNIT              DATA          DESCRIPTION
#================================================
STRT.FT                         43.00000 :START DEPTH
STOP.FT                       4015.00000 :STOP DEPTH
STEP.FT                          0.50000 :STEP
NULL.                         -999.00000 :NULL VALUE
COMP.   Data output from TerraStation II         : COMPANY
WELL.   Tulageak 1                               : WELL NAME
UWI.    50-023-20018                             : WELL UWI
API.    50-023-20018                             : WELL API
LOC.    7 21N 14W                                : WELL LOCATION
DATE.   NorthSlope.W06                           : WELL DATE
FLD.    No Project Selected                      : Project NAME
~CURVE INFORMATION
#================================================
M__DEPTH.FT                  :M__DEPTH
SP      .MV                  :SP
GR      .GAPI                :GR
CALI    .IN                  :CALI
BitSize .IN                  :BitSize
LLD     .OHMM                :LLD
LLS     .OHMM                :LLS
RHOB    .G/CC                :RHOB
NPHI    .%                   :NPHI
DT      .US/F                :DT
MudWgt  .LBS/GAL             :MudWgt
~PARAMETER INFORMATION
#================================================
~OTHER INFORMATION
#================================================
~A
# ...
    2435.00000      -7.06106      95.71440      12.31460      12.25000       6.02310       7.29860       2.44130      42.69150     104.15220      10.00000
    2435.50000      -7.00633      95.55350      12.34610      12.25000       6.02320       7.28710       2.45670      43.81190     104.58690      10.00000
    2436.00000      -6.72990      95.84000      12.45420      12.25000       6.02320       7.27220       2.48820      44.83120     105.05350      10.00000
    2436.50000      -6.42157      96.00740      12.52840      12.25000       6.02330       7.25730       2.48650      45.34540     105.02300      10.00000
    2437.00000      -6.31764      96.07550      12.49730      12.25000       6.02330       7.24300       2.47840      44.76020     104.85050      10.00000
    2437.50000      -6.28541      96.43880      12.50380      12.25000       6.01130       7.23330       2.48020      44.00430     104.76340      10.00000
    2438.00000      -6.56758      97.27310      12.51840      12.25000       5.96430       7.22370       2.49510      42.86950     103.95910      10.00000
    2438.50000      -7.12355      98.60280      12.52480      12.25000       5.91770       7.21400       2.46880      42.23790     105.13760      10.00000
    2439.00000      -7.16902      99.20250      12.54220      12.25000       5.87620       7.20440       2.47960      42.57460     107.32780      10.00000
    2439.50000      -7.21459      98.90360      12.58900      12.25000       5.86780       7.15080       2.50770      43.28590     109.15950      10.00000
    2440.00000      -7.26006      99.40390      12.59000      12.25000       5.85940       7.16110       2.49580      42.83980     106.97440      10.00000
    2440.50000      -7.30563     100.02570      12.57690      12.25000       5.85100       7.17150       2.47640      41.95710     105.67860      10.00000
    2441.00000      -7.33810     100.83720      12.51180      12.25000       5.84270       7.17840       2.46530      41.42620     104.88350      10.00000
    2441.50000      -7.34247     102.41740      12.50450      12.25000       5.83440       7.18820       2.47100      42.10870     105.23220      10.00000
    2442.00000      -7.33314     104.26940      12.50880      12.25000       5.73650       7.16090       2.45890      44.09310     107.96770      10.00000
    2442.50000      -7.45531     105.33830      12.52140      12.25000       5.56320       7.07130       2.46280      44.99730     109.01260      10.00000
    2443.00000      -7.55158     104.46650      12.49120      12.25000       5.39510       6.84070       2.45430      45.34610     108.38520      10.00000
    2443.50000      -7.62875     102.89770      12.38380      12.25000       5.23220       6.82010       2.42970      44.97230     108.46000      10.00000
    2444.00000      -7.97942     100.51990      12.23270      12.25000       5.23050       6.79960       2.43010      43.55510     107.20310      10.00000
    2444.50000      -7.97329     102.05480      12.32310      12.25000       5.24340       6.90900       2.43780      43.43080     106.04470      10.00000
    2445.00000      -8.28736     102.77650      12.53400      12.25000       5.25630       7.06570       2.44550      42.91450     105.11290      10.00000
    2445.50000      -8.39103     103.12310      12.63960      12.25000       5.22390       6.98440       2.43630      42.30200     104.19070      10.00000
    2446.00000      -8.51120     101.90530      12.58850      12.25000       5.16720       6.69560       2.42700      42.30830     103.22290      10.00000
    2446.50000      -8.39077     100.64710      12.41190      12.25000       5.11110       6.59870       2.42250      42.65800     102.25510      10.00000
    2447.00000      -8.15294      99.53050      12.26790      12.25000       5.05550       6.69490       2.42250      42.03230     101.76920      10.00000
    2447.50000      -8.36851      97.83570      12.22700      12.25000       5.00060       6.74320       2.43330      41.58540     101.31430      10.00000
    2448.00000      -8.67878      96.71930      12.51520      12.25000       5.06810       6.84690       2.44010      41.99780     101.33930      10.00000
    2448.50000      -8.80555      96.86010      12.64380      12.25000       5.25730       6.95320       2.44810      41.84160     102.37170      10.00000
    2449.00000      -8.90452      97.14850      12.63960      12.25000       5.45360       7.20930       2.46050      41.41460     102.05510      10.00000
    2449.50000      -8.86549      96.91710      12.63980      12.25000       5.65720       7.31190       2.46860      41.02530     102.78760      10.00000
    2450.00000      -8.82656      96.96610      12.59030      12.25000       5.79590       7.42330       2.48290      40.97140     104.71150      10.00000
    2450.50000      -8.78753      97.01510      12.54200      12.25000       5.87490       7.56560       2.50510      41.34200     104.04240      10.00000
    2451.00000      -8.74850      96.73920      12.53890      12.25000       5.95510       7.62840       2.51240      42.79450     103.60440      10.00000
    2451.50000      -8.60257      94.62970      12.53780      12.25000       6.03630       7.57930       2.50980      44.14980     103.34940      10.00000
    2452.00000      -8.19884      93.87400      12.52240      12.25000       6.11860       7.53050       2.48130      44.38240     102.66840      10.00000
    2452.50000      -7.88031      96.49590      12.52980      12.25000       6.20200       7.48210       2.45540      43.47720     103.31620      10.00000
    2453.00000      -7.56589      98.09540      12.59780      12.25000       6.28660       7.43390       2.45050      43.36970     103.96400      10.00000
    2453.50000      -7.09496      99.07770      12.64740      12.25000       6.25170       7.38600       2.46550      44.34660     104.73370      10.00000
    2454.00000      -6.88703      99.42780      12.59410      12.25000       6.16510       7.34480       2.46380      46.05430     104.46630      10.00000
    2454.50000      -6.98770     100.16700      12.58420      12.25000       6.07970       7.33970       2.45780      46.31530     104.19890      10.00000
    2455.00000      -7.20257     100.92780      12.62070      12.25000       5.99560       7.33460       2.45760      45.73380     103.92210      10.00000
    2455.50000      -7.31404     100.26260      12.64640      12.25000       5.91260       7.32940       2.46020      45.46520     103.72560      10.00000
    2456.00000      -7.36001      98.75670      12.61950      12.25000       5.87460       7.32430       2.46960      43.89310     104.28070      10.00000
    2456.50000      -7.45328      97.62570      12.58010      12.25000       5.87460       7.31920       2.47340      42.07910     104.79370      10.00000
    2457.00000      -7.22685      97.71810      12.55410      12.25000       5.87460       7.31410       2.46880      41.04090     105.50780      10.00000
    2457.50000      -6.95032      97.80600      12.54710      12.25000       5.87460       7.28140       2.46520      40.65850     105.82580      10.00000
    2458.00000      -7.13719      98.95780      12.54060      12.25000       5.87460       7.21460       2.45070      40.62890     106.31090      10.00000
    2458.50000      -7.38326      99.38810      12.50530      12.25000       5.87460       7.14840       2.44010      41.13260     105.18000      10.00000
    2459.00000      -7.81883      98.38260      12.43850      12.25000       5.87460       7.08270       2.43720      41.74950     104.55750      10.00000
    2459.50000      -8.11240      97.30720      12.40420      12.25000       5.85270       7.01770       2.43060      42.76760     103.93510      10.00000
    2460.00000      -8.08867      96.61370      12.38140      12.25000       5.78550       6.95330       2.42930      43.67370     102.54580      10.00000
    2460.50000      -8.36124      96.55090      12.28910      12.25000       5.71910       6.87950       2.43110      44.53310     101.77310      10.00000
