~VERSION INFORMATION
VERS.      2.0   :CWLS LOG ASCII STANDARD--VERSION 2.0
WRAP.      NO    :ONE LINE PER DEPTH STEP
~WELL INFORMATION
#MNEM.UNIT              DATA          DESCRIPTION
#================================================
STRT.FT                         43.00000 :START DEPTH
STOP.FT                       4015.00000 :STOP DEPTH
STEP.FT                          0.50000 :STEP
NULL.                         -999.00000 :NULL VALUE
COMP.   Data output from TerraStation II         : COMPANY
WELL.   Tulageak 1                               : WELL NAME
UWI.    50-023-20018                             : WELL UWI
API.    50-023-20018                             : WELL API
LOC.    7 21N 14W                                : WELL LOCATION
DATE.   NorthSlope.W06                           : WELL DATE
FLD.    No Project Selected                      : Project NAME
~CURVE INFORMATION
#================================================
M__DEPTH.FT                  :M__DEPTH
SP      .MV                  :SP
GR      .GAPI                :GR
CALI    .IN                  :CALI
BitSize .IN                  :BitSize
LLD     .OHMM                :LLD
LLS     .OHMM                :LLS
RHOB    .G/CC                :RHOB
NPHI    .%                   :NPHI
DT      .US/F                :DT
MudWgt  .LBS/GAL             :MudWgt
~PARAMETER INFORMATION
#================================================
~OTHER INFORMATION
#================================================
~A
# ...
     901.00000      -5.05842      83.64220      12.17160      12.25000       6.15390       6.23320       2.39310      42.64510     114.77600      10.10000
     901.50000      -4.89524      85.16840      12.33730      12.25000       6.21970       6.29990       2.40820      43.08210     115.62100      10.10000
     902.00000      -4.53597      86.69450      12.78170      12.25000       6.29250       6.38600       2.41780      43.74010     116.77640      10.10000
     902.50000      -4.34380      88.13560      12.55060      12.25000       6.48000       6.57620       2.40140      44.17710     115.02980      10.10000
     903.00000      -4.68702      88.36900      12.35110      12.25000       6.67300       6.77210       2.39850      44.34130     113.79080      10.10000
     903.50000      -4.45985      87.85160      12.39640      12.25000       6.73170       6.83070       2.39930      43.80910     111.11960      10.10000
     904.00000      -5.19058      86.75440      12.74210      12.25000       6.54780       6.64400       2.39010      42.51950     112.04780      10.10000
     904.50000      -5.69410      85.81290      12.95130      12.25000       6.36890       6.46250       2.37910      41.22990     112.47000      10.10000
     905.00000      -5.75303      86.00200      12.91380      12.25000       6.23360       6.31250       2.36530      41.88430     115.63920      10.10000
     905.50000      -5.79826      86.19100      12.60440      12.25000       6.20200       6.28050       2.38660      43.10460     120.57890      10.10000
     906.00000      -5.64978      86.38010      12.25060      12.25000       6.17050       6.24860       2.40320      44.34190     122.64680      10.10000
     906.50000      -5.50801      86.88420      11.88790      12.25000       6.13920       6.21690       2.40640      45.49110     125.31770      10.10000
     907.00000      -5.23044      87.62390      12.21010      12.25000       6.16820       6.25670       2.40540      45.62740     122.53380      10.10000
     907.50000      -4.97236      87.62390      12.39010      12.25000       6.21420       6.30100       2.40050      46.77360     117.99110      10.10000
     908.00000      -4.89429      87.02580      12.52590      12.25000       6.36470       6.45560       2.35140      49.83040     114.35060      10.10000
     908.50000      -4.86222      86.23460      12.61530      12.25000       6.49370       6.57610       2.33640      52.08010     115.95550      10.10000
     909.00000      -4.64935      85.44340      12.85960      12.25000       6.48800       6.57270       2.30180      52.63760     117.93200      10.10000
     909.50000      -4.57847      85.47500      12.71890      12.25000       6.35160       6.45210       2.29480      49.50460     119.06960      10.10000
     910.00000      -4.08960      86.36820      12.47550      12.25000       6.15810       6.23900       2.32920      46.57770     118.31810      10.10000
     910.50000      -4.94253      87.26140      12.50620      12.25000       6.07330       6.15320       2.36010      45.85810     118.19400      10.10000
     911.00000      -5.14785      87.57110      12.58480      12.25000       5.98980       6.06860       2.37260      45.72370     117.19620      10.10000
     911.50000      -5.18318      87.64160      12.53320      12.25000       6.16500       6.33270       2.36470      45.28030     115.77060      10.10000
     912.00000      -5.06061      87.23320      12.37600      12.25000       6.58690       6.69180       2.34810      45.11940     114.00670      10.10000
     912.50000      -4.84253      86.61020      12.56190      12.25000       6.69800       6.78230       2.35270      45.29080     116.16220      10.10000
     913.00000      -4.57776      85.98720      12.85270      12.25000       6.70010       6.78440       2.35440      45.48760     121.78120      10.10000
     913.50000      -4.19269      85.36420      13.18380      12.25000       6.67060       6.78660       2.34860      45.10890     125.57070      10.10000
     914.00000      -4.19951      84.74110      12.59130      12.25000       6.37090       6.48500       2.32320      45.10080     126.00100      10.10000
     914.50000      -4.95604      84.11810      11.99880      12.25000       6.10350       6.19630       2.34200      46.68810     121.01500      10.10000
     915.00000      -5.31697      84.20300      11.72170      12.25000       5.96410       6.04180       2.35450      47.05080     114.91760      10.10000
     915.50000      -5.63729      84.49040      11.96470      12.25000       5.93640       6.01100       2.34910      45.69230     112.17280      10.10000
     916.00000      -5.96312      84.77780      12.58270      12.25000       5.97770       6.05560       2.32070      45.75890     112.24460      10.10000
     916.50000      -5.67305      85.06520      13.25370      12.25000       6.06950       6.15470       2.28820      46.48890     112.47260      10.10000
     917.00000      -5.49908      85.35260      12.95850      12.25000       6.11170       6.18920       2.29300      45.67860     111.40570      10.10000
     917.50000      -5.64770      85.64010      12.86030      12.25000       6.15440       6.27230       2.31020      45.52610     114.28390      10.10000
     918.00000      -5.65623      86.62540      12.67370      12.25000       6.44590       6.54930       2.32750      46.32180     117.75070      10.10000
     918.50000      -5.33866      88.83730      12.21460      12.25000       6.68950       6.79690       2.34480      44.06530     118.70510      10.10000
     919.00000      -5.34078      90.27430      11.96860      12.25000       6.83600       6.92270       2.37000      43.04610     117.25970      10.10000
     919.50000      -5.24631      92.05190      11.72010      12.25000       6.88350       6.97080       2.38840      43.44440     115.10420      10.10000
     920.00000      -5.14244      91.81210      11.81560      12.25000       6.76410       6.85840       2.40270      43.03770     113.00210      10.10000
     920.50000      -5.11656      90.36540      11.88140      12.25000       6.61910       6.71130       2.40330      42.07340     112.26820      10.10000
     921.00000      -5.15009      88.91860      11.84610      12.25000       6.47720       6.56740       2.37980      41.83520     112.99120      10.10000
     921.50000      -5.22942      87.93920      11.66970      12.25000       6.33830       6.42660       2.36620      42.21850     114.56020      10.10000
     922.00000      -5.74754      87.10540      11.16420      12.25000       6.23340       6.31200       2.35450      43.18570     115.87650      10.10000
     922.50000      -5.46677      86.27170      11.10720      12.25000       6.19170       6.27670       2.34680      42.87820     117.19290      10.10000
     923.00000      -5.40380      85.53270      11.27820      12.25000       6.02480       6.15190       2.38000      42.47450     117.13220      10.10000
     923.50000      -5.05652      86.82920      11.67930      12.25000       5.72800       5.80330       2.39780      42.12640     116.42200      10.10000
     924.00000      -4.67095      88.39590      12.05290      12.25000       5.83820       5.91870       2.37660      41.79720     116.19750      10.10000
     924.50000      -4.40848      89.97720      12.31000      12.25000       5.91750       5.99290       2.35530      41.06450     115.97300      10.10000
     925.00000      -4.73290      90.36410      12.13280      12.25000       6.23470       6.35520       2.36500      40.68250     116.41540      10.10000
     925.50000      -5.07263      89.78990      12.21900      12.25000       6.45190       6.54830       2.38680      40.50130     117.19850      10.10000
     926.00000      -6.07536      87.38900      12.25100      12.25000       6.64800       6.74740       2.41150      40.48340     117.94200      10.10000
     926.50000      -6.46139      86.98240      12.11070      12.25000       6.85010       6.95240       2.40270      40.62280     119.16240      10.10000
