~VERSION INFORMATION
VERS.      2.0   :CWLS LOG ASCII STANDARD--VERSION 2.0
WRAP.      NO    :ONE LINE PER DEPTH STEP
~WELL INFORMATION
#MNEM.UNIT              DATA          DESCRIPTION
#================================================
STRT.FT                         43.00000 :START DEPTH
STOP.FT                       4015.00000 :STOP DEPTH
STEP.FT                          0.50000 :STEP
NULL.                         -999.00000 :NULL VALUE
COMP.   Data output from TerraStation II         : COMPANY
WELL.   Tulageak 1                               : WELL NAME
UWI.    50-023-20018                             : WELL UWI
API.    50-023-20018                             : WELL API
LOC.    7 21N 14W                                : WELL LOCATION
DATE.   NorthSlope.W06                           : WELL DATE
FLD.    No Project Selected                      : Project NAME
~CURVE INFORMATION
#================================================
M__DEPTH.FT                  :M__DEPTH
SP      .MV                  :SP
GR      .GAPI                :GR
CALI    .IN                  :CALI
BitSize .IN                  :BitSize
LLD     .OHMM                :LLD
LLS     .OHMM                :LLS
RHOB    .G/CC                :RHOB
NPHI    .%                   :NPHI
DT      .US/F                :DT
MudWgt  .LBS/GAL             :MudWgt
~PARAMETER INFORMATION
#================================================
~OTHER INFORMATION
#================================================
~A
# ...
     381.00000     -23.06262      85.33750      15.07090      12.25000      71.41040      35.20260       2.21260      48.95220     155.18080       9.60000
     381.50000     -23.55348      85.14470      15.02980      12.25000      70.48070      35.62700       2.22210      48.94740     155.57330       9.60000
     382.00000     -24.10815      85.51720      14.97270      12.25000      68.63090      35.97340       2.23090      50.52850     157.39790       9.60000
     382.50000     -24.64101      85.82700      14.91480      12.25000      70.94370      35.89210       2.23880      51.91160     158.40089       9.60000
     383.00000     -24.73397      85.16330      14.83910      12.25000      72.95080      35.93940       2.24150      52.49350     158.80060       9.60000
     383.50000     -24.86815      84.90050      14.77860      12.25000      78.57330      36.57460       2.23800      54.08960     159.65590       9.60000
     384.00000     -25.07001      84.63770      14.62870      12.25000      80.32350      37.12260       2.23100      55.97850     159.05859       9.60000
     384.50000     -25.10798      84.46850      14.54060      12.25000      82.08060      37.76790       2.22280      55.74060     157.45320       9.60000
     385.00000     -25.13974      84.93420      14.57970      12.25000      88.07720      39.22610       2.21890      55.25700     157.91220       9.60000
     385.50000     -24.91311      85.63000      14.60540      12.25000      90.33630      41.34400       2.21030      54.87140     158.83990       9.60000
     386.00000     -24.68907      86.35640      14.73470      12.25000      92.21670      42.39670       2.21120      54.45490     161.04050       9.60000
     386.50000     -24.42863      87.08280      14.88410      12.25000      94.15350      42.89200       2.21270      54.31930     160.46750       9.60000
     387.00000     -24.28640      89.01860      14.96270      12.25000      98.89290      42.51680       2.16660      52.93720     158.24100       9.60000
     387.50000     -24.04187      90.46570      14.91640      12.25000     100.12490      40.60180       2.14810      51.17660     155.51430       9.60000
     388.00000     -23.92853      91.98170      14.95440      12.25000      96.01950      39.48710       2.15850      49.89480     153.00140       9.60000
     388.50000     -23.91810      94.14620      15.01040      12.25000      88.32430      39.72540       2.16880      51.72100     150.76610       9.60000
     389.00000     -23.95027      94.29590      14.96950      12.25000      96.23760      40.74580       2.16050      53.95530     152.31900       9.60000
     389.50000     -24.16713      94.04170      14.74990      12.25000     103.30710      43.00290       2.15030      52.70010     155.79829       9.60000
     390.00000     -24.02569      93.78760      14.53910      12.25000     115.23100      45.35370       2.14010      51.30230     157.82111       9.60000
     390.50000     -23.81636      94.46010      14.34490      12.25000     120.02590      44.67700       2.14150      50.36940     159.25560       9.60000
     391.00000     -23.33403      94.60100      14.15070      12.25000     118.71810      43.25010       2.16180      48.78750     158.29520       9.60000
     391.50000     -22.75469      93.21590      13.95650      12.25000     100.75280      40.89220       2.17810      47.25890     156.61780       9.60000
     392.00000     -22.38256      92.06770      13.76220      12.25000      82.90480      38.15010       2.23090      48.01630     156.03250       9.60000
     392.50000     -22.37752      91.45490      13.61950      12.25000      64.38070      35.18640       2.26820      49.17040     155.75800       9.60000
     393.00000     -22.80049      91.34190      13.55010      12.25000      54.06100      30.93420       2.27860      51.70050     155.00110       9.60000
     393.50000     -23.20856      91.95080      13.50210      12.25000      50.57760      28.47700       2.28300      53.93530     153.34081       9.60000
     394.00000     -23.38062      94.43700      13.55630      12.25000      49.63900      27.27220       2.28690      55.74990     152.49980       9.60000
     394.50000     -23.34348      94.91290      13.61140      12.25000      48.47230      27.18720       2.28810      54.75250     152.43649       9.60000
     395.00000     -23.31205      94.72560      13.56390      12.25000      47.08790      27.11060       2.28170      53.28540     153.03120       9.60000
     395.50000     -23.26042      93.59650      13.50090      12.25000      46.64970      27.35210       2.27430      52.13720     153.73230       9.60000
     396.00000     -23.05488      91.74400      13.45900      12.25000      46.49480      26.90820       2.26480      50.26330     156.28349       9.60000
     396.50000     -22.82365      90.28270      13.41710      12.25000      43.49580      25.85100       2.27450      48.34780     158.47560       9.60000
     397.00000     -22.63051      89.72670      13.38970      12.25000      40.74750      25.50890       2.28730      47.98140     159.57030       9.60000
     397.50000     -22.53368      88.47420      13.32750      12.25000      40.96520      25.51880       2.29380      49.50410     162.19370       9.60000
     398.00000     -22.53634      87.10610      13.43670      12.25000      40.86110      25.54640       2.29860      52.22170     162.51280       9.60000
     398.50000     -22.74331      86.07600      13.58790      12.25000      41.10740      25.60520       2.30130      53.98150     158.81660       9.60000
     399.00000     -23.05147      86.74940      13.75200      12.25000      42.56920      25.64210       2.29820      54.23470     152.48790       9.60000
     399.50000     -23.52964      87.46260      13.85250      12.25000      44.12150      25.72760       2.28750      51.68550     146.36189       9.60000
     400.00000     -24.20361      88.19890      13.81270      12.25000      40.72300      24.19520       2.24760      49.90940     137.31841       9.60000
     400.50000     -24.85867      87.15900      13.77290      12.25000      39.65840      23.13190       2.22010      50.65940     137.72760       9.60000
     401.00000     -25.26804      85.45650      13.73300      12.25000      37.14140      21.93550       2.20500      50.51540     139.61900       9.60000
     401.50000     -25.47540      82.89460      13.69320      12.25000      34.78420      20.19480       2.20380      50.66680     141.51030       9.60000
     402.00000     -25.30247      78.23010      13.71670      12.25000      33.46140      19.80360       2.20560      49.77190     142.11230       9.60000
     402.50000     -24.95323      74.57440      13.75810      12.25000      38.04170      20.28640       2.21960      48.83270     141.40080       9.60000
     403.00000     -24.80610      72.50180      13.89840      12.25000      44.25090      22.32440       2.23680      48.89660     141.81110       9.60000
     403.50000     -24.96356      72.05650      13.74650      12.25000      53.25730      25.45680       2.25060      48.20740     143.01230       9.60000
     404.00000     -25.38324      72.02000      13.81950      12.25000      60.52300      27.25670       2.26430      47.63040     146.68381       9.60000
     404.50000     -26.25340      71.98590      13.93310      12.25000      66.40170      26.93780       2.27810      47.85810     149.11411       9.60000
     405.00000     -26.77676      71.95190      14.01150      12.25000      60.81170      24.52820       2.29150      48.26210     147.57280       9.60000
     405.50000     -27.08403      71.74700      14.08420      12.25000      54.59990      22.45520       2.28110      48.71370     144.88290       9.60000
     406.00000     -27.22770      70.85440      14.12890      12.25000      52.58220      21.45370       2.26180      49.46380     144.47951       9.60000
     406.50000     -27.23246      72.05600      14.17760      12.25000      51.04480      20.64180       2.24180      50.42020     143.98030       9.60000
