~VERSION INFORMATION
VERS.      2.0   :CWLS LOG ASCII STANDARD--VERSION 2.0
WRAP.      NO    :ONE LINE PER DEPTH STEP
~WELL INFORMATION
#MNEM.UNIT              DATA          DESCRIPTION
#================================================
STRT.FT                         43.00000 :START DEPTH
STOP.FT                       4015.00000 :STOP DEPTH
STEP.FT                          0.50000 :STEP
NULL.                         -999.00000 :NULL VALUE
COMP.   Data output from TerraStation II         : COMPANY
WELL.   Tulageak 1                               : WELL NAME
UWI.    50-023-20018                             : WELL UWI
API.    50-023-20018                             : WELL API
LOC.    7 21N 14W                                : WELL LOCATION
DATE.   NorthSlope.W06                           : WELL DATE
FLD.    No Project Selected                      : Project NAME
~CURVE INFORMATION
#================================================
M__DEPTH.FT                  :M__DEPTH
SP      .MV                  :SP
GR      .GAPI                :GR
CALI    .IN                  :CALI
BitSize .IN                  :BitSize
LLD     .OHMM                :LLD
LLS     .OHMM                :LLS
RHOB    .G/CC                :RHOB
NPHI    .%                   :NPHI
DT      .US/F                :DT
MudWgt  .LBS/GAL             :MudWgt
~PARAMETER INFORMATION
#================================================
~OTHER INFORMATION
#================================================
~A
# ...
    2955.00000     -22.04396      80.70860       9.17050       8.50000       9.46870       8.07810       2.47470      26.21040      90.57780       9.90000
    2955.50000     -19.91611      80.68200       9.31360       8.50000      12.52060       8.06270       2.47160      26.14740      90.71800       9.90000
    2956.00000     -17.30725      81.91380       9.39490       8.50000      11.62910       8.09440       2.46730      26.38710      90.85820       9.90000
    2956.50000     -15.29270      81.38980       9.44590       8.50000       7.52410       8.16870       2.46420      26.65500      90.99830       9.90000
    2957.00000     -13.85215      80.96630       9.27260       8.50000       5.10010       8.33650       2.46110      27.15750      91.13850       9.90000
    2957.50000     -14.41520      81.36430       9.20780       8.50000       3.00280       8.55520       2.45800      27.69730      91.27860       9.90000
    2958.00000     -15.97355      84.31030       9.14910       8.50000       6.57750       8.77970       2.45690      27.65650      91.41880       9.90000
    2958.50000     -18.67960      87.08130       9.11240       8.50000       8.36950       8.90020       2.45830      27.96080      91.55890       9.90000
    2959.00000     -19.88125      86.29860       9.09530       8.50000      10.18200       8.98210       2.46390      28.17980      91.39850       9.90000
    2959.50000     -20.25390      85.42960       9.30420       8.50000      10.74110       9.06470       2.46950      28.18950      91.22200       9.90000
    2960.00000     -22.71955      84.29720       9.31740       8.50000       7.53300       9.14810       2.47510      27.83150      91.22420       9.90000
    2960.50000     -24.13110      83.38110       9.26560       8.50000       9.47550       9.21930       2.47920      27.52170      91.17820       9.90000
    2961.00000     -22.70915      81.88410       9.05700       8.50000       8.68240       9.16400       2.48100      27.27560      91.01640       9.90000
    2961.50000     -20.47119      80.67030       9.05080       8.50000      13.41710       9.09640       2.48160      27.08940      90.88320       9.90000
    2962.00000     -19.57674      80.99310       9.13390       8.50000      11.12310       9.02360       2.47480      26.69720      90.62460       9.90000
    2962.50000     -20.31189      81.95680       9.20780       8.50000      14.30830       8.95140       2.46800      26.09630      90.40450       9.90000
    2963.00000     -19.70524      82.61560       9.13520       8.50000      11.51270       8.94910       2.46110      25.37500      90.31920       9.90000
    2963.50000     -17.20199      81.63740       9.01310       8.50000       8.57790       8.95810       2.46110      25.06100      90.31810       9.90000
    2964.00000     -13.47563      78.22900       9.16690       8.50000      12.70480       8.96810       2.46350      24.68150      90.31820       9.90000
    2964.50000     -12.08939      76.71590       9.22300       8.50000      13.31270       9.00270       2.46580      24.63560      90.31830       9.90000
    2965.00000     -11.42523      78.52720       9.25200       8.50000      11.15570       9.03740       2.46830      24.77080      90.31830       9.90000
    2965.50000     -12.07769      80.00570       9.10910       8.50000      11.57310       9.08900       2.47030      25.04390      90.31840       9.90000
    2966.00000     -15.52323      80.31400       9.04360       8.50000      13.71370       9.14440       2.47160      25.41350      90.31850       9.90000
    2966.50000     -17.85998      80.19470       9.13750       8.50000      15.18910       9.17590       2.47290      25.90140      90.31850       9.90000
    2967.00000     -19.58323      81.08350       9.18530       8.50000      10.29700       9.18290       2.46980      26.99350      90.31860       9.90000
    2967.50000     -21.23469      83.19160       9.01570       8.50000       9.46480       9.19000       2.46660      27.27670      90.31870       9.90000
    2968.00000     -18.37623      87.77960       9.11700       8.50000       7.94990       9.19710       2.46340      27.64360      90.40380       9.90000
    2968.50000     -14.29608      88.71310       9.18510       8.50000       7.88710       9.12920       2.46190      27.11460      90.88840       9.90000
    2969.00000     -13.73513      89.65910       9.12320       8.50000       8.11510       9.04520       2.46750      26.79150      91.17390       9.90000
    2969.50000     -17.62858      91.21790       9.01810       8.50000       8.25010       8.96200       2.48500      26.77060      91.52850       9.90000
    2970.00000     -20.82282      91.50840       9.13250       8.50000       8.06160       8.88590       2.50980      27.13260      91.58460       9.90000
    2970.50000     -20.48118      89.55060       9.26640       8.50000       8.05280       8.85030       2.51020      27.62510      91.33790       9.90000
    2971.00000     -20.24452      87.44110       9.28750       8.50000       8.61680       8.81480       2.50420      27.80980      90.93290       9.90000
    2971.50000     -20.20347      88.34170       9.30180       8.50000       9.67230       8.78510       2.50470      27.56530      90.73420       9.90000
    2972.00000     -18.33032      90.35470       9.08830       8.50000      10.80460       8.76720       2.50160      27.05270      90.81800       9.90000
    2972.50000     -15.91957      93.59260       9.16640       8.50000      10.94550       8.74940       2.49740      26.75500      90.91850       9.90000
    2973.00000     -13.76402      95.17900       9.14500       8.50000      10.65500       8.73150       2.50050      27.01190      91.13730       9.90000
    2973.50000      -9.77757      95.43460       9.18700       8.50000       9.85010       8.71380       2.50180      27.65990      91.73840       9.90000
    2974.00000      -7.00252      94.31790       9.20800       8.50000       7.89230       8.72300       2.50410      27.99820      91.90980       9.90000
    2974.50000      -8.82127      92.39820       9.37320       8.50000       8.16240       8.73570       2.50630      27.94270      92.08240       9.90000
    2975.00000      -9.98752      92.50840       9.35240       8.50000       8.39330       8.66810       2.50210      28.12970      92.28670       9.90000
    2975.50000     -10.12537      94.31390       9.45370       8.50000       7.00500       8.59530       2.49980      28.62740      92.56830       9.90000
    2976.00000      -8.10371      95.56160       9.57260       8.50000       6.52320       8.52320       2.49680      29.39470      92.84070       9.90000
    2976.50000      -9.78106      97.14010       9.34200       8.50000       7.82890       8.45170       2.49340      30.24280      92.97100       9.90000
    2977.00000     -11.32611      98.14710       9.09470       8.50000       8.28260       8.37920       2.49050      30.57390      93.10140       9.90000
    2977.50000     -15.06486      98.09150       9.28590       8.50000       8.18650       8.30620       2.48930      30.95980      93.23170       9.90000
    2978.00000     -16.82011      97.92560       9.13030       8.50000       7.38880       8.23380       2.48600      30.49350      93.36200       9.90000
    2978.50000     -18.43196      97.62520       9.02340       8.50000       6.23870       8.16430       2.48660      30.17170      93.49230       9.90000
    2979.00000     -19.69261      97.38500       9.01830       8.50000       8.39150       8.09650       2.49140      29.67480      93.62270       9.90000
    2979.50000     -19.48706     100.46800       9.21620       8.50000       8.44310       8.08840       2.49210      29.02170      93.68570       9.90000
    2980.00000     -18.01071     103.17710       9.03980       8.50000       6.85050       8.08360       2.49060      28.37110      93.72630       9.90000
    2980.50000     -18.60366     103.54430       9.01160       8.50000       6.43030       8.07870       2.48690      28.89440      93.76970       9.90000
