~VERSION INFORMATION
VERS.      2.0   :CWLS LOG ASCII STANDARD--VERSION 2.0
WRAP.      NO    :ONE LINE PER DEPTH STEP
~WELL INFORMATION
#MNEM.UNIT              DATA          DESCRIPTION
#================================================
STRT.FT                         43.00000 :START DEPTH
STOP.FT                       4015.00000 :STOP DEPTH
STEP.FT                          0.50000 :STEP
NULL.                         -999.00000 :NULL VALUE
COMP.   Data output from TerraStation II         : COMPANY
WELL.   Tulageak 1                               : WELL NAME
UWI.    50-023-20018                             : WELL UWI
API.    50-023-20018                             : WELL API
LOC.    7 21N 14W                                : WELL LOCATION
DATE.   NorthSlope.W06                           : WELL DATE
FLD.    No Project Selected                      : Project NAME
~CURVE INFORMATION
#================================================
M__DEPTH.FT                  :M__DEPTH
SP      .MV                  :SP
GR      .GAPI                :GR
CALI    .IN                  :CALI
BitSize .IN                  :BitSize
LLD     .OHMM                :LLD
LLS     .OHMM                :LLS
RHOB    .G/CC                :RHOB
NPHI    .%                   :NPHI
DT      .US/F                :DT
MudWgt  .LBS/GAL             :MudWgt
~PARAMETER INFORMATION
#================================================
~OTHER INFORMATION
#================================================
~A
# ...
    3449.00000      -3.42739      96.11280       9.26680       8.50000       8.48580       8.92180       2.46420      32.25960      97.33640       9.90000
    3449.50000      -3.30960      95.16320       9.24940       8.50000       8.57290       9.07000       2.46330      32.17720      96.34780       9.90000
    3450.00000      -3.46000      94.04580       9.26630       8.50000       8.78280       9.29220       2.47150      31.66700      95.35910       9.90000
    3450.50000      -3.61051      92.92850       9.28570       8.50000       8.99770       9.51980       2.48530      31.13510      94.37050       9.90000
    3451.00000      -3.79952      92.05830       9.28040       8.50000       8.99190       9.47830       2.50120      30.96620      93.41230       9.90000
    3451.50000      -4.21093      91.80290       9.27510       8.50000       8.85740       9.33640       2.50990      31.17940      92.79030       9.90000
    3452.00000      -3.85623      90.75580       9.27410       8.50000       8.74190       9.19670       2.50110      32.09280      92.24440       9.90000
    3452.50000      -2.22804      90.77860       9.27310       8.50000       8.72950       9.17790       2.49510      32.82140      91.69840       9.90000
    3453.00000      -0.84385      90.62760       9.27460       8.50000       8.71710       9.16490       2.49630      32.24630      90.63300       9.90000
    3453.50000       0.54034      89.74640       9.28450       8.50000       8.70470       9.15190       2.50230      31.44850      90.08890       9.90000
    3454.00000      -0.65696      88.62390       9.30390       8.50000       8.69240       9.13890       2.51740      30.40080      89.54480       9.90000
    3454.50000      -1.25538      88.64250       9.33010       8.50000       8.68010       9.12590       2.51600      30.59820      89.00070       9.90000
    3455.00000      -0.64108      88.79910       9.28260       8.50000       8.66780       9.11300       2.50180      30.65220      88.45660       9.90000
    3455.50000      -0.10539      88.95440       9.26600       8.50000       8.65550       9.10010       2.49650      29.25370      87.87330       9.90000
    3456.00000       0.60031      88.81720       9.30030       8.50000       8.46150       9.08720       2.51380      28.96380      87.65790       9.90000
    3456.50000       0.99710      89.64320       9.33640       8.50000       8.46510       8.89970       2.51240      28.94780      87.73460       9.90000
    3457.00000       1.10849      90.88840       9.36080       8.50000       8.46880       8.90360       2.50590      28.47270      88.30950       9.90000
    3457.50000       0.95518      92.53470       9.37360       8.50000       8.47250       8.90740       2.50120      28.02580      89.08970       9.90000
    3458.00000       0.74808      93.14600       9.31820       8.50000       8.47610       8.91130       2.49810      29.32800      90.29040       9.90000
    3458.50000      -0.05313      93.08470       9.26010       8.50000       8.47980       8.91520       2.50180      29.82720      90.22310       9.90000
    3459.00000      -0.70254      92.70700       9.40090       8.50000       8.57640       9.09070       2.50120      30.91550      89.91230       9.90000
    3459.50000      -0.49245      91.46360       9.43200       8.50000       8.39200       8.88570       2.50120      30.01920      89.18240       9.90000
    3460.00000      -0.10425      90.46160       9.43060       8.50000       8.18170       8.66290       2.50580      28.85560      87.96970       9.90000
    3460.50000       0.22604      90.42120       9.46240       8.50000       7.97670       8.44560       2.50690      28.82270      89.27110       9.90000
    3461.00000      -0.62657      89.50580       9.47990       8.50000       7.73430       8.22760       2.50740      29.08380      90.08150       9.90000
    3461.50000      -1.92367      88.33240       9.51310       8.50000       7.45020       7.94610       2.51060      29.49450      91.00070       9.90000
    3462.00000      -2.99908      87.23630       9.58430       8.50000       7.17910       7.65420       2.50650      30.03500      91.80630       9.90000
    3462.50000      -1.45890      89.22680       9.65550       8.50000       6.91990       7.37720       2.50260      30.63090      92.60090       9.90000
    3463.00000      -0.71610      90.73960       9.64680       8.50000       6.73100       7.11080       2.50470      32.74070      92.65320       9.90000
    3463.50000       0.10230      92.44350       9.59970       8.50000       6.85330       7.23150       2.50740      33.29240      92.70550       9.90000
    3464.00000      -0.91101      93.46290       9.61530       8.50000       6.97790       7.36290       2.51840      32.13560      92.75790       9.90000
    3464.50000      -2.08492      93.45320       9.61480       8.50000       7.05230       7.41770       2.53110      30.97870      92.30470       9.90000
    3465.00000      -2.18763      92.68520       9.64880       8.50000       7.00860       7.37170       2.51250      29.82190      91.92380       9.90000
    3465.50000      -1.12383      91.38070       9.67170       8.50000       6.96520       7.32610       2.50050      27.59190      91.56090       9.90000
    3466.00000      -0.62674      90.28240       9.66940       8.50000       6.86190       7.23380       2.49330      27.00240      91.37630       9.90000
    3466.50000      -1.13015      90.18560       9.65460       8.50000       6.75610       7.12230       2.48750      26.57570      91.81500       9.90000
    3467.00000      -1.71766      91.16630       9.62940       8.50000       6.65200       7.10810       2.48420      28.19680      92.47460       9.90000
    3467.50000      -2.42766      92.70170       9.63010       8.50000       6.54950       7.14780       2.48100      30.51800      93.47140       9.90000
    3468.00000      -3.38457      93.16420       9.65680       8.50000       6.51050       7.18780       2.47780      31.81410      93.85690       9.90000
    3468.50000      -4.98447      92.59610       9.68500       8.50000       6.50210       7.22800       2.50670      32.95630      94.23650       9.90000
    3469.00000      -4.94169      92.19610       9.69900       8.50000       6.49370       7.26840       2.52470      33.17060      94.18170       9.90000
    3469.50000      -4.73149      91.95280       9.72020       8.50000       6.48540       7.30900       2.50660      33.11000      94.65510       9.90000
    3470.00000      -4.35500      91.84420       9.69700       8.50000       6.47700       7.34980       2.47920      33.03990      93.80540       9.90000
    3470.50000      -4.13481      92.91930       9.65860       8.50000       6.46860       7.47390       2.47300      32.88660      92.50830       9.90000
    3471.00000      -4.69301      94.04170       9.60040       8.50000       6.48620       7.60440       2.46890      32.12590      92.22590       9.90000
    3471.50000      -4.40222      94.62680       9.56310       8.50000       6.50450       7.66350       2.46490      30.75990      92.53590       9.90000
    3472.00000      -3.81863      95.09780       9.60050       8.50000       6.52280       7.61320       2.46080      31.23670      93.58010       9.90000
    3472.50000      -2.25664      94.69200       9.63890       8.50000       6.54120       7.56310       2.46110      31.57270      94.98890       9.90000
    3473.00000      -1.65044      94.10000       9.63440       8.50000       6.55960       7.51230       2.46510      31.48430      95.46730       9.90000
    3473.50000      -2.16956      94.27090       9.62460       8.50000       6.57810       7.43970       2.49270      31.57870      95.82170       9.90000
    3474.00000      -2.68806      94.76190       9.63500       8.50000       6.59660       7.36770       2.51560      32.08100      96.18520       9.90000
    3474.50000      -3.01457      95.40470       9.62040       8.50000       6.61520       7.29940       2.53710      32.64750      95.89750       9.90000
