~VERSION INFORMATION
VERS.      2.0   :CWLS LOG ASCII STANDARD--VERSION 2.0
WRAP.      NO    :ONE LINE PER DEPTH STEP
~WELL INFORMATION
#MNEM.UNIT              DATA          DESCRIPTION
#================================================
STRT.FT                         43.00000 :START DEPTH
STOP.FT                       4015.00000 :STOP DEPTH
STEP.FT                          0.50000 :STEP
NULL.                         -999.00000 :NULL VALUE
COMP.   Data output from TerraStation II         : COMPANY
WELL.   Tulageak 1                               : WELL NAME
UWI.    50-023-20018                             : WELL UWI
API.    50-023-20018                             : WELL API
LOC.    7 21N 14W                                : WELL LOCATION
DATE.   NorthSlope.W06                           : WELL DATE
FLD.    No Project Selected                      : Project NAME
~CURVE INFORMATION
#================================================
M__DEPTH.FT                  :M__DEPTH
SP      .MV                  :SP
GR      .GAPI                :GR
CALI    .IN                  :CALI
BitSize .IN                  :BitSize
LLD     .OHMM                :LLD
LLS     .OHMM                :LLS
RHOB    .G/CC                :RHOB
NPHI    .%                   :NPHI
DT      .US/F                :DT
MudWgt  .LBS/GAL             :MudWgt
~PARAMETER INFORMATION
#================================================
~OTHER INFORMATION
#================================================
~A
# ...
    3189.00000      -3.82414      95.61770      11.04120       8.50000       5.71720       6.21350       2.47370      37.43540     106.50030       9.90000
    3189.50000      -2.63744      95.50260      11.25450       8.50000       5.70300       6.18110       2.46040      38.12910     107.57960       9.90000
    3190.00000      -1.45075      95.38900      11.17950       8.50000       5.68890       6.14890       2.43980      37.85180     105.50300       9.90000
    3190.50000       0.92074      96.22370      11.67700       8.50000       5.67480       6.11680       2.43720      37.62360     103.42630       9.90000
    3191.00000       0.64664      96.77730      11.39600       8.50000       5.66070       6.04380       2.45130      37.49240     103.29790       9.90000
    3191.50000      -0.67337      96.77960      11.03560       8.50000       5.65480       6.07070       2.43040      37.38510     103.94660       9.90000
    3192.00000      -2.35488      96.30230      11.35380       8.50000       5.65730       6.10790       2.41130      37.29580     103.99330       9.90000
    3192.50000      -2.90748      95.89680      11.14530       8.50000       5.65970       6.14520       2.42830      37.57720     103.45880       9.90000
    3193.00000      -2.29159      95.52450      11.31610       8.50000       5.66220       6.16810       2.43260      37.71800     102.92430       9.90000
    3193.50000      -1.24520      94.77770      11.62190       8.50000       5.66470       6.17190       2.44900      37.63850     103.19010       9.90000
    3194.00000      -2.25281      94.99020      11.06700       8.50000       5.66710       6.17570       2.48440      37.23970     104.17740       9.90000
    3194.50000      -4.56481      96.01640      10.54000       8.50000       5.66960       6.17960       2.50700      36.77090     104.03760       9.90000
    3195.00000      -6.00472      96.39140      11.12360       8.50000       5.67200       6.18340       2.50400      35.18950     103.40270       9.90000
    3195.50000      -6.74533      96.03950      11.25430       8.50000       5.67450       6.18720       2.44290      34.35210     102.76790       9.90000
    3196.00000      -6.58683      94.05650      11.13930       8.50000       5.67700       6.19100       2.46330      33.58900     102.97140       9.90000
    3196.50000      -6.65534      94.89500      11.19140       8.50000       5.65990       6.19490       2.51250      33.88470     105.20790       9.90000
    3197.00000      -5.37505      96.01260      10.93540       8.50000       5.61650       6.19870       2.50710      33.80700     106.51010       9.90000
    3197.50000      -4.61866      96.49060      10.95810       8.50000       5.57350       6.20250       2.49850      33.68980     106.84970       9.90000
    3198.00000      -1.98596      97.01570      11.30410       8.50000       5.53080       6.20630       2.46580      34.37870     105.53290       9.90000
    3198.50000       0.28583      97.91400      11.33090       8.50000       5.48840       6.11820       2.47340      35.72570     105.10320       9.90000
    3199.00000      -0.31078      98.58570      11.35060       8.50000       5.37900       6.01930       2.50360      35.97890     106.53890       9.90000
    3199.50000      -1.62769      99.25750      11.80730       8.50000       5.23450       5.92580       2.49320      35.89060     108.81530       9.90000
    3200.00000      -2.65479      99.92920      11.60740       8.50000       5.09390       5.85190       2.48540      36.23840     106.95710       9.90000
    3200.50000      -3.61291      98.66730      11.40740       8.50000       4.95700       5.76580       2.49140      36.58630     105.09890       9.90000
    3201.00000      -3.19631      97.20070      11.20740       8.50000       4.92680       5.66220       2.49120      37.27850     104.75530       9.90000
    3201.50000      -2.55832      96.68740      11.40960       8.50000       4.92150       5.56060       2.48150      36.76680     105.99940       9.90000
    3202.00000      -0.17493      95.72940      11.04580       8.50000       5.03840       5.53060       2.46480      37.10160     106.41430       9.90000
    3202.50000      -1.40213      94.10590      11.65960       8.50000       5.18400       5.69050       2.45910      37.41690     104.90770       9.90000
    3203.00000      -2.08664      93.49590      11.68950       8.50000       5.33390       5.79990       2.45400      37.91850     105.30160       9.90000
    3203.50000      -2.95505      93.37740      11.73400       8.50000       5.40340       5.85950       2.44960      38.45420     105.70180       9.90000
    3204.00000      -3.07476      93.23570      11.56120       8.50000       5.42920       5.87640       2.43840      38.65090     105.29920       9.90000
    3204.50000      -3.63576      93.19700      11.67620       8.50000       5.42830       5.88270       2.44690      38.04480     104.85230       9.90000
    3205.00000      -3.89507      94.24120      11.89640       8.50000       5.39480       5.84020       2.45430      37.38020     105.65140       9.90000
    3205.50000      -3.47258      95.44950      11.29350       8.50000       5.41550       5.86260       2.47780      37.07260     105.76720       9.90000
    3206.00000      -2.65059      95.98100      12.02440       8.50000       5.44240       5.84410       2.50370      36.98430     104.77700       9.90000
    3206.50000      -3.40950      95.56320      12.00450       8.50000       5.47540       5.80790       2.49140      36.87910     104.78780       9.90000
    3207.00000      -6.29940      95.47290      11.80510       8.50000       5.50860       5.77200       2.46210      36.32540     105.04700       9.90000
    3207.50000      -5.22131      96.50310      11.30180       8.50000       5.54200       5.73630       2.45010      36.11730     105.61520       9.90000
    3208.00000      -3.00371      99.51600      11.54740       8.50000       5.65300       5.70080       2.47330      36.29330     105.69580       9.90000
    3208.50000      -1.10372      99.69560      11.59960       8.50000       5.38250       5.64230       2.48340      37.05710     105.88450       9.90000
    3209.00000      -2.00403      99.39740      11.60990       8.50000       5.13680       5.55700       2.49440      37.56930     106.05370       9.90000
    3209.50000      -6.51594      98.69100      11.63510       8.50000       4.87720       5.47300       2.50100      38.46320     107.19780       9.90000
    3210.00000      -6.20354      96.71870      11.72740       8.50000       4.88670       5.39000       2.51510      39.30420     109.26270       9.90000
    3210.50000      -5.06655      95.61710      11.73820       8.50000       4.85620       5.31310       2.49760      39.36690     108.14630       9.90000
    3211.00000      -4.70476      95.32250      11.65460       8.50000       4.80820       5.27820       2.48570      39.08640     106.45520       9.90000
    3211.50000      -3.85457      94.69920      11.75670       8.50000       4.76070       5.24350       2.48080      37.93420     104.91060       9.90000
    3212.00000      -2.41938      94.21000      11.51930       8.50000       4.85300       5.25860       2.49270      37.14220     103.89150       9.90000
    3212.50000      -0.76258      94.04200      11.26630       8.50000       4.95970       5.29230       2.51270      36.19850     103.94890       9.90000
    3213.00000      -0.79289      93.63960      11.62330       8.50000       5.01790       5.40900       2.51360      36.09070     104.28250       9.90000
    3213.50000      -2.35220      92.51710      11.54520       8.50000       4.96520       5.52820       2.47330      36.84430     103.60790       9.90000
    3214.00000      -5.37690      92.01240      11.35710       8.50000       4.92090       5.65910       2.46550      37.97430     104.73870       9.90000
    3214.50000      -8.27391      93.85290      11.63740       8.50000       5.29120       5.83990       2.46220      39.23290     104.22950       9.90000
