~VERSION INFORMATION
VERS.      2.0   :CWLS LOG ASCII STANDARD--VERSION 2.0
WRAP.      NO    :ONE LINE PER DEPTH STEP
~WELL INFORMATION
#MNEM.UNIT              DATA          DESCRIPTION
#================================================
STRT.FT                         43.00000 :START DEPTH
STOP.FT                       4015.00000 :STOP DEPTH
STEP.FT                          0.50000 :STEP
NULL.                         -999.00000 :NULL VALUE
COMP.   Data output from TerraStation II         : COMPANY
WELL.   Tulageak 1                               : WELL NAME
UWI.    50-023-20018                             : WELL UWI
API.    50-023-20018                             : WELL API
LOC.    7 21N 14W                                : WELL LOCATION
DATE.   NorthSlope.W06                           : WELL DATE
FLD.    No Project Selected                      : Project NAME
~CURVE INFORMATION
#================================================
M__DEPTH.FT                  :M__DEPTH
SP      .MV                  :SP
GR      .GAPI                :GR
CALI    .IN                  :CALI
BitSize .IN                  :BitSize
LLD     .OHMM                :LLD
LLS     .OHMM                :LLS
RHOB    .G/CC                :RHOB
NPHI    .%                   :NPHI
DT      .US/F                :DT
MudWgt  .LBS/GAL             :MudWgt
~PARAMETER INFORMATION
#================================================
~OTHER INFORMATION
#================================================
~A
# ...
    3969.00000    -999.00000      91.34140       9.84620       8.50000      53.67130      56.72030       2.64010      22.78140      61.19870       9.80000
    3969.50000    -999.00000      92.45710       9.84440       8.50000      52.87840      55.73690       2.63510      22.61130      61.16230       9.80000
    3970.00000    -999.00000      95.18150       9.66370       8.50000      52.20680      54.94410       2.63510      22.87930      61.17770       9.80000
    3970.50000    -999.00000      95.79720       9.49110       8.50000      51.71790      54.42970       2.66120      23.10300      61.23420       9.80000
    3971.00000    -999.00000      96.69100       9.39940       8.50000      52.38750      55.43860       2.65900      23.18280      61.23670       9.80000
    3971.50000    -999.00000      97.76720       9.31010       8.50000      53.37150      57.09300       2.65460      23.47560      61.23200       9.80000
    3972.00000    -999.00000      96.34840       9.26940       8.50000      55.90490      59.50060       2.64950      22.96570      61.22730       9.80000
    3972.50000    -999.00000      94.59140       9.22690       8.50000      57.40610      60.36290       2.64530      22.32900      61.22250       9.80000
    3973.00000    -999.00000      94.15320       9.10360       8.50000      57.84380      60.93050       2.64820      23.30250      61.21780       9.80000
    3973.50000    -999.00000      94.66020       8.99150       8.50000      59.00530      62.72180       2.65690      23.47460      61.12620       9.80000
    3974.00000    -999.00000      94.16320       8.96820       8.50000      60.52900      63.86100       2.66810      23.26920      61.13750       9.80000
    3974.50000    -999.00000      93.71600       8.95540       8.50000      61.62850      65.02100       2.67640      23.17160      61.12380       9.80000
    3975.00000    -999.00000      93.60020       8.98880       8.50000      61.58660      64.79910       2.66440      23.04810      60.95210       9.80000
    3975.50000    -999.00000      93.49060       9.03180       8.50000      61.08450      64.27070       2.65240      22.89570      60.84770       9.80000
    3976.00000    -999.00000      93.06610       8.98280       8.50000      61.24910      64.40620       2.64040      22.66570      60.95440       9.80000
    3976.50000    -999.00000      92.62750       8.95750       8.50000      61.45750      64.63290       2.64220      22.17390      61.06700       9.80000
    3977.00000    -999.00000      92.92090       8.93500       8.50000      62.92650      67.66790       2.65100      21.76070      61.08370       9.80000
    3977.50000    -999.00000      93.50320       8.92050       8.50000      65.71320      71.12060       2.65870      21.31660      60.61500       9.80000
    3978.00000    -999.00000      93.80480       8.91130       8.50000      69.55950      76.13980       2.63910      20.86360      59.13270       9.80000
    3978.50000    -999.00000      93.56450       8.90570       8.50000      74.31370      83.01550       2.62220      20.72590      57.67690       9.80000
    3979.00000    -999.00000      93.06150       8.87010       8.50000      81.03440      87.19320       2.65520      19.03360      56.29560       9.80000
    3979.50000    -999.00000      93.20820       8.83370       8.50000      85.11240      91.58100       2.68810      18.46930      55.33650       9.80000
    3980.00000    -999.00000      93.31620       8.81740       8.50000      84.12770      92.03020       2.67510      18.27220      53.27020       9.80000
    3980.50000    -999.00000      92.35200       8.82300       8.50000      78.82700      85.93920       2.65990      18.48760      57.07500       9.80000
    3981.00000    -999.00000      91.13260       8.86470       8.50000      74.06240      80.58420       2.64160      18.99350      58.14160       9.80000
    3981.50000    -999.00000      90.50110       8.92030       8.50000      69.58580      75.71360       2.62200      19.76930      59.35240       9.80000
    3982.00000    -999.00000      90.97610       8.92740       8.50000      65.72230      71.13740       2.60320      20.07420      60.92140       9.80000
    3982.50000    -999.00000      93.03520       8.92020       8.50000      63.66040      67.29500       2.59620      20.07830      60.04020       9.80000
    3983.00000    -999.00000      94.28150       8.85580       8.50000      63.68980      66.95960       2.59930      19.93290      59.45640       9.80000
    3983.50000    -999.00000      93.84290       8.78030       8.50000      63.88100      67.38140       2.59100      19.50070      58.71310       9.80000
    3984.00000    -999.00000      91.00590       8.84050       8.50000      64.99360      68.55510       2.58050      18.62400      55.03630       9.80000
    3984.50000    -999.00000    -999.00000       8.96670       8.50000      66.17000      69.84200       2.58690      17.92580      57.70530       9.80000
    3985.00000    -999.00000    -999.00000       8.99300       8.50000      67.43600      71.17820       2.59360      17.84600      59.20070       9.80000
    3985.50000    -999.00000    -999.00000       8.96240       8.50000      66.36810      70.24230       2.59330      17.96290      60.06160       9.80000
    3986.00000    -999.00000    -999.00000       8.90410       8.50000      64.77280      68.55380       2.57570      17.90250      60.72140       9.80000
    3986.50000    -999.00000    -999.00000       8.92620       8.50000      63.70640      67.12790       2.57160      17.84910      61.29820       9.80000
    3987.00000    -999.00000    -999.00000       8.94140       8.50000      62.83840      66.21320       2.59390      18.03940      61.94820       9.80000
    3987.50000    -999.00000    -999.00000       8.93160       8.50000      62.55820      65.76990       2.61620      18.10240      62.41760       9.80000
    3988.00000    -999.00000    -999.00000       8.94840       8.50000      62.50890      65.74190       2.63250      18.02330      63.94720       9.80000
    3988.50000    -999.00000    -999.00000       8.94570       8.50000      62.17820      65.39410       2.61360      17.91160      64.87700       9.80000
    3989.00000    -999.00000    -999.00000       8.93530       8.50000      61.84930      65.04830       2.62630      17.71300      63.27810       9.80000
    3989.50000    -999.00000    -999.00000       8.90500       8.50000      61.81370      64.99040       2.64440      17.56970      61.90550       9.80000
    3990.00000    -999.00000    -999.00000       8.91240       8.50000      61.92630      65.10870       2.63570      17.32840      61.53490       9.80000
    3990.50000    -999.00000    -999.00000       8.93990       8.50000      62.03910      65.22720       2.61560      17.25380      62.30380       9.80000
    3991.00000    -999.00000    -999.00000       8.97680       8.50000      62.15210      65.34600       2.59560      17.17930      63.56670       9.80000
    3991.50000    -999.00000    -999.00000       8.82260       8.50000      62.27630      65.47980       2.57550      17.41410      65.02080       9.80000
    3992.00000    -999.00000    -999.00000       8.76950       8.50000      62.44560      65.65790       2.56990      17.59420      66.59930       9.80000
    3992.50000    -999.00000    -999.00000       8.76870       8.50000      62.61540      66.03550       2.60060      17.55360      62.88530       9.80000
    3993.00000    -999.00000    -999.00000       8.77230       8.50000      62.75130      66.46410       2.63120      16.99190      60.45770       9.80000
    3993.50000    -999.00000    -999.00000       8.78830       8.50000      62.85120      66.89550       2.65680      16.14360      57.96630       9.80000
    3994.00000    -999.00000    -999.00000       8.79830       8.50000      62.95130      67.32960       2.65260      12.58920      56.57950       9.80000
    3994.50000    -999.00000    -999.00000       8.78360       8.50000      63.05160      67.76660       2.64880      16.02000      56.06880       9.80000
