~VERSION INFORMATION
VERS.      2.0   :CWLS LOG ASCII STANDARD--VERSION 2.0
WRAP.      NO    :ONE LINE PER DEPTH STEP
~WELL INFORMATION
#MNEM.UNIT              DATA          DESCRIPTION
#================================================
STRT.FT                         43.00000 :START DEPTH
STOP.FT                       4015.00000 :STOP DEPTH
STEP.FT                          0.50000 :STEP
NULL.                         -999.00000 :NULL VALUE
COMP.   Data output from TerraStation II         : COMPANY
WELL.   Tulageak 1                               : WELL NAME
UWI.    50-023-20018                             : WELL UWI
API.    50-023-20018                             : WELL API
LOC.    7 21N 14W                                : WELL LOCATION
DATE.   NorthSlope.W06                           : WELL DATE
FLD.    No Project Selected                      : Project NAME
~CURVE INFORMATION
#================================================
M__DEPTH.FT                  :M__DEPTH
SP      .MV                  :SP
GR      .GAPI                :GR
CALI    .IN                  :CALI
BitSize .IN                  :BitSize
LLD     .OHMM                :LLD
LLS     .OHMM                :LLS
RHOB    .G/CC                :RHOB
NPHI    .%                   :NPHI
DT      .US/F                :DT
MudWgt  .LBS/GAL             :MudWgt
~PARAMETER INFORMATION
#================================================
~OTHER INFORMATION
#================================================
~A
# ...
     641.00000      -0.13361      82.98210      12.45620      12.25000      10.62980       8.46200       2.20880      49.46330     142.14140       9.60000
     641.50000      -0.68868      84.30750      12.64430      12.25000       8.11970       7.25560       2.20130      49.80630     140.96680       9.60000
     642.00000      -1.08334      85.47760      13.59080      12.25000       7.58300       6.22130       2.19520      50.14930     136.63170       9.60000
     642.50000      -1.11221      85.70530      14.46900      12.25000       7.23090       5.86060       2.19570      49.73130     136.28729       9.60000
     643.00000      -1.06267      85.17250      13.94030      12.25000       7.49290       6.13850       2.19650      48.92170     136.98019       9.60000
     643.50000      -0.88414      84.53560      12.91460      12.25000       7.88030       6.59470       2.20500      47.89020     138.83560       9.60000
     644.00000      -0.78000      83.89870      13.27510      12.25000       8.21190       6.94240       2.21360      47.20800     143.36670       9.60000
     644.50000      -0.42467      83.82990      13.74690      12.25000       8.32920       6.79440       2.22210      46.87300     147.27370       9.60000
     645.00000      -0.33153      83.88520      13.79490      12.25000       7.52560       6.75730       2.22020      48.00030     149.10330       9.60000
     645.50000      -0.38160      83.95060      13.83590      12.25000       7.89820       6.72030       2.21530      50.37650     149.13300       9.60000
     646.00000      -0.48127      84.01600      13.87690      12.25000       7.51160       6.68350       2.19290      51.79000     144.84680       9.60000
     646.50000      -0.56453      84.08150      13.93850      12.25000       7.77120       6.64700       2.16540      53.29330     141.08600       9.60000
     647.00000      -0.74720      84.03860      14.05120      12.25000       7.87190       6.54990       2.15070      53.47520     140.48331       9.60000
     647.50000      -0.76796      83.97570      14.07820      12.25000       7.05890       6.32870       2.14260      53.12280     142.55330       9.60000
     648.00000      -0.71073      83.91270      14.05570      12.25000       7.28740       6.09720       2.13500      52.75200     147.14320       9.60000
     648.50000      -0.25929      83.84980      14.03050      12.25000       7.56300       5.91350       2.12730      54.23380     154.09399       9.60000
     649.00000       0.17904      83.78680      14.05610      12.25000       7.30930       5.85950       2.11970      55.38530     152.44189       9.60000
     649.50000       0.48278      83.72390      14.10510      12.25000       6.94850       5.86900       2.11670      54.41770     137.66901       9.60000
     650.00000       0.41401      83.66090      14.11440      12.25000       6.81570       5.96450       2.12230      53.90050     133.10800       9.60000
     650.50000      -0.01865      83.63320      13.93110      12.25000       7.14960       6.11550       2.13200      54.36100     130.59979       9.60000
     651.00000      -0.47102      83.68420      13.71600      12.25000       7.59260       6.13450       2.14170      53.56920     130.74390       9.60000
     651.50000      -0.46409      83.73940      13.75270      12.25000       7.74030       5.88930       2.14660      52.54370     140.08990       9.60000
     652.00000      -0.40275      83.79470      14.00240      12.25000       7.16830       5.65380       2.13710      52.34510     141.91660       9.60000
     652.50000      -0.38482      83.85000      14.25210      12.25000       7.00400       5.71750       2.11350      52.20010     145.73190       9.60000
     653.00000      -0.36698      84.19690      14.41310      12.25000       7.25380       5.92930       2.08990      53.74290     145.99809       9.60000
     653.50000      -0.27135      84.62860      14.54720      12.25000       8.21140       6.21540       2.07360      55.83620     145.30431       9.60000
     654.00000       0.07699      85.06020      13.30300      12.25000       9.09090       6.86450       2.09950      57.11370     142.67050       9.60000
     654.50000       0.30112      85.47310      12.57570      12.25000       9.50240       7.45060       2.15070      55.89280     138.78070       9.60000
     655.00000       0.23555      85.87270      12.67710      12.25000       9.08730       7.21080       2.18180      54.00460     136.37421       9.60000
     655.50000       0.00689      86.27240      12.98960      12.25000       8.15010       6.47260       2.16310      53.35500     133.96770       9.60000
     656.00000       0.59192      87.15780      13.32970      12.25000       7.59110       6.06730       2.14440      53.36120     134.01790       9.60000
     656.50000       0.06226      88.23150      13.66980      12.25000       7.07040       5.80840       2.12570      53.62780     136.39650       9.60000
     657.00000      -0.13421      89.30530      14.01000      12.25000       6.93350       5.83660       2.13120      53.85950     138.77499       9.60000
     657.50000      -0.32417      90.33010      14.21800      12.25000       6.99640       5.75380       2.16270      52.86030     142.13721       9.60000
     658.00000      -0.38734      91.33390      13.29330      12.25000       7.61060       5.94080       2.19920      50.70130     144.42740       9.60000
     658.50000      -0.90970      92.19820      12.96110      12.25000       8.27880       6.28400       2.21400      49.64460     142.92790       9.60000
     659.00000      -0.65857      92.29610      12.80110      12.25000       8.34460       6.71770       2.21220      49.26590     141.28270       9.60000
     659.50000      -0.30334      92.26670      12.40880      12.25000       8.49060       6.91460       2.21660      47.01850     139.59250       9.60000
     660.00000       0.00000      92.13500      12.23760      12.25000       8.62230       6.81320       2.22780      44.93470     138.54460       9.60000
     660.50000      -0.06006      92.00330      12.50970      12.25000       8.31470       6.59380       2.23910      45.42070     138.71480       9.60000
     661.00000      -0.12002      91.87160      12.75840      12.25000       7.84280       6.33310       2.24950      46.46070     138.15710       9.60000
     661.50000      -0.39758      91.73990      13.00710      12.25000       7.11610       6.08260       2.24680      47.29880     139.83740       9.60000
     662.00000      -0.92774      91.60820      13.25570      12.25000       6.96060       6.02620       2.23450      48.64410     141.51770       9.60000
     662.50000      -1.42850      91.47650      13.33520      12.25000       7.17700       6.11820       2.22120      51.25220     143.19800       9.60000
     663.00000      -1.48796      91.34470      13.40540      12.25000       7.42210       6.21160       2.20800      53.01870     139.23090       9.60000
     663.50000      -1.58592      91.14620      13.42100      12.25000       7.63470       6.39980       2.19470      51.00630     135.78050       9.60000
     664.00000      -1.63268      90.30450      13.09600      12.25000       7.73840       6.64020       2.18330      49.41390     132.33009       9.60000
     664.50000      -1.56934      89.31430      12.65090      12.25000       7.81900       6.90590       2.18550      51.13710     130.10370       9.60000
     665.00000      -1.50190      88.42540      12.66140      12.25000       7.71260       7.18230       2.19370      50.71200     134.57990       9.60000
     665.50000      -1.41996      87.53660      12.89430      12.25000       7.43060       6.81460       2.20390      50.45690     139.05600       9.60000
     666.00000      -1.40282      86.64770      12.94220      12.25000       7.35640       6.39460       2.21410      50.97390     144.38620       9.60000
     666.50000      -1.44098      85.75890      12.70580      12.25000       7.40670       6.18030       2.22420      51.64510     144.73109       9.60000
