~VERSION INFORMATION
VERS.      2.0   :CWLS LOG ASCII STANDARD--VERSION 2.0
WRAP.      NO    :ONE LINE PER DEPTH STEP
~WELL INFORMATION
#MNEM.UNIT              DATA          DESCRIPTION
#================================================
STRT.FT                         43.00000 :START DEPTH
STOP.FT                       4015.00000 :STOP DEPTH
STEP.FT                          0.50000 :STEP
NULL.                         -999.00000 :NULL VALUE
COMP.   Data output from TerraStation II         : COMPANY
WELL.   Tulageak 1                               : WELL NAME
UWI.    50-023-20018                             : WELL UWI
API.    50-023-20018                             : WELL API
LOC.    7 21N 14W                                : WELL LOCATION
DATE.   NorthSlope.W06                           : WELL DATE
FLD.    No Project Selected                      : Project NAME
~CURVE INFORMATION
#================================================
M__DEPTH.FT                  :M__DEPTH
SP      .MV                  :SP
GR      .GAPI                :GR
CALI    .IN                  :CALI
BitSize .IN                  :BitSize
LLD     .OHMM                :LLD
LLS     .OHMM                :LLS
RHOB    .G/CC                :RHOB
NPHI    .%                   :NPHI
DT      .US/F                :DT
MudWgt  .LBS/GAL             :MudWgt
~PARAMETER INFORMATION
#================================================
~OTHER INFORMATION
#================================================
~A
# ...
    2695.00000     -10.04089     109.24050      12.48950      12.25000       5.34990       6.38850       2.46000      45.04310     102.94280      10.00000
    2695.50000     -10.20626     108.89880      12.49210      12.25000       5.23360       6.26950       2.45300      45.83180     103.54060      10.00000
    2696.00000     -10.06553     105.87400      12.49480      12.25000       5.11980       6.26870       2.44610      45.24220     103.86660      10.00000
    2696.50000     -10.04811     102.56820      12.49740      12.25000       5.00850       6.26800       2.44850      44.44140     104.19260      10.00000
    2697.00000      -9.92367      98.56940      12.50010      12.25000       5.11070       6.33480       2.46330      43.38120     104.51370      10.00000
    2697.50000      -9.62245      95.38640      12.49570      12.25000       5.25290       6.55370       2.46940      43.01940     105.25350      10.00000
    2698.00000      -9.45472      51.67840      12.49750      12.25000       5.39910       6.70760       2.47100      43.43010     105.92950      10.00000
    2698.50000      -9.31629      52.12260      12.50030      12.25000       5.52790       6.81880       2.47290      43.84090     106.32150      10.00000
    2699.00000      -9.24966      52.56680      12.51090      12.25000       5.45250       6.56380       2.47820      44.30910     106.18110      10.00000
    2699.50000      -9.38503      52.68600      12.54180      12.25000       5.37810       6.43860       2.49360      45.31680     105.82540      10.00000
    2700.00000      -9.51490      52.66510      12.57290      12.25000       5.30470       6.53070       2.50020      46.32460     104.65380      10.00000
    2700.50000      -9.57867      52.64420      12.60400      12.25000       5.23230       6.67080       2.48860      47.33240     104.08540      10.00000
    2701.00000      -9.41035      52.43350      12.63510      12.25000       5.16090       6.73090       2.46890      47.11550     104.95990      10.00000
    2701.50000      -9.05752      51.66900      12.66620      12.25000       5.19030       6.70450       2.46240      45.90350     105.68350      10.00000
    2702.00000      -8.84029      50.61760      12.69730      12.25000       5.23020       6.66560       2.46750      44.44330     104.54390      10.00000
    2702.50000      -8.84427      50.40520      12.64430      12.25000       5.27040       6.66750       2.48120      43.58010     103.40430      10.00000
    2703.00000      -8.49863      50.66130      12.61440      12.25000       5.31090       6.77050       2.49920      42.88650     102.26510      10.00000
    2703.50000      -8.51801      50.08040      12.61580      12.25000       5.35170       6.82320       2.49140      43.35730     101.78720      10.00000
    2704.00000      -8.79208      50.06840      12.62740      12.25000       5.38760       6.84900       2.47750      44.68400     101.71410      10.00000
    2704.50000      -8.86965      50.02520      12.62710      12.25000       5.40440       6.81340       2.48300      44.87410     101.71660      10.00000
    2705.00000      -8.92232      49.90360      12.65400      12.25000       5.42120       6.88130       2.49190      45.05370     102.03940      10.00000
    2705.50000      -8.77189      49.81170      12.74290      12.25000       5.43810       7.01780       2.50080      45.16870     102.54080      10.00000
    2706.00000      -9.01317      50.19900      12.63170      12.25000       5.75340       7.22460       2.45800      44.43940     102.89210      10.00000
    2706.50000      -9.17444      50.27640      12.59310      12.25000       6.12620       7.34440       2.45890    -999.00000     103.09480      10.00000
    2707.00000      -8.88771      50.58870      12.58960      12.25000       5.99010       7.34610       2.47220    -999.00000     102.57140      10.00000
    2707.50000      -8.37018      50.81540      12.57190      12.25000       5.69630       7.14950       2.47730    -999.00000     102.19830      10.00000
    2708.00000      -7.82485      50.58620      12.56620      12.25000       5.41690       6.78020       2.47060      48.63060     101.94140      10.00000
    2708.50000      -7.51382      51.18680      12.56670      12.25000       5.15120       6.14540       2.47220      49.14750     102.04380      10.00000
    2709.00000      -7.54980      52.19300      12.56170      12.25000       4.89850       6.06660       2.53140      49.87770     102.28370      10.00000
    2709.50000      -7.64807      52.14580      12.56320      12.25000       4.65830       6.01560       2.48850      50.60190     102.41730      10.00000
    2710.00000      -7.53354      52.33910      12.55030      12.25000       4.67720       6.11450       2.45360      51.51190     102.89170      10.00000
    2710.50000      -7.30411      53.70450      12.53530      12.25000       4.87460       6.28400       2.43700      51.88150     103.13640      10.00000
    2711.00000      -6.97158      56.00420      12.51940      12.25000       5.08020       6.53230       2.44310      51.58330     103.11250      10.00000
    2711.50000      -6.57656      59.28130      12.50820      12.25000       5.29460       6.81750       2.43920      51.05660     103.18650      10.00000
    2712.00000      -6.21183      64.17350      12.50220      12.25000       5.51790       6.84850       2.42800      49.88230     103.90210      10.00000
    2712.50000      -5.92200      70.34190      12.51690      12.25000       5.55720       6.83350       2.45030      48.80540     103.45150      10.00000
    2713.00000      -5.75217      74.79630      12.52570      12.25000       5.56160       6.81990       2.47180      47.33100     103.21870      10.00000
    2713.50000      -5.46964      76.51020      12.51350      12.25000       5.56600       6.80350       2.48560      46.28840     102.12850      10.00000
    2714.00000    -999.00000      75.91720      12.49740      12.25000       5.57040       6.79500       2.50650      45.01930     101.44430      10.00000
    2714.50000    -999.00000      74.20860      12.49270      12.25000    -999.00000    -999.00000       2.50340      42.59410     101.31110      10.00000
    2715.00000    -999.00000      72.70130      12.47340      12.25000      38.28900       8.57140       2.47540      41.20010     101.88870      10.00000
    2715.50000      -5.44929      72.46130      12.44170      12.25000      14.65930       7.13310       2.47220      39.75400     102.64880      10.00000
    2716.00000      -4.64685      72.02960      12.44000      12.25000       9.22610       6.07560       2.48370      40.37620     103.21030      10.00000
    2716.50000      -4.66042      72.97860      12.42570      12.25000      11.42500       5.62620       2.49760      41.39710     103.40520      10.00000
    2717.00000      -5.04468      74.89220      12.41320      12.25000      13.86620       6.04780       2.51030      44.60100     106.06350      10.00000
    2717.50000      -5.42894      76.57970      12.40250      12.25000      17.13160       6.43400       2.52140      46.48170     106.70310      10.00000
    2718.00000      -4.45157      77.34960      12.40760      12.25000      54.44250       6.84470       2.54990      45.97790     104.51850      10.00000
    2718.50000      -3.65271      77.98750      12.41020      12.25000      38.03200       7.28170       2.53220      44.59680     102.53280      10.00000
    2719.00000      -2.87065      77.30730      12.40240      12.25000      24.56480       7.19050       2.50110      43.63980     101.95420      10.00000
    2719.50000      -1.98019      76.01750      12.39540      12.25000      24.06010       7.07380       2.50380      44.14800     101.11950      10.00000
    2720.00000      -1.26874      73.72130      12.39650      12.25000      12.92490       6.84520       2.50500      44.58680     103.75970      10.00000
    2720.50000      -0.91908      74.48700      12.39700      12.25000      10.14650       6.65840       2.48960      44.84780     102.04640      10.00000
