~VERSION INFORMATION
VERS.      2.0   :CWLS LOG ASCII STANDARD--VERSION 2.0
WRAP.      NO    :ONE LINE PER DEPTH STEP
~WELL INFORMATION
#MNEM.UNIT              DATA          DESCRIPTION
#================================================
STRT.FT                         43.00000 :START DEPTH
STOP.FT                       4015.00000 :STOP DEPTH
STEP.FT                          0.50000 :STEP
NULL.                         -999.00000 :NULL VALUE
COMP.   Data output from TerraStation II         : COMPANY
WELL.   Tulageak 1                               : WELL NAME
UWI.    50-023-20018                             : WELL UWI
API.    50-023-20018                             : WELL API
LOC.    7 21N 14W                                : WELL LOCATION
DATE.   NorthSlope.W06                           : WELL DATE
FLD.    No Project Selected                      : Project NAME
~CURVE INFORMATION
#================================================
M__DEPTH.FT                  :M__DEPTH
SP      .MV                  :SP
GR      .GAPI                :GR
CALI    .IN                  :CALI
BitSize .IN                  :BitSize
LLD     .OHMM                :LLD
LLS     .OHMM                :LLS
RHOB    .G/CC                :RHOB
NPHI    .%                   :NPHI
DT      .US/F                :DT
MudWgt  .LBS/GAL             :MudWgt
~PARAMETER INFORMATION
#================================================
~OTHER INFORMATION
#================================================
~A
# ...
     121.00000    -999.00000    -999.00000    -999.00000      12.25000      72.17740      42.61420    -999.00000    -999.00000    -999.00000       9.60000
     121.50000    -999.00000    -999.00000    -999.00000      12.25000      80.68350      43.83530    -999.00000    -999.00000    -999.00000       9.60000
     122.00000    -999.00000    -999.00000    -999.00000      12.25000      95.65420      45.80080    -999.00000    -999.00000    -999.00000       9.60000
     122.50000    -999.00000    -999.00000    -999.00000      12.25000     111.12830      47.25470    -999.00000    -999.00000    -999.00000       9.60000
     123.00000    -999.00000    -999.00000    -999.00000      12.25000     132.57001      48.17840    -999.00000    -999.00000    -999.00000       9.60000
     123.50000    -999.00000    -999.00000    -999.00000      12.25000     146.61169      48.88060    -999.00000    -999.00000    -999.00000       9.60000
     124.00000    -999.00000    -999.00000    -999.00000      12.25000     157.14700      49.62240    -999.00000    -999.00000    -999.00000       9.60000
     124.50000    -999.00000    -999.00000    -999.00000      12.25000     161.38170      50.84300    -999.00000    -999.00000    -999.00000       9.60000
     125.00000    -999.00000    -999.00000    -999.00000      12.25000     168.59061      52.47150    -999.00000    -999.00000    -999.00000       9.60000
     125.50000    -999.00000    -999.00000    -999.00000      12.25000     184.38631      52.29440    -999.00000    -999.00000    -999.00000       9.60000
     126.00000    -999.00000    -999.00000    -999.00000      12.25000     190.32790      49.89530    -999.00000    -999.00000    -999.00000       9.60000
     126.50000    -999.00000    -999.00000    -999.00000      12.25000     165.73790      45.54680    -999.00000    -999.00000    -999.00000       9.60000
     127.00000    -999.00000    -999.00000    -999.00000      12.25000     149.67880      43.28980    -999.00000    -999.00000    -999.00000       9.60000
     127.50000    -999.00000    -999.00000    -999.00000      12.25000     136.11790      43.11040    -999.00000    -999.00000    -999.00000       9.60000
     128.00000    -999.00000    -999.00000    -999.00000      12.25000     131.95880      42.53560    -999.00000    -999.00000    -999.00000       9.60000
     128.50000    -999.00000    -999.00000    -999.00000      12.25000     138.93050      46.39350    -999.00000    -999.00000    -999.00000       9.60000
     129.00000    -999.00000    -999.00000    -999.00000      12.25000     146.27060      46.95260    -999.00000    -999.00000    -999.00000       9.60000
     129.50000    -999.00000    -999.00000    -999.00000      12.25000     155.07230      46.38250    -999.00000    -999.00000    -999.00000       9.60000
     130.00000    -999.00000    -999.00000    -999.00000      12.25000     176.67110      45.29900    -999.00000    -999.00000    -999.00000       9.60000
     130.50000    -999.00000    -999.00000    -999.00000      12.25000     200.87959      46.51530       2.24920    -999.00000    -999.00000       9.60000
     131.00000    -999.00000    -999.00000      14.99530      12.25000     198.73779      46.84970       2.24850    -999.00000    -999.00000       9.60000
     131.50000    -999.00000      82.21430      15.02730      12.25000     186.48560      47.88560       2.25050    -999.00000    -999.00000       9.60000
     132.00000    -999.00000      81.69610      15.04650      12.25000     165.23351      47.06100       2.27010    -999.00000    -999.00000       9.60000
     132.50000    -999.00000      80.61170      15.05220      12.25000     122.69880      44.05700       2.26850    -999.00000    -999.00000       9.60000
     133.00000    -999.00000      80.38040      15.03430      12.25000      94.89420      40.37220       2.26410    -999.00000    -999.00000       9.60000
     133.50000    -999.00000      81.01960      15.29210      12.25000      80.58630      36.51200       2.26170    -999.00000    -999.00000       9.60000
     134.00000    -999.00000      82.59300      15.47220      12.25000      75.31260      34.40870       2.26350    -999.00000    -999.00000       9.60000
     134.50000    -999.00000      84.19900      15.28870      12.25000      85.16690      36.24880       2.26270    -999.00000    -999.00000       9.60000
     135.00000    -999.00000      85.05310      15.29970      12.25000      98.41260      39.39010       2.26330    -999.00000    -999.00000       9.60000
     135.50000    -999.00000      85.71700      15.26280      12.25000     114.83730      43.61670       2.26800    -999.00000    -999.00000       9.60000
     136.00000    -999.00000      86.07660      15.45520      12.25000     126.79520      45.09620       2.27060    -999.00000    -999.00000       9.60000
     136.50000    -999.00000      85.31990      15.56870      12.25000     119.36270      43.99450       2.26890    -999.00000    -999.00000       9.60000
     137.00000    -999.00000      84.00750      14.93930      12.25000     108.14300      41.80820       2.26300    -999.00000    -999.00000       9.60000
     137.50000    -999.00000      83.56190      14.88890      12.25000     100.78810      40.34100       2.24000    -999.00000    -999.00000       9.60000
     138.00000    -999.00000      83.04630      14.87550      12.25000      90.51790      38.91520       2.24330    -999.00000    -999.00000       9.60000
     138.50000    -999.00000      81.26550      14.90480      12.25000      83.35180      37.38510       2.24880    -999.00000    -999.00000       9.60000
     139.00000    -999.00000      79.84590      15.38330      12.25000      78.96570      35.79940       2.24990    -999.00000    -999.00000       9.60000
     139.50000    -999.00000      78.75430      15.23210      12.25000      76.70270      34.60830       2.27070    -999.00000    -999.00000       9.60000
     140.00000    -999.00000      77.56650      15.31750      12.25000      68.33630      33.67380       2.29620    -999.00000    -999.00000       9.60000
     140.50000    -999.00000      76.67880      14.88940      12.25000      70.97550      33.12380       2.30730    -999.00000    -999.00000       9.60000
     141.00000    -999.00000      76.60950      14.67500      12.25000      72.20700      33.21180       2.29710    -999.00000    -999.00000       9.60000
     141.50000    -999.00000      77.16230      14.99100      12.25000      75.78300      34.00610       2.28560    -999.00000    -999.00000       9.60000
     142.00000    -999.00000      78.80220      14.58360      12.25000      88.52850      34.99490       2.26880    -999.00000    -999.00000       9.60000
     142.50000    -999.00000      79.58650      14.60110      12.25000      80.23530      35.16620       2.28000    -999.00000    -999.00000       9.60000
     143.00000    -999.00000      80.08060      15.06950      12.25000      73.07720      33.48340       2.29180    -999.00000    -999.00000       9.60000
     143.50000    -999.00000      80.25130      14.61250      12.25000      67.31630      31.84450       2.28900    -999.00000    -999.00000       9.60000
     144.00000    -999.00000      79.77410      15.04380      12.25000      61.88690      31.48730       2.27750    -999.00000    -999.00000       9.60000
     144.50000    -999.00000      79.04300      15.36900      12.25000      58.53240      31.18600       2.26170    -999.00000    -999.00000       9.60000
     145.00000    -999.00000      79.46730      14.51000      12.25000      65.71510      31.67850       2.26120    -999.00000    -999.00000       9.60000
     145.50000    -999.00000      79.89160      14.93350      12.25000      73.11750      33.00100       2.26090    -999.00000    -999.00000       9.60000
     146.00000    -999.00000      80.31590      15.02740      12.25000      78.00110      34.25220       2.25770    -999.00000    -999.00000       9.60000
     146.50000    -999.00000      80.74020      14.49500      12.25000      83.19640      35.05380       2.25010    -999.00000    -999.00000       9.60000
