~VERSION INFORMATION
VERS.      2.0   :CWLS LOG ASCII STANDARD--VERSION 2.0
WRAP.      NO    :ONE LINE PER DEPTH STEP
~WELL INFORMATION
#MNEM.UNIT              DATA          DESCRIPTION
#================================================
STRT.FT                         43.00000 :START DEPTH
STOP.FT                       4015.00000 :STOP DEPTH
STEP.FT                          0.50000 :STEP
NULL.                         -999.00000 :NULL VALUE
COMP.   Data output from TerraStation II         : COMPANY
WELL.   Tulageak 1                               : WELL NAME
UWI.    50-023-20018                             : WELL UWI
API.    50-023-20018                             : WELL API
LOC.    7 21N 14W                                : WELL LOCATION
DATE.   NorthSlope.W06                           : WELL DATE
FLD.    No Project Selected                      : Project NAME
~CURVE INFORMATION
#================================================
M__DEPTH.FT                  :M__DEPTH
SP      .MV                  :SP
GR      .GAPI                :GR
CALI    .IN                  :CALI
BitSize .IN                  :BitSize
LLD     .OHMM                :LLD
LLS     .OHMM                :LLS
RHOB    .G/CC                :RHOB
NPHI    .%                   :NPHI
DT      .US/F                :DT
MudWgt  .LBS/GAL             :MudWgt
~PARAMETER INFORMATION
#================================================
~OTHER INFORMATION
#================================================
~A
# ...
    1915.00000      -2.14687      86.02810      11.82700      12.25000       7.64380       8.85140       2.41880      40.86490     106.35970      10.10000
    1915.50000      -2.61413      87.39020      12.20320      12.25000       6.24990       6.51270       2.43030      40.46690     107.17410      10.10000
    1916.00000      -3.82828      88.39310      12.55320      12.25000       5.73370       6.07500       2.46770      40.12320     105.72860      10.10000
    1916.50000      -4.97023      89.37660      12.63910      12.25000       5.73820       6.01360       2.45570      40.58440     105.29010      10.10000
    1917.00000      -5.51908      90.06780      12.67490      12.25000       6.68780       6.93590       2.46180      42.41980     106.99400      10.10000
    1917.50000      -5.98644      90.68170      12.49390      12.25000       7.01630       7.17910       2.47580      43.77230     105.28520      10.10000
    1918.00000      -6.46159      90.56860      12.57000      12.25000       6.83180       7.07040       2.45460      44.20810     103.23550      10.10000
    1918.50000      -6.08704      90.22920      12.67200      12.25000       6.34910       6.92640       2.44980      42.52700     102.42660      10.10000
    1919.00000      -6.22530      90.67360      12.68380      12.25000       5.97410       6.78530       2.45850      40.84380     101.69390      10.10000
    1919.50000      -5.88525      91.40720      12.63190      12.25000       5.99370       6.64700       2.46720      40.32300     101.13170      10.10000
    1920.00000      -5.78320      92.14250      12.57280      12.25000       6.01320       6.65180       2.47250      40.30780     102.48420      10.10000
    1920.50000      -5.40746      92.21110      12.52290      12.25000       6.02720       6.76050       2.45450      40.33130     105.25300      10.10000
    1921.00000      -5.21581      92.63940      12.47870      12.25000       6.04860       6.87090       2.43640      39.91590     107.07290      10.10000
    1921.50000      -5.05626      93.15190      12.46150      12.25000       6.09180       6.91810       2.43090      40.04830     109.23850      10.10000
    1922.00000      -5.01212      92.70990      12.41990      12.25000       6.13520       6.77620       2.45370      42.42000     107.76640      10.10000
    1922.50000      -5.12177      92.25480      12.59080      12.25000       6.23990       6.63710       2.47520      44.24740     106.00510      10.10000
    1923.00000      -5.41302      92.61900      12.68170      12.25000       6.34670       6.94400       2.48440      45.39070     105.70840      10.10000
    1923.50000      -5.64817      92.83430      12.70650      12.25000       6.45530       7.32420       2.50530      45.29820     107.14780      10.10000
    1924.00000      -5.95773      93.27160      12.73560      12.25000       6.58590       7.29710       2.49480      44.36100     108.59870      10.10000
    1924.50000      -5.98828      91.62340      12.77010      12.25000       6.77380       7.22050       2.47310      44.29310     108.26580      10.10000
    1925.00000      -6.02943      92.07690      12.79530      12.25000       6.72530       7.14460       2.46640      44.90300     112.24660      10.10000
    1925.50000      -5.88809      92.67890      12.78100      12.25000       6.59500       7.21450       2.44080      45.69810     107.87860      10.10000
    1926.00000      -6.46204      93.28090      12.74940      12.25000       6.49560       7.33060       2.43220      46.24330     107.76700      10.10000
    1926.50000      -7.03169      93.88280      12.71850      12.25000       6.77900       7.44910       2.42250      45.66380     108.65980      10.10000
    1927.00000      -7.60135      94.12790      12.71360      12.25000       7.19180       7.80050       2.43560      43.91190     106.94390      10.10000
    1927.50000      -8.17090      93.40990      12.73820      12.25000       6.99550       7.75160       2.43930      42.71150     107.76540      10.10000
    1928.00000      -8.74055      91.67990      12.74470      12.25000       6.76840       7.46090       2.42250      42.52460     109.21120      10.10000
    1928.50000      -9.23400      90.63790      12.73390      12.25000       6.54860       7.18100       2.43040      43.54060     106.27530      10.10000
    1929.00000      -9.38056      91.08630      12.72080      12.25000       6.34720       6.91170       2.41670      44.69140     106.87920      10.10000
    1929.50000      -9.52711      91.84700      12.70440      12.25000       6.33450       6.90600       2.40750      45.22670     108.98780      10.10000
    1930.00000      -9.67367      93.18850      12.69000      12.25000       6.32180       6.88850       2.41960      45.71440     111.72680      10.10000
    1930.50000     -10.00252      94.05720      12.66290      12.25000       6.30920       6.87120       2.42820      45.95340     111.06920      10.10000
    1931.00000      -9.94867      93.86620      12.64820      12.25000       6.29660       6.94760       2.43490      46.20560     109.04690      10.10000
    1931.50000      -9.82482      93.35500      12.74850      12.25000       6.28400       7.08260       2.45050      45.92960     105.38950      10.10000
    1932.00000      -8.91858      92.84370      12.83540      12.25000       6.41820       7.24340       2.44480      45.85750      99.83250      10.10000
    1932.50000      -7.71843      92.33250      12.91420      12.25000       6.56430       7.40770       2.41770      45.05590      97.00820      10.10000
    1933.00000      -6.44948      91.77350      12.80850      12.25000       6.38210       7.07790       2.43270      42.92050      95.36170      10.10000
    1933.50000      -5.98834      90.94240      12.94540      12.25000       6.13540       6.48350       2.43250      40.12400      96.85520      10.10000
    1934.00000      -6.28709      88.78220      12.67520      12.25000       5.89830       6.28210       2.43780      38.80310      98.60010      10.10000
    1934.50000      -5.52144      85.80220      12.48000      12.25000       5.67030       6.27170       2.42580      39.25010      99.79480      10.10000
    1935.00000      -5.08609      83.87390      12.48220      12.25000       5.45110       6.42190       2.41170      39.81770     100.61930      10.10000
    1935.50000      -4.54695      83.02490      12.49180      12.25000       5.59870       6.57580       2.39980      40.30190     100.58430      10.10000
    1936.00000      -3.59400      84.16810      12.46030      12.25000       5.76120       6.73340       2.38970      41.45110      99.31270      10.10000
    1936.50000      -2.94595      85.39550      12.44460      12.25000       5.91600       6.76660       2.38970      42.78380     102.17270      10.10000
    1937.00000      -2.95341      85.74150      12.45800      12.25000       6.07070       6.89050       2.39400      42.02510     107.56200      10.10000
    1937.50000      -3.59506      85.98700      12.40590      12.25000       6.10890       7.01660       2.39830      41.14170     106.89880      10.10000
    1938.00000      -4.09961      86.61620      12.18100      12.25000       6.11820       6.96370       2.38660      41.92620     108.11310      10.10000
    1938.50000      -4.51707      86.95480      11.69570      12.25000       6.01220       6.69240       2.37630      42.26010     107.62350      10.10000
    1939.00000      -4.41962      86.74500      12.18200      12.25000       5.78580       6.40350       2.37360      41.77720     105.36510      10.10000
    1939.50000      -4.66327      86.93810      12.66830      12.25000       5.56800       6.12700       2.36760      41.46530     104.67630      10.10000
    1940.00000      -4.93273      88.82650      12.62010      12.25000       5.79310       6.46380       2.35800      42.42720     105.86450      10.10000
    1940.50000      -5.10318      90.72610      12.55790      12.25000       6.56020       7.06880       2.35210      43.69330     102.96740      10.10000
