~VERSION INFORMATION
VERS.      2.0   :CWLS LOG ASCII STANDARD--VERSION 2.0
WRAP.      NO    :ONE LINE PER DEPTH STEP
~WELL INFORMATION
#MNEM.UNIT              DATA          DESCRIPTION
#================================================
STRT.FT                         43.00000 :START DEPTH
STOP.FT                       4015.00000 :STOP DEPTH
STEP.FT                          0.50000 :STEP
NULL.                         -999.00000 :NULL VALUE
COMP.   Data output from TerraStation II         : COMPANY
WELL.   Tulageak 1                               : WELL NAME
UWI.    50-023-20018                             : WELL UWI
API.    50-023-20018                             : WELL API
LOC.    7 21N 14W                                : WELL LOCATION
DATE.   NorthSlope.W06                           : WELL DATE
FLD.    No Project Selected                      : Project NAME
~CURVE INFORMATION
#================================================
M__DEPTH.FT                  :M__DEPTH
SP      .MV                  :SP
GR      .GAPI                :GR
CALI    .IN                  :CALI
BitSize .IN                  :BitSize
LLD     .OHMM                :LLD
LLS     .OHMM                :LLS
RHOB    .G/CC                :RHOB
NPHI    .%                   :NPHI
DT      .US/F                :DT
MudWgt  .LBS/GAL             :MudWgt
~PARAMETER INFORMATION
#================================================
~OTHER INFORMATION
#================================================
~A
# ...
    3709.00000      -4.02207      71.76500       9.01540       8.50000      10.85890      12.01680       2.51440      23.90060      78.43540       9.70000
    3709.50000      -4.25619      72.47550       9.02070       8.50000      10.13380      11.64000       2.50620      24.26720      79.49610       9.70000
    3710.00000      -3.14180      74.42560       9.10320       8.50000      10.67910      11.83800       2.51970      24.95040      79.24950       9.70000
    3710.50000      -2.32891      75.52830       9.05460       8.50000      11.25380      12.12690       2.53980      25.62180      78.99810       9.70000
    3711.00000      -2.73492      75.81800       9.08650       8.50000      11.75400      12.42290       2.55730      25.85000      79.07390       9.70000
    3711.50000      -3.46814      75.98370       9.03140       8.50000      11.63360      12.72600       2.56010      26.06390      78.68340       9.70000
    3712.00000      -4.76085      75.32870       9.31860       8.50000      11.11430      12.61500       2.55280      25.42900      78.06440       9.70000
    3712.50000      -4.70586      77.07410       9.25870       8.50000      10.64810      12.24670       2.50460      24.65690      78.47420       9.70000
    3713.00000      -3.60227      80.28220       9.20870       8.50000      10.20150      11.77170       2.49000      25.25310      79.85410       9.70000
    3713.50000      -2.69818      84.35210       9.20810       8.50000      10.01340      11.32010       2.50940      25.52090      80.09580       9.70000
    3714.00000      -2.35550      87.26240       9.25680       8.50000      10.01340      10.89270       2.51530      25.41810      81.29150       9.70000
    3714.50000      -2.19771      85.42030       9.11590       8.50000      10.09850      10.63680       2.50910      25.81850      82.59080       9.70000
    3715.00000      -2.99892      83.68940       9.11430       8.50000      10.22550      10.77050       2.50070      26.13680      83.35190       9.70000
    3715.50000      -3.85053      82.52240       9.14470       8.50000      10.35270      10.98950       2.49770      26.09760      83.61740       9.70000
    3716.00000      -4.89385      80.83420       9.14160       8.50000      10.55160      11.10910       2.50550      25.61130      82.29710       9.70000
    3716.50000      -3.25717      81.92020       9.13600       8.50000      10.62910      11.17750       2.50790      24.89430      81.09720       9.70000
    3717.00000      -0.79117      81.87890       9.13040       8.50000      10.49670      11.22210       2.50640      24.17790      79.89740       9.70000
    3717.50000      -1.94839      81.03640       9.13290       8.50000      10.07570      10.77310       2.50870      23.78880      80.72140       9.70000
    3718.00000      -2.40899      83.92130       9.16400       8.50000       9.78400      10.44610       2.51580      25.15010      81.96830       9.70000
    3718.50000      -3.80081      85.20330       9.18570       8.50000      10.17090      10.85920       2.52360      26.28680      82.93230       9.70000
    3719.00000      -4.31542      86.05610       9.20750       8.50000      10.35930      10.90220       2.53140      26.65810      84.19000       9.70000
    3719.50000      -3.88544      85.86520       9.22920       8.50000      10.26560      10.80350       2.53340      26.99830      85.09880       9.70000
    3720.00000      -2.13155      83.35480       9.27650       8.50000      10.17270      10.70570       2.52330      27.40070      86.09850       9.70000
    3720.50000      -1.44606      82.27460       9.29660       8.50000      10.08070      10.60880       2.51570      29.04190      84.81920       9.70000
    3721.00000      -3.03007      82.27030       9.28140       8.50000      10.14960      10.72820       2.51240      29.39770      84.19580       9.70000
    3721.50000      -3.92019      82.91370       9.26930       8.50000      10.20020      10.72440       2.51190      28.94190      82.86470       9.70000
    3722.00000      -5.95879      84.69190       9.26330       8.50000      10.19650      10.72050       2.51480      27.82870      83.68170       9.70000
    3722.50000      -7.10300      86.19800       9.25870       8.50000      10.19280      10.71660       2.52240      27.39550      84.34170       9.70000
    3723.00000      -7.05642      86.66280       9.29940       8.50000      10.18910      10.71280       2.53190      27.70620      84.30480       9.70000
    3723.50000      -7.10543      86.22960       9.31850       8.50000      10.22610      10.75520       2.54940      28.12650      84.20020       9.70000
    3724.00000      -6.58265      83.58220       9.30440       8.50000      10.35820      10.95040       2.56560      28.38190      82.64310       9.70000
    3724.50000      -6.12486      80.90660       9.28360       8.50000      10.67240      11.46790       2.59760      27.94180      79.86940       9.70000
    3725.00000      -5.03517      79.81830       9.28770       8.50000      11.19460      11.78470       2.61030      27.09630      78.20490       9.70000
    3725.50000      -3.52608      79.76570       9.32470       8.50000      11.28450      11.87010       2.62090      25.72320      77.24150       9.70000
    3726.00000      -1.73920      79.62720       9.48270       8.50000      11.00890      11.67830       2.57970      25.63790      79.62010       9.70000
    3726.50000      -1.32601      78.36560       9.46550       8.50000      10.67880      11.35180       2.49170      26.09220      84.39380       9.70000
    3727.00000      -2.22742      76.16930       9.48930       8.50000      10.62860      11.17770       2.48520      26.65300      85.56530       9.70000
    3727.50000      -2.15453      74.55940       9.40760       8.50000      10.52730      11.09950       2.49100      26.21670      85.50110       9.70000
    3728.00000      -1.97704      76.54740       9.44660       8.50000      10.10000      10.80660       2.51430      26.45090      84.25110       9.70000
    3728.50000      -2.09846      78.64520       9.50530       8.50000       9.77900      10.39260       2.53730      26.83890      83.00110       9.70000
    3729.00000      -2.20637      80.66780       9.48100       8.50000       9.47660      10.07120       2.56510      27.78250      81.29800       9.70000
    3729.50000      -2.30409      84.25650       9.39650       8.50000       9.18360       9.77380       2.62220      28.77880      81.24810       9.70000
    3730.00000      -2.63169      86.70690       9.37450       8.50000       8.89090       9.92680       2.70180      29.79220      84.91710       9.70000
    3730.50000      -3.09641      86.98470       9.35960       8.50000       8.63740      10.08210       2.60080      30.05280      87.72030       9.70000
    3731.00000      -4.26462      86.31770       9.27020       8.50000       8.50360      10.23990       2.46850      30.57830      89.88450       9.70000
    3731.50000      -4.56243      86.09990       9.18300       8.50000       8.72080      10.42450       2.47810      29.62060      88.57480       9.70000
    3732.00000      -6.31004      84.45220       9.18380       8.50000       9.04070      10.67020       2.50100      27.97060      86.55140       9.70000
    3732.50000      -7.54976      81.91370       9.17410       8.50000       9.16980      10.82020       2.50370      26.97040      84.14910       9.70000
    3733.00000      -7.70827      77.16630       9.13510       8.50000       9.27870      10.82310       2.50390      26.95980      85.08460       9.70000
    3733.50000      -7.92908      72.57380       9.15670       8.50000       9.38310      10.57380       2.50110      27.35280      84.97340       9.70000
    3734.00000      -8.14989      70.75420       9.16170       8.50000       9.48860      10.33030       2.49570      27.36220      83.43840       9.70000
    3734.50000      -8.37070      70.53620       9.14300       8.50000       9.44760       9.98770       2.49060      26.77530      81.46470       9.70000
