~VERSION INFORMATION
VERS.      2.0   :CWLS LOG ASCII STANDARD--VERSION 2.0
WRAP.      NO    :ONE LINE PER DEPTH STEP
~WELL INFORMATION
#MNEM.UNIT              DATA          DESCRIPTION
#================================================
STRT.FT                         43.00000 :START DEPTH
STOP.FT                       4015.00000 :STOP DEPTH
STEP.FT                          0.50000 :STEP
NULL.                         -999.00000 :NULL VALUE
COMP.   Data output from TerraStation II         : COMPANY
WELL.   Tulageak 1                               : WELL NAME
UWI.    50-023-20018                             : WELL UWI
API.    50-023-20018                             : WELL API
LOC.    7 21N 14W                                : WELL LOCATION
DATE.   NorthSlope.W06                           : WELL DATE
FLD.    No Project Selected                      : Project NAME
~CURVE INFORMATION
#================================================
M__DEPTH.FT                  :M__DEPTH
SP      .MV                  :SP
GR      .GAPI                :GR
CALI    .IN                  :CALI
BitSize .IN                  :BitSize
LLD     .OHMM                :LLD
LLS     .OHMM                :LLS
RHOB    .G/CC                :RHOB
NPHI    .%                   :NPHI
DT      .US/F                :DT
MudWgt  .LBS/GAL             :MudWgt
~PARAMETER INFORMATION
#================================================
~OTHER INFORMATION
#================================================
~A
# ...
    2175.00000     -19.81206      96.53390      12.81480      12.25000       7.02840       7.64440       2.51330      42.89030     102.43900      10.00000
    2175.50000     -20.01011      95.49300      12.77940      12.25000       6.94160       7.64220       2.51260      43.26700     101.94670      10.00000
    2176.00000     -20.03097      94.36790      12.72390      12.25000       6.85590       7.64000       2.49500      43.73470     101.34560      10.00000
    2176.50000     -19.96472      93.68420      12.71940      12.25000       6.89570       7.63780       2.51090      44.09350     100.74440      10.00000
    2177.00000     -19.89857      92.40640      12.74760      12.25000       6.95090       7.63550       2.51540      43.17480     100.35440      10.00000
    2177.50000     -19.83232      91.38300      12.72450      12.25000       7.00650       7.63940       2.52470      42.24860     100.09090      10.00000
    2178.00000     -19.76618      90.88320      12.71310      12.25000       7.10690       7.67210       2.53750      42.48600      99.96200      10.00000
    2178.50000     -19.69993      90.67970      12.71200      12.25000       7.30270       7.70500       2.53190      42.96310      99.87590      10.00000
    2179.00000     -19.63379      91.10530      12.71080      12.25000       7.40940       7.73800       2.51230      42.60240      99.74900      10.00000
    2179.50000     -19.64874      92.18140      12.71900      12.25000       7.37130       7.77120       2.49360      41.40260      99.05860      10.00000
    2180.00000     -19.69359      95.84530      12.73210      12.25000       7.33340       7.80450       2.48380      41.50090      99.10390      10.00000
    2180.50000     -19.73845      97.57450      12.74760      12.25000       7.29570       7.83790       2.48780      42.02640      99.70520      10.00000
    2181.00000     -19.78330      97.39250      12.74570      12.25000       7.25820       7.87150       2.49100      42.67150     100.30640      10.00000
    2181.50000     -19.82805      96.30400      12.73180      12.25000       7.22080       7.90520       2.49420      42.91670     100.90770      10.00000
    2182.00000     -19.81560      95.73650      12.74050      12.25000       7.18370       7.93910       2.50790      41.92140     100.56870      10.00000
    2182.50000     -19.78936      95.29540      12.77070      12.25000       7.14670       7.97310       2.48340      41.26960      99.76170      10.00000
    2183.00000     -19.76311      94.13780      12.77380      12.25000       7.12620       8.00730       2.47240      42.51670      98.95480      10.00000
    2183.50000     -19.73686      92.15610      12.78290      12.25000       7.12620       8.02910       2.47960      43.51860      99.03230      10.00000
    2184.00000     -19.71062      90.92210      12.79310      12.25000       7.12620       7.97250       2.48260      43.69920      99.85720      10.00000
    2184.50000     -19.68437      90.03490      12.78400      12.25000       7.12620       7.91630       2.47470      42.93280     100.62050      10.00000
    2185.00000     -19.65812      89.24550      12.77060      12.25000       7.12620       7.86090       2.45030      42.15550      99.45540      10.00000
    2185.50000     -19.63188      88.37630      12.78250      12.25000       7.12620       7.82750       2.46240      41.59110      99.69510      10.00000
    2186.00000     -19.60563      87.52310      12.77640      12.25000       7.12620       7.79420       2.48230      41.24160      99.79370      10.00000
    2186.50000     -19.57938      88.29570      12.77340      12.25000       7.12620       7.76100       2.48450      41.37680     100.69130      10.00000
    2187.00000     -19.41193      89.16410      12.75690      12.25000       7.15710       7.78940       2.50470      41.57870      99.98040      10.00000
    2187.50000     -19.24319      90.13780      12.79960      12.25000       7.26740       7.86460       2.50720      41.74920      99.91240      10.00000
    2188.00000     -19.07444      91.44460      12.80160      12.25000       7.37930       7.94060       2.50780      41.91970      99.92430      10.00000
    2188.50000     -18.90569      92.10730      12.89300      12.25000       7.49300       8.01730       2.50780      44.28120      99.85760      10.00000
    2189.00000     -18.76155      92.24620      12.93840      12.25000       7.60840       8.09470       2.50610      45.43580      99.80940      10.00000
    2189.50000     -18.88410      93.33300      12.84790      12.25000       7.72560       8.07930       2.48560      45.83140      98.91360      10.00000
    2190.00000     -19.00675      94.29100      12.79940      12.25000       7.54210       8.06210       2.46490      45.31740      98.75390      10.00000
    2190.50000     -19.12941      94.50390      12.83470      12.25000       7.33750       8.04500       2.47530      45.15110     106.00002      10.00000
    2191.00000     -19.25196      93.92760      12.87210      12.25000       7.13860       8.03690       2.48060      45.08370     109.60005      10.00000
    2191.50000     -19.37461      92.87210      12.82280      12.25000       7.02250       8.03690       2.47390      44.76730     113.20001      10.00000
    2192.00000     -19.49727      93.09390      12.76660      12.25000       7.24010       8.03690       2.45940      44.25410     111.40003      10.00000
    2192.50000     -19.61982      93.26430      12.78270      12.25000       7.46440       8.03690       2.45360      43.78220     109.60005      10.00000
    2193.00000     -19.76417      92.94160      12.76200      12.25000       7.65800       8.03690       2.46390      44.23270     111.40003      10.00000
    2193.50000     -19.94542      92.46420      12.75410      12.25000       7.62620       8.03690       2.47890      45.34690     113.20001      10.00000
    2194.00000     -20.12668      91.47550      12.78410      12.25000       7.59460       7.97230       2.49390      45.62420     113.20001      10.00000
    2194.50000     -20.30793      90.58400      12.88730      12.25000       7.48730       7.90410       2.50900      43.60780     109.60005      10.00000
    2195.00000     -20.48918      89.88490      13.03030      12.25000       7.38320       7.89870       2.52250      41.32240     106.00002      10.00000
    2195.50000     -21.21064      89.49620      13.04580      12.25000       7.43820       7.96820       2.53590      40.41580     109.60005      10.00000
    2196.00000     -21.97639      88.92540      12.93750      12.25000       7.45760       8.03820       2.53670      39.67370     114.40004      10.00000
    2196.50000     -22.49164      87.78950      12.78790      12.25000       7.45610       8.08780       2.52200      38.99860     124.00003      10.00000
    2197.00000     -22.20430      87.99180      12.92650      12.25000       7.49310       8.13230       2.51470      39.63550     123.40002      10.00000
    2197.50000     -21.91685      88.86660      12.92750      12.25000       7.53170       8.17710       2.51330      41.09580     122.80000      10.00000
    2198.00000     -21.62950      89.18650      12.85150      12.25000       7.57060       8.22210       2.50920      41.98600     117.39999      10.00000
    2198.50000     -21.34205      89.78060      12.77580      12.25000       7.60450       8.26740       2.50590      42.50280     112.00005      10.00000
    2199.00000     -21.05471      90.00500      12.76850      12.25000       7.61510       8.31290       2.50190      42.54130     109.60005      10.00000
    2199.50000     -21.06116      90.82490      12.73650      12.25000       7.62580       8.35730       2.49600      41.64210     109.60005      10.00000
    2200.00000     -21.08722      91.52780      12.75980      12.25000       7.63640       8.40070       2.47550      40.92830     110.50002      10.00000
    2200.50000     -21.11337      90.87140      12.78500      12.25000       7.64710       8.43120       2.46710      40.21450     111.40003      10.00000
