~VERSION INFORMATION
VERS.      2.0   :CWLS LOG ASCII STANDARD--VERSION 2.0
WRAP.      NO    :ONE LINE PER DEPTH STEP
~WELL INFORMATION
#MNEM.UNIT              DATA          DESCRIPTION
#================================================
STRT.FT                         43.00000 :START DEPTH
STOP.FT                       4015.00000 :STOP DEPTH
STEP.FT                          0.50000 :STEP
NULL.                         -999.00000 :NULL VALUE
COMP.   Data output from TerraStation II         : COMPANY
WELL.   Tulageak 1                               : WELL NAME
UWI.    50-023-20018                             : WELL UWI
API.    50-023-20018                             : WELL API
LOC.    7 21N 14W                                : WELL LOCATION
DATE.   NorthSlope.W06                           : WELL DATE
FLD.    No Project Selected                      : Project NAME
~CURVE INFORMATION
#================================================
M__DEPTH.FT                  :M__DEPTH
SP      .MV                  :SP
GR      .GAPI                :GR
CALI    .IN                  :CALI
BitSize .IN                  :BitSize
LLD     .OHMM                :LLD
LLS     .OHMM                :LLS
RHOB    .G/CC                :RHOB
NPHI    .%                   :NPHI
DT      .US/F                :DT
MudWgt  .LBS/GAL             :MudWgt
~PARAMETER INFORMATION
#================================================
~OTHER INFORMATION
#================================================
~A
# ...
    1395.00000      -3.64926      87.61050      12.70420      12.25000       6.88270       7.18370       2.35000      50.42470     117.36350      10.10000
    1395.50000      -3.79637      90.56460      12.73700      12.25000       6.93670       7.22760       2.33260      49.52850     121.90000      10.10000
    1396.00000      -3.88248      93.51860      13.49450      12.25000       6.99110       7.28430       2.29930      48.71220     120.09980      10.10000
    1396.50000      -3.94590      96.48730      14.27690      12.25000       7.04590       7.34140       2.27090      48.89100     116.37000      10.10000
    1397.00000      -3.84511      99.55470      13.79620      12.25000       6.72200       7.12210       2.26380      49.29680     114.00770      10.10000
    1397.50000      -3.84872     100.99380      12.71280      12.25000       6.54550       6.86830       2.29120      49.48430     116.45180      10.10000
    1398.00000      -3.80104     100.18130      12.92840      12.25000       6.28870       6.63400       2.32750      49.53710     121.01310      10.10000
    1398.50000      -3.73325      97.20620      13.22610      12.25000       6.12650       6.43290       2.34870      49.06410     125.40210      10.10000
    1399.00000      -3.68007      93.19560      13.27830      12.25000       6.23660       6.51900       2.30770      48.53220     119.93990      10.10000
    1399.50000      -3.78518      91.51900      13.19940      12.25000       6.15170       6.42900       2.29940      47.95270     115.57320      10.10000
    1400.00000      -3.89019      90.50460      12.86630      12.25000       6.04430       6.31210       2.28980      48.03900     110.77600      10.10000
    1400.50000      -3.99531      89.49020      13.16680      12.25000       5.93870       6.20190       2.26880      48.20470     105.71400      10.10000
    1401.00000      -4.10032      88.72320      13.66610      12.25000       5.83500       6.09370       2.27950      46.97380     106.59530      10.10000
    1401.50000      -4.26964      88.05750      13.66330      12.25000       5.73180       5.98730       2.27450      44.60790     110.08650      10.10000
    1402.00000      -4.38585      87.68770      12.58790      12.25000       5.55080       5.83190       2.27150      43.31020     113.07680      10.10000
    1402.50000      -4.21526      87.57160      12.00480      12.25000       5.37550       5.64770       2.28210      42.64250     113.29220      10.10000
    1403.00000      -3.95928      87.52510      12.03400      12.25000       5.22110       5.46620       2.35320      42.76550     118.32020      10.10000
    1403.50000      -3.74549      87.47870      12.12530      12.25000       5.22320       5.43990       2.37550      43.47240     114.69340      10.10000
    1404.00000      -3.95521      87.43220      12.19200      12.25000       5.24270       5.46020       2.37230      44.48640     111.69920      10.10000
    1404.50000      -4.32392      88.28060      12.16090      12.25000       5.34180       5.68550       2.36010      45.50030     114.93160      10.10000
    1405.00000      -4.74583      87.83870      12.30580      12.25000       5.51080       5.82310       2.35590      45.46860     115.98730      10.10000
    1405.50000      -4.80215      88.41400      12.69190      12.25000       5.78680       6.10220       2.33410      43.96800     112.46810      10.10000
    1406.00000      -4.70876      88.98930      12.48450      12.25000       5.93290       6.18990       2.33100      44.19530     108.67230      10.10000
    1406.50000      -4.72648      89.56460      12.35080      12.25000       5.98890       6.23750       2.33830      45.15760     110.56690      10.10000
    1407.00000      -4.79529      90.13990      12.70280      12.25000       6.07990       6.43620       2.34550      46.36870     113.84870      10.10000
    1407.50000      -4.60890      90.87290      13.15480      12.25000       6.30920       6.59660       2.34950      46.61000     119.62560      10.10000
    1408.00000      -4.15262      90.91760      13.60680      12.25000       6.44370       6.57930       2.33940      45.82950     119.18940      10.10000
    1408.50000      -3.82973      90.31350      13.51490      12.25000       6.31750       6.50620       2.32900      45.88100     112.18680      10.10000
    1409.00000      -3.36855      89.70940      12.63220      12.25000       6.19190       6.44830       2.31560      47.11840     108.93540      10.10000
    1409.50000      -2.84886      89.10540      11.93680      12.25000       6.03020       6.37230       2.32570      46.61380     103.47410      10.10000
    1410.00000      -2.36137      88.50130      12.69230      12.25000       5.67440       6.05810       2.35950      45.41160     106.48180      10.10000
    1410.50000      -1.87389      87.84340      12.99500      12.25000       5.49970       5.76440       2.35510      43.93180     109.97930      10.10000
    1411.00000      -1.68390      87.84210      12.84810      12.25000       5.45500       5.68180       2.33370      44.02590     112.97270      10.10000
    1411.50000      -1.74892      88.30500      12.72650      12.25000       5.47900       5.74230       2.35060      44.34750     119.88390      10.10000
    1412.00000      -1.79723      89.41820      12.61290      12.25000       5.66720       6.07560       2.38600      45.68930     116.72040      10.10000
    1412.50000      -1.65294      90.20160      12.52950      12.25000       5.90450       6.15940       2.36800      47.22330     113.54390      10.10000
    1413.00000      -1.50686      89.66310      12.42220      12.25000       5.96230       6.24450       2.35570      48.87910     109.31950      10.10000
    1413.50000      -0.97327      88.83610      12.45590      12.25000       5.79070       6.07540       2.35520      47.90060     105.91220      10.10000
    1414.00000      -0.40849      88.00900      12.83240      12.25000       5.46190       5.86600       2.34980      45.22960     106.08090      10.10000
    1414.50000       0.00000      87.18200      12.84560      12.25000       5.37070       5.48700       2.34170      42.55860     107.30460      10.10000
    1415.00000       0.09967      86.28120      12.48160      12.25000       5.39140       5.71420       2.34370      40.58440     109.11820      10.10000
    1415.50000      -0.11746      85.29950      12.25500      12.25000       5.67480       6.04520       2.34750      40.60760     107.45750      10.10000
    1416.00000      -0.46159      84.31780      12.10670      12.25000       5.82840       6.07040       2.37600      40.73640     109.04050      10.10000
    1416.50000      -0.68832      83.83390      11.95840      12.25000       5.87250       6.12260       2.40740      40.91550     107.37950      10.10000
    1417.00000      -0.69625      83.57190      11.88200      12.25000       5.89870       6.14270       2.42260      41.27500     107.45120      10.10000
    1417.50000      -0.68178      83.30990      11.86340      12.25000       5.84250       6.11570       2.42420      42.21770     108.30150      10.10000
    1418.00000      -0.91701      83.90950      11.86510      12.25000       5.48420       5.90380       2.42710      43.77430     107.27080      10.10000
    1418.50000      -0.81084      84.51420      12.02750      12.25000       5.41200       5.67980       2.43110      44.82350     110.31160      10.10000
    1419.00000      -0.89057      85.11880      12.15340      12.25000       5.61320       5.93840       2.43270      44.68990     113.51910      10.10000
    1419.50000      -0.99940      85.66000      12.18420      12.25000       5.81860       6.08780       2.42140      43.07050     115.61370      10.10000
    1420.00000      -1.20523      87.67580      12.10450      12.25000       5.99610       6.31300       2.41390      42.84850     120.45650      10.10000
    1420.50000      -1.16716      89.35780      12.01530      12.25000       6.18290       6.45090       2.40640      45.84630     120.04830      10.10000
