~VERSION INFORMATION
VERS.      2.0   :CWLS LOG ASCII STANDARD--VERSION 2.0
WRAP.      NO    :ONE LINE PER DEPTH STEP
~WELL INFORMATION
#MNEM.UNIT              DATA          DESCRIPTION
#================================================
STRT.FT                         43.00000 :START DEPTH
STOP.FT                       4015.00000 :STOP DEPTH
STEP.FT                          0.50000 :STEP
NULL.                         -999.00000 :NULL VALUE
COMP.   Data output from TerraStation II         : COMPANY
WELL.   Tulageak 1                               : WELL NAME
UWI.    50-023-20018                             : WELL UWI
API.    50-023-20018                             : WELL API
LOC.    7 21N 14W                                : WELL LOCATION
DATE.   NorthSlope.W06                           : WELL DATE
FLD.    No Project Selected                      : Project NAME
~CURVE INFORMATION
#================================================
M__DEPTH.FT                  :M__DEPTH
SP      .MV                  :SP
GR      .GAPI                :GR
CALI    .IN                  :CALI
BitSize .IN                  :BitSize
LLD     .OHMM                :LLD
LLS     .OHMM                :LLS
RHOB    .G/CC                :RHOB
NPHI    .%                   :NPHI
DT      .US/F                :DT
MudWgt  .LBS/GAL             :MudWgt
~PARAMETER INFORMATION
#================================================
~OTHER INFORMATION
#================================================
~A
# ...
    1135.00000      -3.19178      87.46480      13.81660      12.25000       6.60730       6.88090       2.33030      47.28800     117.28140      10.10000
    1135.50000      -3.67121      87.45090      13.81410      12.25000       6.62440       6.90000       2.31630      47.63900     114.38170      10.10000
    1136.00000      -3.80673      87.34660      13.80250      12.25000       6.64310       6.91930       2.29960      48.60320     117.71820      10.10000
    1136.50000      -3.85496      87.24240      13.77080      12.25000       6.61400       6.88900       2.28820      49.50190     122.45610      10.10000
    1137.00000      -3.96279      87.13820      13.68640      12.25000       6.58500       6.85870       2.31610      49.83230     129.37531      10.10000
    1137.50000      -3.89281      87.27390      13.59420      12.25000       6.55610       6.82870       2.34620      50.83560     125.83590      10.10000
    1138.00000      -3.91534      87.45250      13.56910      12.25000       6.52730       6.79870       2.33570      52.77740     119.30840      10.10000
    1138.50000      -3.90587      87.63110      13.55640      12.25000       6.49870       6.76890       2.32550      53.76680     115.39280      10.10000
    1139.00000      -3.84680      87.80970      13.64910      12.25000       6.47020       6.73920       2.29870      53.03010     115.00360      10.10000
    1139.50000      -3.85052      87.98830      13.86070      12.25000       6.44180       6.70960       2.26710      50.75480     116.64920      10.10000
    1140.00000      -3.87885      88.16680      14.06780      12.25000       6.34240       6.64100       2.27540      50.12700     119.01040      10.10000
    1140.50000      -3.90048      88.34540      13.93930      12.25000       6.18860       6.48020       2.30270      50.52740     115.83390      10.10000
    1141.00000      -3.92220      88.51110      13.66560      12.25000       6.01840       6.31410       2.32310      49.83260     114.27090      10.10000
    1141.50000      -4.06703      88.12320      13.59970      12.25000       6.04090       6.41380       2.34420      48.92610     115.96190      10.10000
    1142.00000      -4.30866      87.73530      13.64960      12.25000       6.36730       6.79030       2.36340      46.70470     118.06800      10.10000
    1142.50000      -4.44578      87.34740      13.68280      12.25000       6.61690       6.90740       2.37410      45.28940     120.27960      10.10000
    1143.00000      -4.39811      87.07160      13.66040      12.25000       6.51260       6.79860       2.38210      44.73750     120.36650      10.10000
    1143.50000      -4.15634      87.67700      13.63130      12.25000       6.40870       6.69390       2.40230      44.74020     118.73760      10.10000
    1144.00000      -3.50766      88.28240      13.70300      12.25000       6.15610       6.49740       2.37260      45.41570     120.33410      10.10000
    1144.50000      -2.74489      88.88780      13.80440      12.25000       6.13480       6.42360       2.36270      47.75650     120.20400      10.10000
    1145.00000      -2.67122      89.49320      13.90580      12.25000       6.28980       6.58590       2.35120      49.34130     119.63270      10.10000
    1145.50000      -2.69104      89.80540      14.00720      12.25000       6.44870       6.75220       2.33610      50.55810     120.00520      10.10000
    1146.00000      -2.68707      89.65160      13.98590      12.25000       6.61150       6.92280       2.32280      49.36580     116.57490      10.10000
    1146.50000      -2.68320      89.49790      13.96040      12.25000       6.59460       6.91650       2.31950      46.87740     118.74820      10.10000
    1147.00000      -2.78652      89.34410      13.95850      12.25000       6.41120       6.72420       2.32850      45.60240     116.47080      10.10000
    1147.50000      -2.80555      89.19040      13.99590      12.25000       6.23290       6.53720       2.32390      44.61940     117.19120      10.10000
    1148.00000      -3.06448      89.17710      14.17100      12.25000       6.05960       6.35550       2.31940      44.55530     119.08550      10.10000
    1148.50000      -3.09721      88.97800      14.26550      12.25000       6.02690       6.30870       2.32200      44.87440     117.62790      10.10000
    1149.00000      -2.91323      88.77590      14.20540      12.25000       6.17460       6.46330       2.32740      44.80920     115.01780      10.10000
    1149.50000      -2.72926      88.57390      14.13530      12.25000       6.32600       6.62170       2.33140      45.28970     112.18090      10.10000
    1150.00000      -2.54529      88.25040      14.07890      12.25000       6.48100       6.78400       2.33560      45.55600     112.09970      10.10000
    1150.50000      -2.36131      87.83970      14.04800      12.25000       6.63980       6.95020       2.33980      45.28460     113.88440      10.10000
    1151.00000      -2.17734      87.42890      13.99050      12.25000       6.73470       7.01380       2.34200      45.03460     115.64390      10.10000
    1151.50000      -2.25567      87.01330      13.86180      12.25000       6.65690       6.95860       2.33630      44.55590     119.39180      10.10000
    1152.00000      -2.34339      86.58150      13.34540      12.25000       6.52470       6.82050       2.31990      44.17530     119.20340      10.10000
    1152.50000      -2.06702      86.18130      12.81570      12.25000       6.39520       6.68510       2.30970      45.10540     117.99920      10.10000
    1153.00000      -2.00865      86.03730      12.92590      12.25000       6.26830       6.55240       2.33280      46.04250     119.06810      10.10000
    1153.50000      -2.22927      85.89340      13.12990      12.25000       5.97200       6.34880       2.35880      46.77810     121.82910      10.10000
    1154.00000      -2.56070      85.74940      13.37160      12.25000       5.64040       6.03130       2.33690      47.45680     120.45020      10.10000
    1154.50000      -2.69523      86.92380      13.58580      12.25000       5.31220       5.68060       2.32410      46.94830     120.52480      10.10000
    1155.00000      -2.12955      88.20540      13.77730      12.25000       5.51720       6.05290       2.32180      46.77930     121.03530      10.10000
    1155.50000      -2.26048      89.10540      13.93750      12.25000       5.98140       6.26680       2.30560      47.46750     118.05580      10.10000
    1156.00000      -2.39131      89.98840      14.07780      12.25000       5.98600       6.23550       2.29720      46.70390     113.51050      10.10000
    1156.50000      -2.33193      90.87150      14.08450      12.25000       6.04090       6.31520       2.32220      45.47150     115.80060      10.10000
    1157.00000      -2.63426      91.09460      13.98580      12.25000       6.15620       6.43020       2.33220      44.89800     114.15730      10.10000
    1157.50000      -3.08349      89.93330      13.87920      12.25000       6.26840       6.54740       2.32330      44.72510     116.15680      10.10000
    1158.00000      -3.39552      88.96010      13.78370      12.25000       6.24000       6.54320       2.31720      44.87910     120.49810      10.10000
    1158.50000      -3.66454      88.33800      13.68810      12.25000       6.19060       6.53390       2.30970      44.24490     118.14910      10.10000
    1159.00000      -3.89147      87.71600      13.75780      12.25000       6.28920       6.52450       2.30700      42.84480     121.32850      10.10000
    1159.50000      -3.82230      87.57250      13.83050      12.25000       6.29120       6.51520       2.30720      42.82640     121.48580      10.10000
    1160.00000      -3.56212      87.57250      13.90310      12.25000       6.10750       6.41080       2.31380      43.89640     111.63080      10.10000
    1160.50000      -3.30085      87.62350      13.97580      12.25000       6.23050       6.51060       2.32150      45.39410     112.27230      10.10000
