~VERSION INFORMATION
VERS.      2.0   :CWLS LOG ASCII STANDARD--VERSION 2.0
WRAP.      NO    :ONE LINE PER DEPTH STEP
~WELL INFORMATION
#MNEM.UNIT              DATA          DESCRIPTION
#================================================
STRT.FT                         43.00000 :START DEPTH
STOP.FT                       4015.00000 :STOP DEPTH
STEP.FT                          0.50000 :STEP
NULL.                         -999.00000 :NULL VALUE
COMP.   Data output from TerraStation II         : COMPANY
WELL.   Tulageak 1                               : WELL NAME
UWI.    50-023-20018                             : WELL UWI
API.    50-023-20018                             : WELL API
LOC.    7 21N 14W                                : WELL LOCATION
DATE.   NorthSlope.W06                           : WELL DATE
FLD.    No Project Selected                      : Project NAME
~CURVE INFORMATION
#================================================
M__DEPTH.FT                  :M__DEPTH
SP      .MV                  :SP
GR      .GAPI                :GR
CALI    .IN                  :CALI
BitSize .IN                  :BitSize
LLD     .OHMM                :LLD
LLS     .OHMM                :LLS
RHOB    .G/CC                :RHOB
NPHI    .%                   :NPHI
DT      .US/F                :DT
MudWgt  .LBS/GAL             :MudWgt
~PARAMETER INFORMATION
#================================================
~OTHER INFORMATION
#================================================
~A
# ...
    1655.00000      -5.67005      89.40400      12.86340      12.25000       7.65870       7.98200       2.47490      46.35360     106.46950      10.10000
    1655.50000      -5.57039      88.20990      12.86750      12.25000       7.81010       7.91330       2.49040      45.80570     107.63210      10.10000
    1656.00000      -5.55564      86.79520      12.88290      12.25000       8.00650       7.83870       2.46090      44.34480     108.74150      10.10000
    1656.50000      -5.40898      86.04690      12.91060      12.25000       7.45150       7.76490       2.44040      42.97580     110.40710      10.10000
    1657.00000      -5.07323      87.41980      12.94510      12.25000       7.41240       7.72020       2.43610      42.74560     111.45260      10.10000
    1657.50000      -4.77327      88.56340      12.97960      12.25000       7.43550       7.74390       2.43980      42.38070     109.76190      10.10000
    1658.00000      -4.81382      88.91400      13.14180      12.25000       7.45690       7.76620       2.44860      42.05010     107.52590      10.10000
    1658.50000      -4.91846      88.91390      12.84520      12.25000       7.47840       7.78850       2.45900      42.73880     106.05090      10.10000
    1659.00000      -5.21861      89.02640      12.79660      12.25000       7.49990       7.81090       2.47260      43.84820     104.21380      10.10000
    1659.50000      -5.20236      89.29350      12.77480      12.25000       7.37640       7.70950       2.46830      43.45730     102.07540      10.10000
    1660.00000      -5.21590      90.03580      12.82080      12.25000       7.30920       7.61210       2.46060      42.26790     101.29330      10.10000
    1660.50000      -4.75115      91.31890      12.86790      12.25000       7.32310       7.62650       2.45480      40.85440     103.24670      10.10000
    1661.00000      -4.30839      91.73670      12.91020      12.25000       7.48240       7.88950       2.45330      39.71040     104.89950      10.10000
    1661.50000      -4.02564      91.58910      12.87960      12.25000       7.78160       8.20490       2.45470      38.73860     104.83250      10.10000
    1662.00000      -4.29438      90.67290      12.85930      12.25000       8.09270       8.53300       2.46660      37.90680     108.64170      10.10000
    1662.50000      -4.78813      89.79930      12.88340      12.25000       8.32710       8.67590       2.45360      38.80450     106.25560      10.10000
    1663.00000      -5.07647      89.34330      12.82320      12.25000       8.27260       8.62560       2.44870      41.04840     106.10550      10.10000
    1663.50000      -5.17242      88.28470      12.77460      12.25000       8.17850       8.52750       2.44310      42.14910     107.67120      10.10000
    1664.00000      -5.12487      87.16570      12.72440      12.25000       8.08550       8.43060       2.43850      41.80160     107.03110      10.10000
    1664.50000      -5.04221      86.34280      12.76030      12.25000       7.99360       8.33470       2.42830      40.61880     106.44310      10.10000
    1665.00000      -4.96806      86.55610      12.78310      12.25000       7.90260       8.23990       2.42260      39.71120     106.77460      10.10000
    1665.50000      -4.81420      85.87410      12.83780      12.25000       7.81250       8.14600       2.44330      39.91360     106.99860      10.10000
    1666.00000      -4.69765      85.21340      12.85450      12.25000       7.72340       8.05310       2.44640      41.10160     106.75610      10.10000
    1666.50000      -4.67339      87.18010      12.87350      12.25000       7.63540       7.96130       2.44930      42.42960     106.74020      10.10000
    1667.00000      -4.75044      88.40780      12.89250      12.25000       7.65260       7.97150       2.45500      43.73220     107.97390      10.10000
    1667.50000      -4.72028      89.62380      12.91160      12.25000       7.64690       7.96350       2.45540      44.84920     108.40990      10.10000
    1668.00000      -4.44293      90.52850      12.91380      12.25000       7.63920       7.95560       2.45520      45.44040     108.76660      10.10000
    1668.50000      -4.38648      90.82450      12.91880      12.25000       7.63160       7.94760       2.45330      46.11430     106.81900      10.10000
    1669.00000      -4.74212      90.66810      12.92240      12.25000       7.62400       7.93970       2.46030      46.76600     104.72830      10.10000
    1669.50000      -5.05817      90.48890      12.92590      12.25000       7.61640       7.93170       2.46820      47.38180     103.69260      10.10000
    1670.00000      -5.00541      90.30970      12.92950      12.25000       7.60870       7.92380       2.47620      47.59190     105.69220      10.10000
    1670.50000      -5.11876      90.13050      12.92560      12.25000       7.59220       7.91050       2.48420      47.23420     106.96960      10.10000
    1671.00000      -4.89320      89.95130      12.91890      12.25000       7.47560       7.83920       2.49220      46.06810     107.89390      10.10000
    1671.50000      -4.49145      89.30750      12.91230      12.25000       7.33750       7.67110       2.49910      45.08130     109.60830      10.10000
    1672.00000      -4.30919      88.75900      12.90570      12.25000       7.53150       7.93550       2.49990      45.72320     106.85440      10.10000
    1672.50000      -4.39664      88.65010      12.89900      12.25000       7.69910       8.01790       2.49990      45.47150     108.40990      10.10000
    1673.00000      -4.90429      88.74550      12.89240      12.25000       7.68900       8.00740       2.52420      43.79230     110.60140      10.10000
    1673.50000      -5.34443      88.83650      12.88580      12.25000       7.69780       8.01660       2.50450      42.46800     111.38360      10.10000
    1674.00000      -5.49057      87.61320      12.91620      12.25000       7.70670       8.02580       2.48580      41.66780     102.70980      10.10000
    1674.50000      -5.50742      86.38980      12.93360      12.25000       7.64590       8.02010       2.47810      41.43560     100.41130      10.10000
    1675.00000      -5.52637      85.23250      12.93420      12.25000       7.54360       7.85760       2.46560      40.84910     103.02130      10.10000
    1675.50000      -5.57131      85.24230      12.93360      12.25000       7.50780       7.82030       2.47400      39.79770     109.93330      10.10000
    1676.00000      -5.41806      85.41350      12.87800      12.25000       7.32380       7.67040       2.46470      39.05690     116.51090      10.10000
    1676.50000      -5.29340      85.56220      12.86010      12.25000       7.30120       7.67400       2.45660      39.08430     110.87710      10.10000
    1677.00000      -5.18175      86.19420      12.86580      12.25000       7.54190       8.44970       2.45410      41.29020     104.84630      10.10000
    1677.50000      -5.10109      87.73880      12.86770      12.25000       8.36090       8.87220       2.48430      41.99920     112.28770      10.10000
    1678.00000      -4.82244      89.88180      12.82310      12.25000       8.77890       9.31590       2.50760      41.92400     106.37310      10.10000
    1678.50000      -4.36398      92.02480      12.86000      12.25000       9.21790       9.49190       2.46920      41.67660     105.06350      10.10000
    1679.00000      -3.98303      92.21010      12.88570      12.25000       9.04020       9.53330       2.42060      41.32470     109.39230      10.10000
    1679.50000      -4.00118      91.67510      12.87620      12.25000       8.48930       9.19510       2.45690      42.26160     118.23380      10.10000
    1680.00000      -4.12742      90.62010      12.88890      12.25000       8.24650       8.90510       2.47480      42.66970     122.38460      10.10000
    1680.50000      -4.26377      89.52530      12.90160      12.25000       8.03030       8.85600       2.46290      42.47560     114.15800      10.10000
