~VERSION INFORMATION
VERS.      2.0   :CWLS LOG ASCII STANDARD--VERSION 2.0
WRAP.      NO    :ONE LINE PER DEPTH STEP
~WELL INFORMATION
#MNEM.UNIT              DATA          DESCRIPTION
#================================================
STRT.FT                         98.00000 :START DEPTH
STOP.FT                       4360.00000 :STOP DEPTH
STEP.FT                          0.50000 :STEP
NULL.                         -999.00000 :NULL VALUE
COMP.   Data output from TerraStation II         : COMPANY
WELL.   Walakpa 2                                : WELL NAME
UWI.    50-023-20019                             : WELL UWI
API.    50-023-20019                             : WELL API
LOC.    31 20N 19W                               : WELL LOCATION
DATE.   NorthSlope.W07                           : WELL DATE
FLD.    No Project Selected                      : Project NAME
~CURVE INFORMATION
#================================================
M__DEPTH.FT                  :M__DEPTH
SP      .MV                  :SP
GR      .GAPI                :GR
CALI    .IN                  :CALI
BitSize .IN                  :BitSize
MSFL    .OHMM                :MSFL
LLD     .OHMM                :LLD
LLS     .OHMM                :LLS
RHOB    .G/CC                :RHOB
NPHI    .%                   :NPHI
DT      .US/F                :DT
MudWgt  .LBS/GAL             :MudWgt
~PARAMETER INFORMATION
#================================================
~OTHER INFORMATION
#================================================
~A
# ...
    3194.00000     -10.06568      86.63540       8.48430       8.50000       7.50160       9.50800       9.77030       2.56920      29.32820      86.01310      10.20000
    3194.50000     -10.45602      87.92580       8.47810       8.50000       8.40030       9.56890      10.03690       2.57600      28.41400      85.51180      10.20000
    3195.00000     -10.71715      89.21610       8.47100       8.50000       8.02760       9.63030      10.31070       2.57830      27.03280      84.90250      10.20000
    3195.50000     -11.02499      90.85340       8.49460       8.50000       7.86330       9.57000      10.26240       2.56480      26.72390      84.66550      10.20000
    3196.00000     -11.12342      94.21440       8.47810       8.50000       8.26400       9.47650      10.14600       2.54990      26.63340      84.38720      10.20000
    3196.50000     -11.24496      93.74910       8.45960       8.50000       8.68500       9.36780      10.02220       2.54140      26.67420      84.09430      10.20000
    3197.00000     -11.68639      92.28780       8.50750       8.50000       8.92250       9.26030       9.89990       2.53800      26.65630      83.69010      10.20000
    3197.50000     -12.27093      90.55490       8.54550       8.50000       8.94320       9.09920       9.77910       2.53280      26.71090      83.12730      10.20000
    3198.00000     -12.72846      89.93860       8.64940       8.50000       8.69180       8.86410       9.63390       2.52820      27.73320      82.78330      10.20000
    3198.50000     -12.83619      89.59640       8.76610       8.50000       7.38640       8.63110       9.30500       2.52440      27.89150      83.37500      10.20000
    3199.00000     -12.50403      90.30090       8.91220       8.50000       7.38640       8.40230       9.04020       2.52290      28.58180      84.05620      10.20000
    3199.50000     -12.73736      91.06920       8.92950       8.50000       6.76640       8.17950       8.78290       2.51690      28.39510      85.38240      10.20000
    3200.00000     -11.29590      91.16460       8.80560       8.50000       3.49230       7.96260       8.53290       2.49790      28.63310      86.91660      10.20000
    3200.50000     -10.57813      91.09690       8.81130       8.50000       3.74650       7.75150       8.56990       2.47810      28.96240      88.14490      10.20000
    3201.00000     -11.84297      91.88760       9.06420       8.50000       4.24980       7.54050       8.68260       2.46340      29.55970      88.66520      10.20000
    3201.50000     -12.57540      93.26670       9.12690       8.50000       3.56630       7.32970       8.79680       2.44080      30.20780      88.98190      10.20000
    3202.00000     -13.06784      94.99690       9.17500       8.50000       3.50530       7.17980       8.63070       2.45010      31.15030      89.29860      10.20000
    3202.50000     -11.76757      97.50300       9.46920       8.50000       4.02120       7.07920       8.54050       2.45380      31.84150      89.74890      10.20000
    3203.00000     -11.46241     101.23150       9.25840       8.50000       3.74620       6.98010       8.45130       2.45340      31.89830      90.04000      10.20000
    3203.50000     -10.75734     103.71720       9.28200       8.50000       2.86610       6.91890       8.36290       2.45840      31.89120      90.28830      10.20000
    3204.00000     -10.28588     103.90160       9.16870       8.50000       3.58460       6.94670       8.28160       2.46800      31.80040      91.11700      10.20000
    3204.50000      -9.92641     100.26940       9.05510       8.50000       5.68080       6.99440       8.34400       2.46960      31.30140      91.77270      10.20000
    3205.00000      -9.57695      98.14050       9.12530       8.50000       4.98890       7.04250       8.40690       2.47550      30.89750      92.11770      10.20000
    3205.50000      -8.97488      96.23590       9.22300       8.50000       3.96970       7.09100       8.47020       2.49780      31.39660      93.00330      10.20000
    3206.00000      -8.49772      94.23460       9.21270       8.50000       2.37280       7.13970       8.53400       2.52490      31.67810      92.61920      10.20000
    3206.50000      -8.30735      94.60470       9.45660       8.50000       2.00590       7.18250       8.57530       2.51350      31.87810      91.73750      10.20000
    3207.00000      -8.05649      95.27720       9.53260       8.50000       1.97110       7.20370       8.58730       2.48860      32.13060      91.30990      10.20000
    3207.50000      -8.36982      96.02290       9.33390       8.50000       1.99040       7.22490       8.59940       2.46650      32.48540      91.03110      10.20000
    3208.00000      -8.73196      97.79980       9.27460       8.50000       2.07840       7.24620       8.61140       2.49730      32.37830      90.84230      10.20000
    3208.50000      -8.92539      99.67230       9.24730       8.50000       2.21370       7.26760       8.62350       2.50830      32.68880      90.78300      10.20000
    3209.00000      -8.77272     102.61120       9.31770       8.50000       2.31300       7.28910       8.68380       2.52400      33.19470      90.92310      10.20000
    3209.50000      -8.66426     102.93600       9.11700       8.50000       2.46310       7.31060       8.79060       2.52790      33.56240      91.44130      10.20000
    3210.00000      -9.10199     102.10910       8.99620       8.50000       2.68740       7.33210       8.89580       2.50510      32.46250      91.57400      10.20000
    3210.50000      -9.50493     100.75660       8.90810       8.50000       2.86650       7.38210       8.99380       2.48640      31.71300      90.66240      10.20000
    3211.00000      -9.60846      99.51920       8.76730       8.50000       2.91020       7.46410       9.09280       2.48580      32.01220      89.98660      10.20000
    3211.50000      -9.50750      99.30030       8.61640       8.50000       2.62280       7.54700       9.19000       2.50720      32.84120      89.60350      10.20000
    3212.00000      -9.36333      99.42560       8.69170       8.50000       1.95190       7.63090       9.26150       2.56070      32.75520      88.64380      10.20000
    3212.50000      -9.25267      99.59590       8.76700       8.50000       1.73580       7.72220       9.28440       2.52220      32.06820      87.84460      10.20000
    3213.00000      -9.19510      99.76630       8.86120       8.50000       2.19440       7.82460       9.20230       2.53450      31.33250      87.23650      10.20000
    3213.50000      -9.03804      98.85490       8.84970       8.50000       2.14980       7.93850       9.14410       2.53760      31.02920      86.50040      10.20000
    3214.00000      -9.00927      96.57200       9.02150       8.50000       1.20970       8.05630       9.12510       2.51820      30.69560      86.05170      10.20000
    3214.50000      -9.04641      95.93420       8.73460       8.50000       1.30640       8.16780       9.10610       2.50080      30.91680      86.28530      10.20000
    3215.00000      -9.04594      96.76220       8.68660       8.50000       1.48610       8.14690       9.08310       2.49550      31.32920      86.62920      10.20000
    3215.50000      -8.95628      97.60460       8.81100       8.50000       1.79160       8.12610       8.98890       2.49080      30.80540      87.05900      10.20000
    3216.00000      -9.38561      97.25980       9.05360       8.50000       1.44730       8.10540       8.89570       2.48630      30.33990      87.51110      10.20000
    3216.50000      -9.68865      97.15260       9.02330       8.50000       1.12080       8.08470       8.80350       2.48290      30.04610      86.96710      10.20000
    3217.00000      -9.62528      98.52670       9.20730       8.50000       1.01730       8.06560       8.75420       2.47170      30.06040      86.76330      10.20000
    3217.50000      -9.87312     101.27670       9.54370       8.50000       1.05900       8.06160       8.76590       2.45070      30.07630      87.04420      10.20000
