~VERSION INFORMATION
VERS.      2.0   :CWLS LOG ASCII STANDARD--VERSION 2.0
WRAP.      NO    :ONE LINE PER DEPTH STEP
~WELL INFORMATION
#MNEM.UNIT              DATA          DESCRIPTION
#================================================
STRT.FT                         98.00000 :START DEPTH
STOP.FT                       4360.00000 :STOP DEPTH
STEP.FT                          0.50000 :STEP
NULL.                         -999.00000 :NULL VALUE
COMP.   Data output from TerraStation II         : COMPANY
WELL.   Walakpa 2                                : WELL NAME
UWI.    50-023-20019                             : WELL UWI
API.    50-023-20019                             : WELL API
LOC.    31 20N 19W                               : WELL LOCATION
DATE.   NorthSlope.W07                           : WELL DATE
FLD.    No Project Selected                      : Project NAME
~CURVE INFORMATION
#================================================
M__DEPTH.FT                  :M__DEPTH
SP      .MV                  :SP
GR      .GAPI                :GR
CALI    .IN                  :CALI
BitSize .IN                  :BitSize
MSFL    .OHMM                :MSFL
LLD     .OHMM                :LLD
LLS     .OHMM                :LLS
RHOB    .G/CC                :RHOB
NPHI    .%                   :NPHI
DT      .US/F                :DT
MudWgt  .LBS/GAL             :MudWgt
~PARAMETER INFORMATION
#================================================
~OTHER INFORMATION
#================================================
~A
# ...
     122.00000     -29.06693      72.29680      15.74840      12.25000       2.26430       7.47890       4.01750       2.07650      57.52730     137.51790       8.90000
     122.50000     -28.79527      69.95130      15.93100      12.25000       2.29970       8.16560       4.18910       2.15700      58.59030     136.28960       8.90000
     123.00000     -30.90010      69.19530      16.11350      12.25000       2.17070       9.25590       4.23900       2.10190      58.69440     135.06129       8.90000
     123.50000     -34.23644      65.81200      16.05160      12.25000       2.18350       9.86940       4.24490       2.05890      58.85410     135.20680       8.90000
     124.00000     -29.28487      65.92660      15.48630      12.25000       2.32480      10.07460       4.19310       2.08680      59.11950     136.21620       8.90000
     124.50000     -29.51121      66.05370      15.68060      12.25000       2.68450      10.19140       4.13990       2.13450      58.33470     136.67821       8.90000
     125.00000     -29.83156      68.49090      15.88190      12.25000       3.04810      10.26750       4.11220       2.15650      57.19710     136.15230       8.90000
     125.50000     -30.31730      70.19500      15.94380      12.25000       3.24390      10.20380       4.07010       2.13720      57.09420     135.62640       8.90000
     126.00000     -30.84323      70.91490      15.61850      12.25000       3.45000      10.07640       4.04280       2.18950      57.59520     135.10049       8.90000
     126.50000     -31.76418      71.51190      15.33790      12.25000       3.36370       9.90000       4.00870       2.23690      58.09240     134.06551       8.90000
     127.00000     -32.91481      71.39850      15.19980      12.25000       3.26820       9.64650       4.00270       2.30090      58.62410     132.94910       8.90000
     127.50000     -33.44536      71.58120      15.05880      12.25000       3.34380       9.39950       3.98470       2.30550      57.48870     131.83260       8.90000
     128.00000     -34.48060      70.55980      14.90070      12.25000       3.56040       9.14320       3.96660       2.30850      55.16860     130.71620       8.90000
     128.50000     -35.41453      68.89680      14.74250      12.25000       3.80720       9.46150       4.06000       2.31490      53.18600     130.28650       8.90000
     129.00000     -36.74696      66.60670      14.58430      12.25000       4.24770      10.15220       4.76550       2.31050      51.67370     130.43491       8.90000
     129.50000     -38.17861      64.39750      14.42610      12.25000       5.39250      11.26270       5.80380       2.29320      51.10480     130.58330       8.90000
     130.00000     -39.15475      64.15220      14.23230      12.25000       6.53800      12.97680       6.83060       2.26900      49.80230     129.12720       8.90000
     130.50000     -40.12318      64.29910      14.01740      12.25000       7.93310      16.14830       7.31880       2.26910      48.87130     126.87130       8.90000
     131.00000     -40.73792      66.15110      13.80250      12.25000       9.10590      17.97590       7.25740       2.27060      48.50150     124.61550       8.90000
     131.50000     -41.34986      67.54440      13.61930      12.25000       8.41160      18.80300       6.93360       2.28820      48.34650     122.35970       8.90000
     132.00000     -39.84131      69.22450      13.65060      12.25000       6.30000      16.20500       6.15500       2.32160      48.78840     123.22590       8.90000
     132.50000     -36.31315      71.24600      13.72310      12.25000       4.37680      13.32590       5.36170       2.34880      49.56570     125.01810       8.90000
     133.00000     -27.89958      73.48390      13.76870      12.25000       3.40760      10.74510       4.38950       2.36750      50.57320     126.81030       8.90000
     133.50000     -15.23212      75.98020      13.89100      12.25000       3.24990       9.48020       4.31090       2.37200      52.03690     128.60260       8.90000
     134.00000      -2.56456      75.81550      14.03900      12.25000       3.27760       9.04080       4.41980       2.37310      53.21540     130.39481       8.90000
     134.50000       0.00000      75.72860      14.25760      12.25000       3.28500       8.77160       4.73540       2.37010      54.39380     130.22800       8.90000
     135.00000      -0.78779      75.65760      14.51990      12.25000       3.44470       9.05420       5.19320       2.38070      55.11390     129.50400       8.90000
     135.50000      -1.57557      75.78030      14.73970      12.25000       3.65670       9.23220       5.57800       2.39240      53.19290     128.77991       8.90000
     136.00000      -2.36336      75.93900      14.94140      12.25000       3.93090       9.20090       5.53040       2.38840      53.66060     128.20370       8.90000
     136.50000      -3.15115      76.08780      15.07920      12.25000       3.24890       8.72950       5.18270       2.37150      54.40230     130.54510       8.90000
     137.00000      -3.93894      76.57270      15.21520      12.25000       2.84350       8.06160       4.89860       2.35460      55.06860     132.88660       8.90000
     137.50000      -4.72672      78.17730      15.42920      12.25000       2.75310       7.82550       4.76780       2.33360      55.65870     135.22800       8.90000
     138.00000      -5.51441      78.29210      15.64910      12.25000       2.65810       7.46370       4.83080       2.30400      55.35330     137.56940       8.90000
     138.50000      -6.30220      78.39660      15.74600      12.25000       2.40830       8.32400       5.12630       2.28900      56.23910     139.91080       8.90000
     139.00000      -7.08998      76.90560      15.78260      12.25000       2.20720       9.01780       5.37170       2.25690      58.47430     140.14490       8.90000
     139.50000      -7.87777      75.28790      15.77900      12.25000       2.26070       9.66300       5.63180       2.24870      60.12000     140.32970       8.90000
     140.00000      -8.66556      75.42010      15.73290      12.25000       2.67130      10.21160       5.82300       2.26160      60.59320     140.56709       8.90000
     140.50000      -9.45335      76.13090      15.74930      12.25000       2.98780      10.56900       6.01390       2.24970      60.42260     140.74760       8.90000
     141.00000     -10.24114      78.46900      15.83900      12.25000       2.91110      10.73280       6.08650       2.24160      59.61460     143.09750       8.90000
     141.50000     -11.02893      79.55990      15.92880      12.25000       2.84640      10.89920       6.10860       2.23280      58.41720     144.79930       8.90000
     142.00000     -11.81672      79.47270      15.86070      12.25000       2.80900      10.46140       6.16180       2.21470      58.91070     147.00101       8.90000
     142.50000     -12.60450      79.38560      15.60570      12.25000       2.80650      10.35000       6.22370       2.18400      59.50880     147.80431       8.90000
     143.00000     -12.43272      79.24170      15.40780      12.25000       2.80630      10.62870       6.32790       2.18930      58.81160     146.84190       8.90000
     143.50000     -12.26095      79.04080      15.43440      12.25000       2.71540      10.58420       6.46640       2.19760      59.17090     145.65500       8.90000
     144.00000     -12.08917      76.84690      15.42110      12.25000       2.34970      10.02530       6.33570       2.20360      60.54280     145.22839       8.90000
     144.50000     -11.91739      75.68450      15.40100      12.25000       2.07800       9.39090       6.20760       2.21000      61.31750     145.18420       8.90000
     145.00000     -11.74562      75.46030      15.28520      12.25000       2.07190       8.75510       6.08210       2.21850      61.28940     145.68320       8.90000
     145.50000     -11.57384      75.82550      15.09170      12.25000       2.21400       8.27910       6.07870       2.22320      61.26140     145.79320       8.90000
