~VERSION INFORMATION
VERS.      2.0   :CWLS LOG ASCII STANDARD--VERSION 2.0
WRAP.      NO    :ONE LINE PER DEPTH STEP
~WELL INFORMATION
#MNEM.UNIT              DATA          DESCRIPTION
#================================================
STRT.FT                         98.00000 :START DEPTH
STOP.FT                       4360.00000 :STOP DEPTH
STEP.FT                          0.50000 :STEP
NULL.                         -999.00000 :NULL VALUE
COMP.   Data output from TerraStation II         : COMPANY
WELL.   Walakpa 2                                : WELL NAME
UWI.    50-023-20019                             : WELL UWI
API.    50-023-20019                             : WELL API
LOC.    31 20N 19W                               : WELL LOCATION
DATE.   NorthSlope.W07                           : WELL DATE
FLD.    No Project Selected                      : Project NAME
~CURVE INFORMATION
#================================================
M__DEPTH.FT                  :M__DEPTH
SP      .MV                  :SP
GR      .GAPI                :GR
CALI    .IN                  :CALI
BitSize .IN                  :BitSize
MSFL    .OHMM                :MSFL
LLD     .OHMM                :LLD
LLS     .OHMM                :LLS
RHOB    .G/CC                :RHOB
NPHI    .%                   :NPHI
DT      .US/F                :DT
MudWgt  .LBS/GAL             :MudWgt
~PARAMETER INFORMATION
#================================================
~OTHER INFORMATION
#================================================
~A
# ...
    4034.00000      -5.02147      66.34870       8.49170       8.50000      28.18420      38.62390      45.85950       2.62470      18.14380      68.08620      10.30000
    4034.50000      -4.59801      63.75650       8.49640       8.50000      26.89390      33.17650      38.52490       2.60670      17.22310      65.67750      10.30000
    4035.00000      -4.91184      63.47570       8.50730       8.50000      20.01240      30.32090      33.67800       2.59390      17.31770      64.20060      10.30000
    4035.50000      -4.96718      65.28530       8.51920       8.50000      20.11170      29.07830      30.77220       2.59070      18.32770      63.62520      10.30000
    4036.00000      -4.70921      67.85820       8.53280       8.50000      21.87820      27.45760      30.17680       2.60370      19.46800      65.06910      10.30000
    4036.50000      -4.81545      70.00870       8.54260       8.50000      21.87010      24.89590      29.55000       2.60270      20.14170      66.28550      10.30000
    4037.00000      -5.13758      68.91630       8.55110       8.50000      17.96960      22.61300      28.17570       2.60430      20.47240      67.77900      10.30000
    4037.50000      -5.12892      67.93430       8.57250       8.50000      17.17210      21.18260      25.02570       2.61080      21.06270      69.04470      10.30000
    4038.00000      -4.94265      68.24380       8.59100       8.50000      16.08260      19.84270      24.61110       2.62690      22.09340      69.14980      10.30000
    4038.50000      -4.60759      70.67480       8.60890       8.50000      14.61670      19.55030      24.27850       2.63950      23.07490      71.01120      10.30000
    4039.00000      -4.33742      71.10870       8.62050       8.50000      12.91190      21.78730      24.96790       2.63240      23.15930      72.44040      10.30000
    4039.50000      -2.95886      71.53790       8.62600       8.50000      13.13740      24.98310      27.60080       2.64080      23.18120      72.99080      10.30000
    4040.00000      -4.34339      72.97240       8.60890       8.50000      17.43770      27.71940      33.77460       2.64780      23.39320      73.37100      10.30000
    4040.50000      -5.23133      70.32460       8.59090       8.50000      18.39870      24.13060      38.01030       2.65130      22.51980      71.12530      10.30000
    4041.00000      -5.07026      70.23710       8.60330       8.50000      15.55200      20.62460      25.79210       2.64270      22.18030      69.34560      10.30000
    4041.50000      -4.87980      71.87070       8.61450       8.50000      13.19490      17.62790      20.40950       2.62590      23.66180      69.14790      10.30000
    4042.00000      -4.97363      81.50120       8.62550       8.50000      11.17050      14.93250      16.63890       2.63690      27.78230      70.13520      10.30000
    4042.50000      -5.12167      91.92400       8.62410       8.50000      10.03040      12.53230      13.96440       2.63060      31.05850      73.33710      10.30000
    4043.00000      -5.04240     103.28350       8.71100       8.50000       9.06810      10.51790      12.44590       2.62740      33.66610      79.62060      10.30000
    4043.50000      -3.78043     110.00640       8.89310       8.50000       7.89110      10.62380      12.75550       2.64960      34.68640      82.83050      10.30000
    4044.00000      -2.68717     117.53310       8.81360       8.50000       7.91040      12.13240      13.75910       2.63280      35.13610      86.89420      10.30000
    4044.50000      -2.18160     115.23120       8.67020       8.50000      10.84200      15.23040      18.66150       2.62000      33.93360      88.95710      10.30000
    4045.00000      -2.21894     112.03520       8.62320       8.50000      20.08650      23.99970      29.03540       2.61240      32.48650      88.91830      10.30000
    4045.50000      -2.02067     106.95350       8.59790       8.50000      29.45370      39.70330      53.71450       2.61340      27.86290      86.20760      10.30000
    4046.00000      -2.05161      99.78300       8.60300       8.50000      34.76170      59.48080      70.95610       2.62560      21.28260      81.42380      10.30000
    4046.50000      -2.54944      91.70650       8.61120       8.50000      35.67470      55.44420      75.53940       2.64660      18.59680      73.81800      10.30000
    4047.00000      -4.24988      83.11300       8.62200       8.50000      29.71340      40.08780      48.04280       2.63430      18.07580      66.58160      10.30000
    4047.50000      -4.33121      77.41210       8.64550       8.50000      26.07270      29.91770      38.70720       2.61790      19.57360      63.92590      10.30000
    4048.00000      -4.45725      80.62560       8.65410       8.50000      18.63350      22.57040      23.39980       2.60890      22.82030      63.06360      10.30000
    4048.50000      -5.22118      89.64730       8.65920       8.50000      13.38620      17.02750      16.56100       2.60160      26.67440      66.87110      10.30000
    4049.00000      -5.83522     102.48630       8.65370       8.50000      10.52260      12.84590      14.60280       2.60270      31.09930      71.08560      10.30000
    4049.50000      -5.81365     112.08830       8.64890       8.50000       8.82260      11.78470      14.07150       2.60440      33.89040      76.50910      10.30000
    4050.00000      -5.33729     124.42070       8.64400       8.50000       7.71320      10.91230      14.02360       2.61290      36.19090      81.95230      10.30000
    4050.50000      -5.28182     138.54950       8.63920       8.50000       8.01130      10.37970      13.99010       2.63080      36.52400      86.03960      10.30000
    4051.00000      -5.77836     137.29140       8.63430       8.50000       8.30990      10.53630      13.98360       2.61960      36.39910      87.77440      10.30000
    4051.50000      -6.29849     135.62650       8.63970       8.50000       8.16340      10.69530      13.97720       2.61140      36.18640      88.04620      10.30000
    4052.00000      -6.77402     131.88300       8.64870       8.50000       8.68260      11.03660      13.97070       2.59440      34.57440      87.82320      10.30000
    4052.50000      -5.96606     129.25310       8.65780       8.50000       9.48060      12.10480      14.16340       2.62220      33.19680      87.56450      10.30000
    4053.00000      -5.90489     128.18190       8.65460       8.50000      10.98870      13.27630      14.43950       2.61490      32.39110      87.42840      10.30000
    4053.50000      -5.86063     126.15970       8.64060       8.50000      13.20510      16.59010      20.35190       2.59700      32.01350      87.52000      10.30000
    4054.00000      -5.65826     119.79480       8.64180       8.50000      15.86860      21.82240      27.34540       2.60590      29.91100      86.15600      10.30000
    4054.50000      -5.38990     109.63890       8.64490       8.50000      18.23370      27.01570      35.05640       2.61160      26.79550      84.12840      10.30000
    4055.00000      -5.12153     100.74420       8.65310       8.50000      21.06590      31.41290      37.88150       2.62600      24.22290      79.71830      10.30000
    4055.50000      -4.79117      96.15600       8.64960       8.50000      20.48490      32.18480      39.31240       2.62540      22.75120      75.34610      10.30000
    4056.00000      -4.57540      92.17160       8.64570       8.50000      20.28490      32.35770      39.55430       2.61320      23.16700      72.22090      10.30000
    4056.50000      -4.35274      90.12970       8.66230       8.50000      21.11920      30.83330      38.49320       2.61990      23.49100      71.10650      10.30000
    4057.00000      -3.14247      88.32510       8.67740       8.50000      20.38890      27.52350      36.24080       2.63060      23.80010      70.52760      10.30000
    4057.50000      -1.56541      86.37920       8.68160       8.50000      16.61930      21.98720      33.82840       2.62000      24.23540      70.69880      10.30000
