~VERSION INFORMATION
VERS.      2.0   :CWLS LOG ASCII STANDARD--VERSION 2.0
WRAP.      NO    :ONE LINE PER DEPTH STEP
~WELL INFORMATION
#MNEM.UNIT              DATA          DESCRIPTION
#================================================
STRT.FT                         98.00000 :START DEPTH
STOP.FT                       4360.00000 :STOP DEPTH
STEP.FT                          0.50000 :STEP
NULL.                         -999.00000 :NULL VALUE
COMP.   Data output from TerraStation II         : COMPANY
WELL.   Walakpa 2                                : WELL NAME
UWI.    50-023-20019                             : WELL UWI
API.    50-023-20019                             : WELL API
LOC.    31 20N 19W                               : WELL LOCATION
DATE.   NorthSlope.W07                           : WELL DATE
FLD.    No Project Selected                      : Project NAME
~CURVE INFORMATION
#================================================
M__DEPTH.FT                  :M__DEPTH
SP      .MV                  :SP
GR      .GAPI                :GR
CALI    .IN                  :CALI
BitSize .IN                  :BitSize
MSFL    .OHMM                :MSFL
LLD     .OHMM                :LLD
LLS     .OHMM                :LLS
RHOB    .G/CC                :RHOB
NPHI    .%                   :NPHI
DT      .US/F                :DT
MudWgt  .LBS/GAL             :MudWgt
~PARAMETER INFORMATION
#================================================
~OTHER INFORMATION
#================================================
~A
# ...
     674.00000     -12.03794      75.11410      14.91350      12.25000       2.63420       9.26810       9.07500       2.22450      53.26920     124.41880       9.80000
     674.50000     -11.52272      75.24840      14.93550      12.25000       2.63810       9.52030       9.32220       2.22680      51.00300     121.82550       9.80000
     675.00000     -11.17381      77.95910      14.98530      12.25000       2.56130       9.62990       9.43110       2.21820      49.09150     121.22250       9.80000
     675.50000     -10.63219      80.09390      15.00280      12.25000       2.51400       9.38720       9.19340       2.23160      48.51620     121.13370       9.80000
     676.00000     -10.05247      80.40020      14.95500      12.25000       2.72370       9.15060       8.96170       2.25030      48.82910     121.72510       9.80000
     676.50000      -9.18056      79.07930      14.90720      12.25000       2.99570       8.92000       8.73590       2.25180      48.39460     123.38900       9.80000
     677.00000      -8.48455      76.65690      14.97780      12.25000       3.11080       8.82880       8.65010       2.27050      49.42520     124.24460       9.80000
     677.50000      -7.81293      76.37970      14.98870      12.25000       3.27820       9.00390       8.82850       2.26550      51.66960     124.24040       9.80000
     678.00000      -7.49221      78.17390      14.97380      12.25000       3.37260       9.22200       8.97080       2.27320      54.01330     123.63920       9.80000
     678.50000      -7.19440      80.59930      15.10310      12.25000       3.09120       9.52950       9.33780       2.29140      54.11190     122.95120       9.80000
     679.00000      -6.83028      81.55200      15.19010      12.25000       2.87180       9.58330       9.39900       2.30540      54.15540     122.81890       9.80000
     679.50000      -6.26027      82.27490      15.12510      12.25000       2.80150       9.40680       9.22330       2.30700      53.23860     121.95030       9.80000
     680.00000      -5.50835      81.74440      15.15160      12.25000       3.03390       9.13710       8.86220       2.31210      53.25650     122.62170       9.80000
     680.50000      -4.83954      79.63430      15.28740      12.25000       2.97750       8.87860       8.64780       2.31730      53.66760     123.07020       9.80000
     681.00000      -3.74692      77.86590      15.42310      12.25000       2.85340       8.92090       8.75940       2.33140      53.45410     122.93820       9.80000
     681.50000      -3.56801      74.12980      15.48760      12.25000       2.78670       8.94920       8.78780       2.33290      53.06730     122.36880       9.80000
     682.00000      -3.69199      71.58320      15.53360      12.25000       2.83070       8.98290       8.81930       2.29510      53.08620     122.40410       9.80000
     682.50000      -3.82557      69.74910      15.52080      12.25000       2.99840       9.11180       8.94110       2.29290      54.17020     122.70930       9.80000
     683.00000      -3.86516      69.89370      15.43460      12.25000       3.03150       8.98880       8.78920       2.29430      55.50330     122.69710       9.80000
     683.50000      -3.60454      71.51660      15.34840      12.25000       2.99250       8.62640       8.39090       2.29340      55.80790     123.58330       9.80000
     684.00000      -2.99533      72.55470      15.28780      12.25000       3.26900       8.80840       8.62480       2.30140      55.19110     121.43480       9.80000
     684.50000      -2.50031      73.49340      15.29410      12.25000       3.54590       8.86820       8.69530       2.30770      54.57420     121.21210       9.80000
     685.00000      -2.19690      74.25980      15.33020      12.25000       3.55300       8.94100       8.73850       2.30680      54.29730     121.03740       9.80000
     685.50000      -1.59798      74.95390      15.35320      12.25000       3.55270       9.15550       8.98380       2.30700      54.59590     120.89230       9.50000
     686.00000      -1.24527      77.77850      15.38580      12.25000       3.62200       9.61170       9.33960       2.30980      55.07520     120.78300       9.50000
     686.50000      -0.98405      79.71500      15.43960      12.25000       3.68720       9.98600       9.80660       2.32230      55.95950     120.68150       9.50000
     687.00000      -0.84313      80.42170      15.50110      12.25000       3.54920       9.99060       9.81110       2.32960      57.39520     120.60070       9.50000
     687.50000      -0.82152      79.77430      15.74610      12.25000       3.28680       9.95920       9.77520       2.33350      57.11510     120.28630       9.50000
     688.00000      -0.06160      77.24960      15.62070      12.25000       3.06130       9.87670       9.70980       2.31830      55.06430     119.30820       9.50000
     688.50000       0.15431      78.58250      15.41000      12.25000       2.93230       9.88120       9.65220       2.31770      53.28870     119.46860       9.50000
     689.00000       0.34323      79.62250      15.40570      12.25000       2.98920       9.88580       9.59500       2.34650      52.28960     120.20220       9.50000
     689.50000       0.95834      82.08480      15.45870      12.25000       3.22060       9.63910       9.44580       2.35050      52.32230     120.97940       9.50000
     690.00000       1.06216      82.59650      15.33810      12.25000       3.57640       9.12740       8.93750       2.30750      51.33660     122.51720       9.50000
     690.50000       0.96947      83.12150      15.59120      12.25000       4.03070       8.88710       8.70210       2.29280      50.01860     124.42060       9.50000
     691.00000       0.96939      82.53580      15.61360      12.25000       4.29930       8.96240       8.73030       2.28920      49.80080     125.60020       9.50000
     691.50000       1.30161      81.79620      15.62240      12.25000       4.21310       9.64980       9.16590       2.28830      50.43860     125.86820       9.50000
     692.00000       1.63382      79.91980      15.72730      12.25000       3.75840       9.74560       9.56700       2.29610      52.89470     123.16630       9.50000
     692.50000       1.85943      77.56510      15.74180      12.25000       3.03760       9.84240       9.66200       2.30400      54.56610     121.68030       9.50000
     693.00000       1.66315      75.97660      15.68440      12.25000       2.79060       9.94360       9.75980       2.30910      56.22160     120.30570       9.50000
     693.50000       1.28397      76.03450      15.60730      12.25000       2.67210      10.06070       9.87470       2.30920      55.00590     116.66240       9.50000
     694.00000       0.90488      76.15400      15.53030      12.25000       2.47510      10.00880       9.82370       2.31360      53.04070     119.05020       9.50000
     694.50000       0.52570      76.41120      15.49510      12.25000       2.67440       9.89270       9.64890       2.30840      51.07550     119.17090       9.50000
     695.00000       0.17881      78.00250      15.43780      12.25000       3.00890       9.53570       9.32410       2.29980      50.92880     120.22950       9.50000
     695.50000       0.27333      80.47120      15.41170      12.25000       3.40290       9.15700       8.77760       2.29270      52.98450     122.39870       9.50000
     696.00000       0.36795      81.48840      15.53540      12.25000       4.01850       8.91310       8.68740       2.29240      55.22010     121.72280       9.50000
     696.50000       0.46246      79.69910      15.65900      12.25000       3.82440       9.44310       9.15500       2.29200      56.24110     120.54020       9.50000
     697.00000       0.51137      78.57060      15.78270      12.25000       3.41440       9.58000       9.40600       2.29330      55.90400     120.27210       9.50000
     697.50000       0.37929      79.28760      15.90640      12.25000       2.89960       9.44420       9.25460       2.28550      56.37870     121.11260       9.50000
