~VERSION INFORMATION
VERS.      2.0   :CWLS LOG ASCII STANDARD--VERSION 2.0
WRAP.      NO    :ONE LINE PER DEPTH STEP
~WELL INFORMATION
#MNEM.UNIT              DATA          DESCRIPTION
#================================================
STRT.FT                         98.00000 :START DEPTH
STOP.FT                       4360.00000 :STOP DEPTH
STEP.FT                          0.50000 :STEP
NULL.                         -999.00000 :NULL VALUE
COMP.   Data output from TerraStation II         : COMPANY
WELL.   Walakpa 2                                : WELL NAME
UWI.    50-023-20019                             : WELL UWI
API.    50-023-20019                             : WELL API
LOC.    31 20N 19W                               : WELL LOCATION
DATE.   NorthSlope.W07                           : WELL DATE
FLD.    No Project Selected                      : Project NAME
~CURVE INFORMATION
#================================================
M__DEPTH.FT                  :M__DEPTH
SP      .MV                  :SP
GR      .GAPI                :GR
CALI    .IN                  :CALI
BitSize .IN                  :BitSize
MSFL    .OHMM                :MSFL
LLD     .OHMM                :LLD
LLS     .OHMM                :LLS
RHOB    .G/CC                :RHOB
NPHI    .%                   :NPHI
DT      .US/F                :DT
MudWgt  .LBS/GAL             :MudWgt
~PARAMETER INFORMATION
#================================================
~OTHER INFORMATION
#================================================
~A
# ...
    2354.00000      -2.74767     101.14330      11.40770       8.50000       1.09650       8.61570       8.25770       2.31700      41.35480     104.79030      10.20000
    2354.50000      -3.30116     101.64810      11.59230       8.50000       1.30790       8.66170       8.16790       2.28370      42.41170     103.17420      10.20000
    2355.00000      -4.65095     101.12420      11.69430       8.50000       2.22310       8.57500       8.01040       2.26900      44.11700     103.03380      10.20000
    2355.50000      -4.71804     100.39320      12.23580       8.50000       2.47410       8.30810       7.80600       2.28940      44.92530     103.10680      10.20000
    2356.00000      -4.08263      99.58130      12.34310       8.50000       1.60950       8.04680       7.66320       2.26780      45.10790     102.14390      10.20000
    2356.50000      -3.28521      98.78020      11.67420       8.50000       1.74950       7.79380       7.52930       2.20640      45.27770     105.04340      10.20000
    2357.00000      -2.10370      97.30180      11.88150       8.50000       1.64500       7.55020       7.39760       2.17840      45.26710     105.35730      10.20000
    2357.50000      -1.98589      95.99800      12.30990       8.50000       1.48380       7.48520       7.31830       2.18070      44.93660     103.93170      10.20000
    2358.00000      -2.11598      95.51110      11.43940       8.50000       1.98590       7.70520       7.29850       2.23570      44.40910     104.23480      10.20000
    2358.50000      -1.96967      96.56960      11.27750       8.50000       2.33980       7.99570       7.45350       2.26460      43.98490     105.49400      10.20000
    2359.00000      -1.67946      97.11980      10.85290       8.50000       2.42300       8.21390       7.69740       2.24130      43.34120     104.27980      10.20000
    2359.50000      -1.23505      96.64500      10.83650       8.50000       2.79190       8.20560       7.75000       2.24500      42.96510     104.83840      10.20000
    2360.00000      -0.12184      94.31620      10.33240       8.50000       3.55680       8.03280       7.65790       2.25410      43.53800     105.36120      10.20000
    2360.50000       0.70547      89.83440      10.55180       8.50000       1.61270       7.79350       7.77870       2.26710      44.88590     102.08540      10.20000
    2361.00000       0.38319      86.29260      11.59610       8.50000       1.38810       7.62930       8.04920       2.27120      45.80450      97.51990      10.20000
    2361.50000      -0.39360      84.59720      11.79830       8.50000       1.61800       8.42160       9.06020       2.25970      48.20600      92.50560      10.20000
    2362.00000      -0.98949      87.58830       9.55040       8.50000       1.30990       9.85850      10.33850       2.28670      47.97120      88.84380      10.20000
    2362.50000      -0.79998      90.60160       9.04940       8.50000       0.86000      11.13700      11.67970       2.34930      45.14690      95.94290      10.20000
    2363.00000      -0.96957      94.57180       9.92910       8.50000       0.98010      10.24940      10.63260       2.31520      42.36510     101.63650      10.20000
    2363.50000      -1.25116      97.48000      11.29370       8.50000       1.10430       8.64010       9.26870       2.19220      43.26960     106.52970      10.20000
    2364.00000      -1.64665      99.72560      11.85590       8.50000       0.97890       8.10050       7.85980       2.13170      44.90810     108.30300      10.20000
    2364.50000      -2.02503     100.35990      11.51430       8.50000       0.94760       7.69130       7.13890       2.14520      46.66230     107.47880      10.20000
    2365.00000      -2.24392      99.88930      11.16490       8.50000       1.06970       7.49780       7.04560       2.19550      47.16580     106.65460      10.20000
    2365.50000      -2.66121      98.70280      11.63920       8.50000       1.24440       7.50130       7.06360       2.24110      46.34770     107.23860      10.20000
    2366.00000      -3.06710      97.53350      12.03590       8.50000       2.07510       7.53090       7.27030       2.25480      45.09790     107.19470      10.20000
    2366.50000      -3.22469      95.61260      12.27580       8.50000       1.25110       7.65120       7.55510       2.23560      44.02320     106.03290      10.20000
    2367.00000      -2.88528      94.83850      12.29470       8.50000       0.97220       7.77340       7.58000       2.23660      43.34160     105.81700      10.20000
    2367.50000      -2.22177      95.53040      11.53530       8.50000       0.96140       7.89770       7.75120       2.23100      41.75900     106.42130      10.20000
    2368.00000      -1.41366      98.22250      11.81110       8.50000       1.07160       8.14590       7.92630       2.22130      41.91510     106.58380      10.20000
    2368.50000      -0.30225     100.34830      10.91230       8.50000       1.28120       8.43070       8.08700       2.21310      42.39710     106.43250      10.20000
    2369.00000       1.23146     100.38090      10.94560       8.50000       1.73940       8.52470       8.20140       2.20920      43.48210     108.15110      10.20000
    2369.50000       2.51628      99.78860      10.99450       8.50000       2.06210       8.36670       8.08690       2.20220      43.09980     106.77610      10.20000
    2370.00000      -0.06571     101.20320      10.87870       8.50000       2.50520       8.18000       7.86320       2.19200      42.14080     106.81040      10.20000
    2370.50000      -1.75470     103.66330      11.04140       8.50000       1.06270       7.88600       7.68600       2.18530      41.74950     107.48800      10.20000
    2371.00000      -1.70259     105.68430      11.91820       8.50000       1.18170       7.86040       7.59450       2.18500      42.13210     107.66970      10.20000
    2371.50000      -1.88528     107.91720      11.45290       8.50000       1.69290       7.88560       7.69880       2.17560      43.88970     107.46110      10.20000
    2372.00000      -2.06797     108.29310      10.65290       8.50000       2.35930       7.99830       7.80450       2.18310      44.61470     105.03450      10.20000
    2372.50000      -2.25066     107.96900      10.82090       8.50000       2.18830       8.22110       7.92760       2.20830      44.93940     106.45530      10.20000
    2373.00000      -2.29465     107.39980      11.17330       8.50000       2.32640       8.45020       8.05810       2.26720      45.15650     107.42500      10.20000
    2373.50000      -2.26694     107.01690      11.04870       8.50000       3.72560       8.54520       8.16330       2.31380      46.53440     108.61050      10.20000
    2374.00000      -1.99192     106.85620      11.40990       8.50000       2.22660       8.60210       8.24880       2.27880      45.96560     108.39820      10.20000
    2374.50000      -1.72141     107.55040      11.59170       8.50000       1.13480       8.72150       8.36750       2.19130      45.22400     107.58580      10.20000
    2375.00000      -1.81670     106.96450      11.68110       8.50000       1.13410       8.85450       8.54430       2.18350      44.86260     106.52050      10.20000
    2375.50000      -1.61479     104.19890      11.69510       8.50000       1.08200       8.88690       8.72490       2.17600      44.90310     104.34980      10.20000
    2376.00000      -1.02148     100.40510      11.52720       8.50000       0.92680       8.83530       8.67390       2.16270      44.84170     104.48510      10.20000
    2376.50000      -1.14247      97.78890      12.02070       8.50000       0.80410       8.64670       8.30040       2.15040      44.78310     105.39040      10.20000
    2377.00000      -2.00846      97.29100      12.62780       8.50000       0.73190       8.31030       7.76670       2.11990      44.81120     106.62600      10.20000
    2377.50000      -3.56935      97.79930      11.78760       8.50000       0.76040       7.98690       6.93980       2.18280      45.04290     106.72480      10.20000
