~VERSION INFORMATION
VERS.      2.0   :CWLS LOG ASCII STANDARD--VERSION 2.0
WRAP.      NO    :ONE LINE PER DEPTH STEP
~WELL INFORMATION
#MNEM.UNIT              DATA          DESCRIPTION
#================================================
STRT.FT                         98.00000 :START DEPTH
STOP.FT                       4360.00000 :STOP DEPTH
STEP.FT                          0.50000 :STEP
NULL.                         -999.00000 :NULL VALUE
COMP.   Data output from TerraStation II         : COMPANY
WELL.   Walakpa 2                                : WELL NAME
UWI.    50-023-20019                             : WELL UWI
API.    50-023-20019                             : WELL API
LOC.    31 20N 19W                               : WELL LOCATION
DATE.   NorthSlope.W07                           : WELL DATE
FLD.    No Project Selected                      : Project NAME
~CURVE INFORMATION
#================================================
M__DEPTH.FT                  :M__DEPTH
SP      .MV                  :SP
GR      .GAPI                :GR
CALI    .IN                  :CALI
BitSize .IN                  :BitSize
MSFL    .OHMM                :MSFL
LLD     .OHMM                :LLD
LLS     .OHMM                :LLS
RHOB    .G/CC                :RHOB
NPHI    .%                   :NPHI
DT      .US/F                :DT
MudWgt  .LBS/GAL             :MudWgt
~PARAMETER INFORMATION
#================================================
~OTHER INFORMATION
#================================================
~A
# ...
    4322.00000      -3.97774     155.68190       8.27750       8.50000       9.49920      12.01250      13.26690       2.45030      31.29790      83.04500      10.30000
    4322.50000      -2.46487    -999.00000       8.27550       8.50000       9.99120      12.03160      13.24660       2.44870      31.61460      84.41210      10.30000
    4323.00000      -2.55190    -999.00000       8.27020       8.50000       9.97800      12.05060      13.22630       2.44840      32.00560      85.57630      10.30000
    4323.50000      -2.76902    -999.00000       8.26170       8.50000       8.79010      12.06970      13.20600       2.45460      32.61310      85.51870      10.30000
    4324.00000      -3.14345    -999.00000       8.26740       8.50000       8.02010      12.08880      13.18580       2.45860      33.10790      85.18050      10.30000
    4324.50000      -2.98438    -999.00000       8.27660       8.50000       7.76230      12.10800      13.16560       2.45000      33.70310      84.84220      10.30000
    4325.00000      -2.38011    -999.00000       8.24810       8.50000       8.57020      12.12710      13.14540       2.45380      34.22190      84.30010      10.30000
    4325.50000      -1.81583    -999.00000       8.22970       8.50000       9.82750      12.14630      13.12530       2.47180      34.18920      83.85760      10.30000
    4326.00000      -2.05756    -999.00000       8.23690       8.50000      10.13570      12.16560      13.10510       2.48760      33.15660      82.65230      10.30000
    4326.50000      -2.28459    -999.00000       8.24400       8.50000       9.97030      12.18480      13.11390       2.50000      31.93340      80.81100      10.30000
    4327.00000      -2.40911    -999.00000       8.25120       8.50000       9.87530      12.20410      13.14760       2.50100      30.74500      78.82110      10.30000
    4327.50000      -2.42974    -999.00000       8.26030       8.50000       9.97430      12.22350      13.18140       2.48870      30.49130      76.37360      10.30000
    4328.00000      -2.35037    -999.00000       8.25220       8.50000      10.06410      12.46940      13.21530       2.45580      31.15780      76.86310      10.30000
    4328.50000      -2.23859    -999.00000       8.21700       8.50000      10.14140      12.44990      13.24930       2.46780      31.67100      78.40930      10.30000
    4329.00000      -1.99072    -999.00000       8.19800       8.50000      10.12080      12.43050      13.29560       2.48360      32.09560      80.99830      10.30000
    4329.50000      -1.79795    -999.00000       8.19460       8.50000       9.53000      12.41110      13.35780       2.49810      32.10530      83.17510      10.30000
    4330.00000      -1.05198    -999.00000       8.22160       8.50000       9.37010      12.39170      13.42040       2.49210      31.85880      82.47500      10.30000
    4330.50000      -0.66200    -999.00000       8.24500       8.50000       9.88100      12.37230      13.48320       2.47530      31.03450      81.51970      10.30000
    4331.00000      -2.34963    -999.00000       8.20550       8.50000      10.05080      12.35300      13.54630       2.45250      30.03130      80.54110      10.30000
    4331.50000      -2.17436    -999.00000       8.22450       8.50000       9.50530      12.33370      13.62990       2.43710      30.05690      79.76700      10.30000
    4332.00000      -0.88369    -999.00000       8.25090       8.50000       8.93510      12.31450      13.87550       2.45330      30.08660      78.58760      10.30000
    4332.50000      -1.91201    -999.00000       8.23670       8.50000       8.61110      12.29520      14.12550       2.45660      30.07680      78.73960      10.30000
    4333.00000      -1.55244    -999.00000       8.23450       8.50000       8.93720      12.27600      14.02550       2.44640      30.96180      79.31580      10.30000
    4333.50000      -1.68497    -999.00000       8.24290       8.50000      10.66200      12.25690      13.91420       2.41950      31.37030      79.67070      10.30000
    4334.00000      -1.86339    -999.00000       8.24500       8.50000      11.98240      12.40310      13.80390       2.42650      31.83000      79.71990      10.30000
    4334.50000      -1.98162    -999.00000       8.24600       8.50000      11.75110      12.60490      13.69440       2.43220      31.69440      79.52220      10.30000
    4335.00000      -1.72595    -999.00000       8.25520       8.50000      11.58400      12.81010      13.58580       2.43570      31.29170      79.51200      10.30000
    4335.50000      -0.53957    -999.00000       8.25980       8.50000      11.85940      13.03690      13.69990       2.43390      27.34710      79.56140      10.30000
    4336.00000      -0.44420    -999.00000       8.25570       8.50000      11.75520      13.29230      13.89970       2.43640      12.77690      80.31310      10.30000
    4336.50000      -0.51863    -999.00000       8.24780       8.50000      10.02690      13.55280      14.13950       2.44180    -999.00000      81.92480      10.30000
    4337.00000      -0.09286    -999.00000       8.24020       8.50000       8.65710      13.81840      14.74160       2.44790    -999.00000      82.90130      10.30000
    4337.50000      -0.36768    -999.00000       8.24410       8.50000       7.58290      14.08910      15.36930       2.45820    -999.00000      83.45840      10.30000
    4338.00000      -1.07201    -999.00000       8.26510       8.50000       7.00030      14.49530      16.02380       2.46440    -999.00000      84.33330      10.30000
    4338.50000      -1.10904    -999.00000       8.29080       8.50000       7.47820      14.93150      16.62250       2.45580    -999.00000      84.93490      10.30000
    4339.00000      -0.63646    -999.00000       8.29820       8.50000       7.76730      15.25770      17.14690       2.44960    -999.00000      85.42490      10.30000
    4339.50000      -0.40269    -999.00000       8.29350       8.50000       7.96770      15.12900      16.78830       2.44380    -999.00000      85.89650      10.30000
    4340.00000      -0.46182    -999.00000       8.27520       8.50000       7.65460      15.00150      16.23660       2.43730    -999.00000      85.79100      10.30000
    4340.50000      -0.49295    -999.00000       8.25690       8.50000       7.78940      14.87510      16.04380       2.43520    -999.00000      84.94460      10.30000
    4341.00000      -0.59127    -999.00000       8.20270       8.50000       8.49630      14.74970      16.00730       2.42950    -999.00000      84.47260      10.30000
    4341.50000       0.00000    -999.00000       8.22020       8.50000       8.53080      14.96830      16.02690       2.43340    -999.00000      84.46530      10.30000
    4342.00000       0.47579    -999.00000       8.24310       8.50000       7.99000      15.26840      16.18790       2.44380    -999.00000      84.61800      10.30000
    4342.50000      -1.91271    -999.00000       8.24300       8.50000       7.48340      15.57460      16.35050       2.45830    -999.00000      84.74410      10.30000
    4343.00000      -1.92482    -999.00000       8.24730       8.50000       7.10100      15.79590      17.20190       2.45840    -999.00000      84.60470      10.30000
    4343.50000      -1.00012    -999.00000       8.25400       8.50000       7.11270      16.00420      18.31530       2.45080    -999.00000      84.48210      10.30000
    4344.00000       0.38137    -999.00000       8.25520       8.50000       7.11120      16.21530      18.28830       2.44880    -999.00000      83.88670      10.30000
    4344.50000       1.59287    -999.00000       8.25530       8.50000       6.92010      16.33050      17.59580       2.44880    -999.00000      83.16650      10.30000
    4345.00000      -1.60234    -999.00000       8.25820       8.50000       6.18800      16.43420      17.18050       2.44640    -999.00000      82.87370      10.30000
    4345.50000      -1.80714    -999.00000       8.25410       8.50000       5.88700      16.53850      17.61050       2.44470    -999.00000      82.58090      10.30000
