~VERSION INFORMATION
VERS.      2.0   :CWLS LOG ASCII STANDARD--VERSION 2.0
WRAP.      NO    :ONE LINE PER DEPTH STEP
~WELL INFORMATION
#MNEM.UNIT              DATA          DESCRIPTION
#================================================
STRT.FT                         98.00000 :START DEPTH
STOP.FT                       4360.00000 :STOP DEPTH
STEP.FT                          0.50000 :STEP
NULL.                         -999.00000 :NULL VALUE
COMP.   Data output from TerraStation II         : COMPANY
WELL.   Walakpa 2                                : WELL NAME
UWI.    50-023-20019                             : WELL UWI
API.    50-023-20019                             : WELL API
LOC.    31 20N 19W                               : WELL LOCATION
DATE.   NorthSlope.W07                           : WELL DATE
FLD.    No Project Selected                      : Project NAME
~CURVE INFORMATION
#================================================
M__DEPTH.FT                  :M__DEPTH
SP      .MV                  :SP
GR      .GAPI                :GR
CALI    .IN                  :CALI
BitSize .IN                  :BitSize
MSFL    .OHMM                :MSFL
LLD     .OHMM                :LLD
LLS     .OHMM                :LLS
RHOB    .G/CC                :RHOB
NPHI    .%                   :NPHI
DT      .US/F                :DT
MudWgt  .LBS/GAL             :MudWgt
~PARAMETER INFORMATION
#================================================
~OTHER INFORMATION
#================================================
~A
# ...
    2930.00000     -14.37769     107.86370      10.98710       8.50000       3.46540       5.69440       5.53380       2.49580      36.80260      99.56230      10.20000
    2930.50000     -15.64977     105.30370      10.59450       8.50000       3.64410       5.98640       5.82720       2.49890      37.09660      99.54120      10.20000
    2931.00000     -16.36515     102.88610      10.39920       8.50000       3.01230       6.19810       6.08180       2.49260      37.27060      99.41440      10.20000
    2931.50000     -16.27183     100.23710      10.18840       8.50000       2.76260       6.22650       6.09850       2.45110      37.84950      97.54960      10.20000
    2932.00000     -15.24372      99.06350      10.59100       8.50000       2.77970       6.08730       5.96220       2.42530      38.69090      96.58160      10.20000
    2932.50000     -14.00330      99.98250      10.80980       8.50000       2.92300       5.84950       5.69870       2.38940      37.82200      95.88440      10.20000
    2933.00000     -14.51049     102.93260      10.46590       8.50000       3.11150       5.67320       5.55480       2.37370      37.28110      95.85370      10.20000
    2933.50000     -14.24377     104.03060      10.47600       8.50000       3.46470       5.53680       5.36970       2.40080      37.12250      96.37110      10.20000
    2934.00000     -13.32606     102.11670      10.46600       8.50000       3.99440       5.45900       5.35810       2.42530      37.07170      97.25020      10.20000
    2934.50000     -12.73884     100.23670      10.46980       8.50000       4.08370       5.45410       5.35330       2.42910      37.38670      98.08370      10.20000
    2935.00000     -15.06282      99.29050      10.71650       8.50000       3.81820       5.46430       5.36340       2.43910      38.02700      98.20470      10.20000
    2935.50000     -15.06321     100.17400      10.63920       8.50000       3.53090       5.60660       5.48290       2.44050      38.16700      98.20390      10.20000
    2936.00000     -15.20969     102.25300      10.54140       8.50000       3.49320       5.79410       5.66250       2.43530      37.82690      98.37500      10.20000
    2936.50000     -15.11557     101.32250      10.25490       8.50000       2.70450       5.99170       5.85270       2.44230      37.31850      98.61700      10.20000
    2937.00000     -13.11356      99.80870      10.34490       8.50000       2.65570       6.16890       6.03620       2.44640      36.92010      98.24210      10.20000
    2937.50000     -13.07844      98.81230      10.31090       8.50000       2.70480       6.29110       6.17410       2.46500      36.79890      96.53550      10.20000
    2938.00000     -13.88712      98.89400      10.14250       8.50000       2.80480       6.21650       6.08430       2.48240      36.76430      96.98610      10.20000
    2938.50000     -13.79961      99.59140      10.43110       8.50000       2.89690       6.05560       5.92680       2.45060      36.57810      97.22170      10.20000
    2939.00000     -13.27339     104.77710      10.68900       8.50000       3.01490       5.89230       5.77930       2.41680      36.49370      96.94030      10.20000
    2939.50000     -12.59968     106.75730      10.69890       8.50000       2.65760       5.81650       5.70500       2.41760      37.26870      95.90200      10.20000
    2940.00000     -12.64256     107.05880      10.11450       8.50000       2.64030       5.74170       5.63160       2.39540      37.66120      96.45790      10.20000
    2940.50000     -12.34614     106.16070      10.25690       8.50000       2.68200       5.67720       5.57080       2.41900      37.29530      97.47510      10.20000
    2941.00000     -10.39803     105.23870      10.06390       8.50000       2.62920       5.63210       5.52660       2.47210      36.85100      98.30100      10.20000
    2941.50000      -9.58481     104.34800      10.12120       8.50000       2.49570       5.58730       5.48270       2.46710      35.77380      99.20790      10.20000
    2942.00000      -9.48530     103.46200      10.69100       8.50000       2.59330       5.56910       5.46620       2.45980      35.61390      99.72650      10.20000
    2942.50000     -11.01638     102.74160      10.64630       8.50000       2.97890       5.55940       5.45670       2.45370      36.94510     100.62220      10.20000
    2943.00000     -11.60336     102.54250      10.29850       8.50000       3.50400       5.50140       5.39600       2.45430      39.00260      99.82400      10.20000
    2943.50000     -11.56665     102.34340       9.76950       8.50000       3.34750       5.43550       5.33130       2.45360      39.64620      99.46230      10.20000
    2944.00000     -11.48003     102.11670      10.39190       8.50000       3.18010       5.34660       5.24150       2.42840      40.32210      98.86120      10.20000
    2944.50000     -11.39332     100.60640      10.63280       8.50000       3.02100       5.25660       5.01530       2.40070      39.76640      98.94010      10.20000
    2945.00000     -11.45760     100.30490      10.59230       8.50000       2.93370       4.93130       4.81120       2.43280      39.35620      99.71150      10.20000
    2945.50000     -14.41198     100.24060      10.61410       8.50000       2.85240       4.78060       4.69200       2.42440      38.89420     100.79630      10.20000
    2946.00000     -15.70387     100.34650      10.30060       8.50000       2.65860       4.83890       4.74330       2.41560      38.83590     101.60050      10.20000
    2946.50000     -16.69805     100.82240      10.33080       8.50000       2.54180       4.89710       4.80660       2.39330      39.43620     102.43920      10.20000
    2947.00000     -16.98833     101.85900      10.79890       8.50000       2.52800       5.03040       4.92130       2.39910      40.09090     102.73230      10.20000
    2947.50000     -16.95132     103.25070      10.44420       8.50000       2.76790       5.10210       5.00560       2.42360      40.61340     102.44550      10.20000
    2948.00000     -17.77590     104.40360      10.48900       8.50000       3.78000       5.22760       5.06940       2.45540      41.18680     103.33120      10.20000
    2948.50000     -17.10569     105.33250      10.28360       8.50000       4.50260       5.35620       5.13680       2.43900      39.84060     103.26540      10.20000
    2949.00000     -15.41897     106.26140      10.51590       8.50000       4.37320       5.48800       5.18990       2.43220      38.94400     102.74620      10.20000
    2949.50000     -13.70345     106.43980      10.65730       8.50000       4.24740       5.63690       5.14030       2.41310      38.98130     101.88080      10.20000
    2950.00000     -13.02404     103.63770      10.63230       8.50000       4.12460       5.79840       5.09120       2.39380      39.49980     101.34910      10.20000
    2950.50000     -12.79572      99.79280      10.48490       8.50000       3.98930       5.85380       5.03710       2.40870      40.03220     100.81740      10.20000
    2951.00000     -15.10521      97.78430      10.31680       8.50000       3.84830       5.77080       4.89160       2.41360      40.63290      99.44260      10.20000
    2951.50000     -15.40499      96.54580      10.17310       8.50000       3.70080       5.17620       4.75040       2.38170      41.50990      97.41030      10.20000
    2952.00000     -14.41127      98.08800      10.23880       8.50000       3.53120       4.97180       4.60550       2.35350      43.38010      97.02620      10.20000
    2952.50000     -12.81576     100.16650       9.35870       8.50000       2.80310       4.82660       4.45240       2.37090      44.14370      99.14380      10.20000
    2953.00000     -13.86504     103.21850       9.62130       8.50000       2.12610       4.75050       4.30430       2.42560      41.84850     103.43810      10.20000
    2953.50000     -16.51082     105.07230      10.55990       8.50000       2.13260       4.70780       4.16120       2.34110      41.93990     105.77070      10.20000
