~VERSION INFORMATION
VERS.      2.0   :CWLS LOG ASCII STANDARD--VERSION 2.0
WRAP.      NO    :ONE LINE PER DEPTH STEP
~WELL INFORMATION
#MNEM.UNIT              DATA          DESCRIPTION
#================================================
STRT.FT                         98.00000 :START DEPTH
STOP.FT                       4360.00000 :STOP DEPTH
STEP.FT                          0.50000 :STEP
NULL.                         -999.00000 :NULL VALUE
COMP.   Data output from TerraStation II         : COMPANY
WELL.   Walakpa 2                                : WELL NAME
UWI.    50-023-20019                             : WELL UWI
API.    50-023-20019                             : WELL API
LOC.    31 20N 19W                               : WELL LOCATION
DATE.   NorthSlope.W07                           : WELL DATE
FLD.    No Project Selected                      : Project NAME
~CURVE INFORMATION
#================================================
M__DEPTH.FT                  :M__DEPTH
SP      .MV                  :SP
GR      .GAPI                :GR
CALI    .IN                  :CALI
BitSize .IN                  :BitSize
MSFL    .OHMM                :MSFL
LLD     .OHMM                :LLD
LLS     .OHMM                :LLS
RHOB    .G/CC                :RHOB
NPHI    .%                   :NPHI
DT      .US/F                :DT
MudWgt  .LBS/GAL             :MudWgt
~PARAMETER INFORMATION
#================================================
~OTHER INFORMATION
#================================================
~A
# ...
    2090.00000     -13.22505      88.58580      13.51550      12.25000       2.01320      12.05910      12.68280       2.39260      40.86570      91.18100       9.50000
    2090.50000     -13.15431      88.71350      13.54910      12.25000       1.18960      11.27620      12.00300       2.40500      40.29770      92.40270       9.50000
    2091.00000     -13.13617      87.25750      12.96040      12.25000       0.93450      10.70170      11.64260       2.40490      39.65760      93.72400       9.50000
    2091.50000     -13.34102      87.40030      12.61880      12.25000       1.23630      10.42690      11.30190       2.38860      39.69880      94.77390       9.50000
    2092.00000     -13.99668      88.13750      12.57250      12.25000       1.99750      10.41440      11.38260       2.38150      40.11190      96.57190       9.50000
    2092.50000     -15.06074      86.29020      13.28460      12.25000       3.32700      10.40200      11.54710       2.37510      40.44060      96.17380       9.50000
    2093.00000     -15.50240      84.40980      14.60420      12.25000       3.74810      10.38950      11.78670       2.37890      40.30190      95.43320       9.50000
    2093.50000     -15.65565      82.48970      14.80180      12.25000       3.24630      10.37710      11.86190       2.38540      39.84380      94.68170       9.50000
    2094.00000     -15.78381      86.03900      12.70590      12.25000       2.70640      10.33240      11.84760       2.38690      40.46600      93.98650       9.50000
    2094.50000     -15.96647      87.81860      12.62710      12.25000       2.84820      10.23460      11.65650       2.37440      41.11620      93.52010       9.50000
    2095.00000     -16.07043      87.78880      12.33920      12.25000       3.37780      10.13770      11.52840       2.36140      41.55130      95.05460       9.50000
    2095.50000     -16.00268      87.15330      12.03730      12.25000       3.86120      10.04180      11.44540       2.34680      41.09660      96.28070       9.50000
    2096.00000     -16.05444      86.29850      12.18280      12.25000       4.15170       9.95550      11.62380       2.33490      40.98810      96.58670       9.50000
    2096.50000     -15.51060      86.69820      12.32810      12.25000       4.29150       9.89830      11.60590       2.36360      40.98530      96.60360       9.50000
    2097.00000     -14.47895      88.60960      12.29510      12.25000       4.78030       9.84140      11.55600       2.38140      41.24590      96.51170       9.50000
    2097.50000     -13.47531      87.51760      12.28330      12.25000       5.84560       9.78480      11.53200       2.40910      41.69400      96.77870       9.50000
    2098.00000     -13.06227      87.58840      12.37090      12.25000       6.85010       9.72860      11.55930       2.38950      40.83500      96.86520       9.50000
    2098.50000     -13.00132      88.85450      12.51600      12.25000       6.31160       9.67790      11.58950       2.40740      40.50180      96.79430       9.50000
    2099.00000     -12.98058      90.07020      12.68800      12.25000       5.24850       9.66800      11.58460       2.43180      41.15330      96.49090       9.50000
    2099.50000     -13.06324      91.38990      12.87130      12.25000       4.75580       9.65800      11.62120       2.44090      42.63040      95.40020       9.50000
    2100.00000     -13.06840      93.37210      13.00870      12.25000       5.09920       9.64810      11.55590       2.42040      43.21030      95.44130       9.50000
    2100.50000     -12.79415      94.17430      13.02920      12.25000       4.53860       9.63820      11.50340       2.37430      42.61040      96.18770       9.50000
    2101.00000     -12.43361      94.05180      13.01330      12.25000       4.11830       9.65940      11.57370       2.34940      41.30670      96.58220       9.50000
    2101.50000     -11.55367      94.41750      12.91090      12.25000       3.98910       9.74700      11.64440       2.32380      40.41280      96.67510       9.50000
    2102.00000     -10.66332      95.51070      12.71120      12.25000       3.89460       9.83550      11.71550       2.35870      40.77510      96.92320       9.50000
    2102.50000     -10.07838      93.11450      12.56560      12.25000       3.86540       9.91440      11.87650       2.37780      41.20060      97.27650       9.50000
    2103.00000      -9.72454      90.66020      12.80480      12.25000       4.05870       9.98690      12.12880       2.39920      41.13550      96.05940       9.50000
    2103.50000      -9.43930      87.67700      13.02930      12.25000       4.53010      10.05990      12.31650       2.41330      41.59700      95.02920       9.50000
    2104.00000      -9.16775      86.86000      12.85270      12.25000       5.25530      10.10410      12.52620       2.42610      42.25560      94.10640       9.50000
    2104.50000      -8.89611      87.17950      12.74040      12.25000       6.17940      10.04390      12.62040       2.40550      41.89590      93.29980       9.50000
    2105.00000      -8.76257      87.84090      12.69290      12.25000       5.30110       9.98410      12.69970       2.37290      41.40420      92.83720       9.50000
    2105.50000      -8.75522      88.29140      12.66020      12.25000       4.47030       9.92460      12.52780       2.33130      40.91300      91.61790       9.50000
    2106.00000      -8.41188      87.42150      12.78830      12.25000       4.04640      10.22550      12.29680       2.30710      40.90830      89.56630       9.50000
    2106.50000      -8.15884      86.62320      13.00500      12.25000       4.64330      10.98130      12.64710       2.28960      40.99490      93.42040       9.50000
    2107.00000      -8.08449      83.01370      13.37890      12.25000       5.98280      12.26360      13.42760       2.24990      41.26950      93.98400       9.50000
    2107.50000      -8.20095      80.56190      13.55270      12.25000       6.46990      12.88550      14.50450       2.15760      40.78700      92.94520       9.50000
    2108.00000      -8.67201      78.78880      13.46640      12.25000       7.07770      13.55710      15.63760       2.04650      38.23460      92.80400       9.50000
    2108.50000      -9.03487      75.68340      12.73980      12.25000       8.75300      14.29020      15.83630       2.07990      36.23940      89.13470       9.50000
    2109.00000      -9.32222      73.06090      12.45090      12.25000       8.97980      13.98470      15.09040       2.18330      35.69620      88.43270       9.50000
    2109.50000      -9.75308      69.92770      12.45440      12.25000       7.86540      12.87660      13.54860       2.35500      34.84210      89.67910       9.50000
    2110.00000     -11.13564      67.14380      12.63110      12.25000       7.23970      11.54490      12.90670       2.42130      33.89520      91.31380       9.50000
    2110.50000     -11.53580      67.55400      12.71090      12.25000       6.99830      12.10500      12.83880       2.38710      33.14000      92.73120       9.50000
    2111.00000     -11.63685      71.91500      12.42740      12.25000       6.88220      12.01200      12.94650       2.35510      34.45070      93.07880       9.50000
    2111.50000     -11.58451      75.05890      12.33710      12.25000       7.18400      11.86610      13.05510       2.33170      35.94140      93.27600       9.50000
    2112.00000     -11.53197      82.66920      12.29450      12.25000       8.28490      11.64320      13.09890       2.34150      37.42300      94.15120       9.50000
    2112.50000     -11.47942      84.89440      12.44050      12.25000       9.46280      11.64320      13.09890       2.37310      38.91330      94.87860       9.50000
    2113.00000     -11.42688      85.98680      12.64290      12.25000       9.27090      11.50110      13.04420       2.40380      39.70490      95.68100       9.50000
    2113.50000     -11.49544      87.49940      12.93980      12.25000       8.76320      11.28660      12.97720       2.43180      40.17140      94.68170       9.50000
