~VERSION INFORMATION
VERS.      2.0   :CWLS LOG ASCII STANDARD--VERSION 2.0
WRAP.      NO    :ONE LINE PER DEPTH STEP
~WELL INFORMATION
#MNEM.UNIT              DATA          DESCRIPTION
#================================================
STRT.FT                         98.00000 :START DEPTH
STOP.FT                       4360.00000 :STOP DEPTH
STEP.FT                          0.50000 :STEP
NULL.                         -999.00000 :NULL VALUE
COMP.   Data output from TerraStation II         : COMPANY
WELL.   Walakpa 2                                : WELL NAME
UWI.    50-023-20019                             : WELL UWI
API.    50-023-20019                             : WELL API
LOC.    31 20N 19W                               : WELL LOCATION
DATE.   NorthSlope.W07                           : WELL DATE
FLD.    No Project Selected                      : Project NAME
~CURVE INFORMATION
#================================================
M__DEPTH.FT                  :M__DEPTH
SP      .MV                  :SP
GR      .GAPI                :GR
CALI    .IN                  :CALI
BitSize .IN                  :BitSize
MSFL    .OHMM                :MSFL
LLD     .OHMM                :LLD
LLS     .OHMM                :LLS
RHOB    .G/CC                :RHOB
NPHI    .%                   :NPHI
DT      .US/F                :DT
MudWgt  .LBS/GAL             :MudWgt
~PARAMETER INFORMATION
#================================================
~OTHER INFORMATION
#================================================
~A
# ...
     962.00000     -10.86003      71.49440      14.29270      12.25000       5.49430       9.54270       8.75210       2.22940      51.40630     111.63410       9.50000
     962.50000     -10.83154      69.78740      14.14860      12.25000       4.65260       9.41320       8.83100       2.21720      52.89030     111.78600       9.50000
     963.00000     -10.60715      68.04110      14.01460      12.25000       4.16090       9.18830       8.79050       2.21970      54.00630     112.31260       9.50000
     963.50000     -10.20915      66.46580      13.94920      12.25000       3.94390       8.96190       8.46400       2.24090      55.50880     114.43000       9.50000
     964.00000      -9.49226      65.83990      13.98000      12.25000       4.35470       8.75150       8.28450       2.27940      55.96410     113.66650       9.50000
     964.50000      -8.99217      65.85910      13.99920      12.25000       4.17010       8.63390       8.22170       2.26450      52.93620     110.45280       9.50000
     965.00000      -8.77478      66.59320      14.01830      12.25000       4.01070       8.60210       8.15930       2.24530      51.62060     107.09760       9.50000
     965.50000      -8.61408      67.09320      14.03750      12.25000       3.97230       8.65080       8.23110       2.20740      50.82510     103.97040       9.50000
     966.00000      -8.46459      66.51070      13.87500      12.25000       3.62630       8.79190       8.31650       2.22890      50.52610     105.61600       9.50000
     966.50000      -8.40370      67.43450      13.75350      12.25000       3.17530       9.03940       8.36010       2.25120      50.68640     107.85700       9.50000
     967.00000      -8.47351      70.26200      13.79890      12.25000       2.91110       8.92620       8.69770       2.27930      52.22580     110.23480       9.50000
     967.50000      -8.40452      75.21010      13.77280      12.25000       2.93030       8.87970       8.61520       2.28410      54.22160     113.95090       9.50000
     968.00000      -8.19212      79.86080      13.84680      12.25000       3.63960       8.87970       8.49200       2.28280      56.51770     116.43110       9.50000
     968.50000      -8.01693      84.37700      14.01160      12.25000       4.46590       9.18750       8.77820       2.28110      58.12910     118.27280       9.50000
     969.00000      -7.67534      85.85650      14.87070      12.25000       4.83440       9.45350       9.14030       2.27530      58.38490     118.41940       9.50000
     969.50000      -7.40595      87.28270      15.60530      12.25000       4.84240       9.40690       9.13350       2.22760      59.10580     116.20350       9.50000
     970.00000      -7.46655      87.10890      15.67910      12.25000       4.61740       9.86090       9.43960       2.13960      60.04990     113.86980       9.50000
     970.50000      -7.67526      85.98090      15.63680      12.25000       4.52380       9.83690       9.56270       2.16860      59.82180     113.27450       9.50000
     971.00000      -8.56207      84.57620      15.59450      12.25000       4.51670       9.87280       9.59760       2.20700      57.91700     114.68970       9.50000
     971.50000      -9.27688      82.23660      15.55210      12.25000       4.43280       9.90950       9.63300       2.22220      56.13960     113.42700       9.50000
     972.00000      -9.78718      80.73350      15.50980      12.25000       3.84530       9.72000       9.34650       2.19390      56.03610     114.14650       9.50000
     972.50000     -10.17879      79.56600      15.48440      12.25000       2.96550       9.30080       8.94340       2.19760      55.72160     114.92800       9.50000
     973.00000     -10.53610      78.32480      15.53350      12.25000       2.48990       8.89710       8.52070       2.21310      54.92810     115.76350       9.50000
     973.50000     -10.94091      77.35500      15.55530      12.25000       2.50450       8.77150       8.51860       2.23070      54.93950     116.91530       9.50000
     974.00000     -11.38291      80.25760      15.57360      12.25000       2.92480       8.89340       8.63910       2.21480      55.70440     116.88750       9.50000
     974.50000     -11.78172      79.86240      15.57290      12.25000       3.18370       9.01690       8.62900       2.20330      54.28470     116.19190       9.50000
     975.00000     -12.11083      79.47670      15.52410      12.25000       2.97520       9.02820       8.59450       2.20190      52.39690     115.34120       9.50000
     975.50000     -12.30724      79.57640      15.47530      12.25000       2.94970       8.84650       8.56010       2.19330      51.07740     115.70450       9.50000
     976.00000     -12.67194      79.85650      15.69890      12.25000       3.18380       8.66860       8.40780       2.17600      52.15030     116.91690       9.50000
     976.50000     -13.11625      79.65390      16.05400      12.25000       3.54750       8.49420       8.23870       2.16290      54.79430     119.78130       9.50000
     977.00000     -13.18706      78.20760      16.40920      12.25000       3.98280       8.41450       8.12150       2.15540      57.30740     118.91240       9.50000
     977.50000     -13.20737      74.84360      16.13610      12.25000       4.82690       8.87980       8.47510       2.15740      58.74490     116.37920       9.50000
     978.00000     -13.72608      72.96150      15.43940      12.25000       5.33270       9.43910       9.00890       2.17840      58.65660     113.80360       9.50000
     978.50000     -13.81038      69.49770      15.45640      12.25000       5.69630      10.02610       9.57030       2.19600      56.61850     110.60580       9.50000
     979.00000     -13.89469      70.45700      15.51710      12.25000       6.26460      10.23820       9.95250       2.20400      54.32220     110.55300       9.50000
     979.50000     -13.73760      72.24540      15.51950      12.25000       6.17310       9.97680       9.43090       2.22870      53.29810     111.70630       9.50000
     980.00000     -13.44921      76.58020      15.35760      12.25000       5.23030       9.58470       9.31920       2.19140      54.31200     112.27650       9.50000
     980.50000     -13.22701      80.77300      15.31840      12.25000       4.59510       9.63110       9.36430       2.19230      54.62560     112.95950       9.50000
     981.00000     -13.18512      82.96090      15.40810      12.25000       4.09680       9.64010       9.37440       2.20000      53.48660     113.65800       9.50000
     981.50000     -13.14333      83.60610      15.24150      12.25000       3.47470       9.45860       9.19630       2.20070      52.17670     114.20460       9.50000
     982.00000     -13.10094      83.37900      15.07250      12.25000       2.87710       9.40630       8.99110       2.21500      51.46250     116.43250       9.50000
     982.50000     -13.04564      83.10150      14.87590      12.25000       3.14860       9.35430       8.72740       2.23940      50.86960     118.07270       9.50000
     983.00000     -12.99035      82.70410      14.89080      12.25000       3.54990       9.30250       8.47140       2.26330      52.32900     118.11290       9.50000
     983.50000     -12.93516      81.50570      14.98110      12.25000       3.47030       9.25110       8.48110       2.25580      54.38450     118.00960       9.50000
     984.00000     -12.87987      81.36990      15.00190      12.25000       3.49770       9.20000       8.51950       2.23180      55.08170     116.13030       9.50000
     984.50000     -12.78827      81.23420      14.97320      12.25000       3.99910       9.14930       8.57310       2.22260      54.23070     114.73480       9.50000
     985.00000     -12.47848      80.88860      14.86170      12.25000       4.58890       9.11600       8.62710       2.22140      53.56030     114.49180       9.50000
     985.50000     -12.16879      80.57270      14.80240      12.25000       4.87370       9.08290       8.61210       2.22380      52.58010     113.24220       9.50000
