~VERSION INFORMATION
VERS.      2.0   :CWLS LOG ASCII STANDARD--VERSION 2.0
WRAP.      NO    :ONE LINE PER DEPTH STEP
~WELL INFORMATION
#MNEM.UNIT              DATA          DESCRIPTION
#================================================
STRT.FT                         98.00000 :START DEPTH
STOP.FT                       4360.00000 :STOP DEPTH
STEP.FT                          0.50000 :STEP
NULL.                         -999.00000 :NULL VALUE
COMP.   Data output from TerraStation II         : COMPANY
WELL.   Walakpa 2                                : WELL NAME
UWI.    50-023-20019                             : WELL UWI
API.    50-023-20019                             : WELL API
LOC.    31 20N 19W                               : WELL LOCATION
DATE.   NorthSlope.W07                           : WELL DATE
FLD.    No Project Selected                      : Project NAME
~CURVE INFORMATION
#================================================
M__DEPTH.FT                  :M__DEPTH
SP      .MV                  :SP
GR      .GAPI                :GR
CALI    .IN                  :CALI
BitSize .IN                  :BitSize
MSFL    .OHMM                :MSFL
LLD     .OHMM                :LLD
LLS     .OHMM                :LLS
RHOB    .G/CC                :RHOB
NPHI    .%                   :NPHI
DT      .US/F                :DT
MudWgt  .LBS/GAL             :MudWgt
~PARAMETER INFORMATION
#================================================
~OTHER INFORMATION
#================================================
~A
# ...
    1802.00000     -35.02571      84.70720      16.16650      12.25000       1.20200      11.76690      13.34090       2.23240      42.65530      99.88460       9.50000
    1802.50000     -35.27785      85.10720      16.19620      12.25000       1.12700      12.15130      13.57400       2.16540      44.00800     100.47950       9.50000
    1803.00000     -35.37779      86.25740      16.17200      12.25000       1.05560      12.12500      13.77550       2.15270      43.28730      97.58530       9.50000
    1803.50000     -35.24723      90.28470      15.73310      12.25000       0.99400      11.92280      13.64960       2.09800      42.22000      96.42210       9.50000
    1804.00000     -34.76346      90.69890      15.35970      12.25000       0.96970      11.37210      13.10220       2.05010      41.34160      97.31990       9.50000
    1804.50000     -34.31420      90.32810      14.93320      12.25000       0.98070      10.83920      12.31780       2.07490      41.21570      96.03980       9.50000
    1805.00000     -34.09954      89.28300      14.60140      12.25000       1.09700      10.75610      12.01430       2.09980      41.60320      95.80820       9.50000
    1805.50000     -34.01908      87.31200      14.22540      12.25000       1.06160      10.76020      12.31900       2.09070      41.88210      98.74930       9.50000
    1806.00000     -34.06772      87.77790      15.22520      12.25000       0.98150      10.79130      12.50460       2.01310      41.69520      97.26330       9.50000
    1806.50000     -34.30856      89.94320      17.57030      12.25000       0.88070      10.76190      12.52660       1.92990      41.55020      99.22560       9.50000
    1807.00000     -34.38999      90.93740      17.87250      12.25000       0.87580      10.79140      12.46870       1.92990      41.55050     101.61790       9.50000
    1807.50000     -34.27414      91.70100      16.33160      12.25000       0.87080      10.66770      12.56680       1.92990      42.21600      99.28310       9.50000
    1808.00000     -34.41307      92.74500      15.01900      12.25000       0.88170      10.68680      12.71410       1.94490      42.99580     100.27520       9.50000
    1808.50000     -34.44911      92.90440      14.39720      12.25000       0.90220      10.89300      12.91770       1.92670      43.32190     100.83160       9.50000
    1809.00000     -34.20535      90.63470      15.17710      12.25000       0.90540      11.10330      13.01680       1.92670      42.18590     101.32900       9.50000
    1809.50000     -34.13099      86.91180      15.56920      12.25000       0.89340      11.16820      12.58860       1.94510      40.44350     102.09870       9.50000
    1810.00000     -34.22063      86.81880      15.26230      12.25000       0.85960      10.14550      12.14530       2.00310      39.03660     103.66180       9.50000
    1810.50000     -34.18847      86.72580      15.03110      12.25000       0.87220      10.02130      11.86030       2.07220      38.17520     100.84510       9.50000
    1811.00000     -34.28060      86.25200      14.51720      12.25000       0.95630       9.92580      11.58190       2.08780      39.70830     101.09360       9.50000
    1811.50000     -34.49864      84.70830      13.96180      12.25000       1.00730       9.84470      11.51920       2.08030      41.63080     102.67070       9.50000
    1812.00000     -34.61828      82.06970      14.12920      12.25000       1.05880       9.73340      11.52670       2.04430      43.32300     104.43520       9.50000
    1812.50000     -34.73502      81.40420      15.80130      12.25000       1.08860       9.63930      11.67400       1.93530      44.95440     103.87880       9.50000
    1813.00000     -35.05336      80.83330      16.48040      12.25000       1.27170       9.91640      11.84540       1.93400      45.55970      99.55070       9.50000
    1813.50000     -35.27049      79.46480      14.70160      12.25000       1.56370      10.23970      12.20930       1.94140      45.26530      99.22600       9.50000
    1814.00000     -35.42633      79.32310      15.33010      12.25000       1.96620      10.98930      12.58430       1.96660      43.73790      99.40860       9.50000
    1814.50000     -35.54017      81.29670      15.93190      12.25000       2.34900      11.67520      13.19740       1.98460      42.21060      99.48350       9.50000
    1815.00000     -35.63891      81.98520      15.78790      12.25000       2.46550      12.00140      14.07640       2.03180      40.66810      97.82290       9.50000
    1815.50000     -35.69555      82.13570      14.59740      12.25000       2.57640      12.20750      14.31730       2.09510      38.77430      96.33230       9.50000
    1816.00000     -35.63739      81.24070      14.03990      12.25000       3.30550      12.32230      14.26460       2.18900      37.90980      95.16720       9.50000
    1816.50000     -36.39172      80.25480      13.22840      12.25000       4.79830      12.39330      14.21210       2.29510      37.29000      94.38490       9.50000
    1817.00000     -37.15816      80.03040      13.50770      12.25000       7.52980      12.44660      13.98400       2.36670      36.57090      94.59630       9.50000
    1817.50000     -37.77770      80.37850      13.82250      12.25000       9.94310      12.31590      13.64770       2.38510      36.43110      94.12850       9.50000
    1818.00000     -37.60214      81.37070      13.99430      12.25000       7.91310      11.72850      13.31960       2.36700      37.33520      93.70250       9.50000
    1818.50000     -37.75238      81.70200      13.87720      12.25000       4.30140      11.18710      12.99930       2.34870      37.76030      94.66010       9.50000
    1819.00000     -37.63541      81.68130      13.57870      12.25000       2.92780      10.68420      12.93620       2.32650      37.84160      96.40270       9.50000
    1819.50000     -36.97116      81.50140      13.68590      12.25000       3.68060      11.05950      12.96180       2.28100      37.05450      97.81110       9.50000
    1820.00000     -36.13079      81.50590      13.32340      12.25000       5.66140      11.52800      12.98750       2.26760      36.04350      97.75430       9.50000
    1820.50000     -35.96973      79.58610      13.34060      12.25000       5.66020      11.84150      13.24340       2.25050      35.75770      97.78500       9.50000
    1821.00000     -35.36457      78.02030      13.58810      12.25000       5.39520      12.23120      13.55580       2.23630      35.82380      98.01930       9.50000
    1821.50000     -35.10191      77.66840      14.55670      12.25000       5.20820      12.24410      13.87560       2.20070      36.16530      97.26140       9.50000
    1822.00000     -34.72075      78.20280      14.03050      12.25000       4.64360      12.15410      14.15040       2.18060      37.30300      94.68650       9.50000
    1822.50000     -33.90959      79.28310      13.75220      12.25000       3.84930      12.23530      13.82690       2.17330      38.12540      95.50320       9.50000
    1823.00000     -33.19382      80.07310      13.64970      12.25000       2.92930      12.16840      13.51080       2.15410      38.84450      96.60280       9.50000
    1823.50000     -32.93436      80.13540      13.45960      12.25000       2.09320      12.01350      13.00160       2.10820      39.21580      98.17110       9.50000
    1824.00000     -32.55160      78.97340      13.69730      12.25000       1.27970      11.38020      12.45880       2.05630      39.56760      98.35040       9.50000
    1824.50000     -31.96454      77.76990      13.80360      12.25000       1.06860      10.67870      12.16910       2.05740      39.58500      98.42540       9.50000
    1825.00000     -31.25448      78.77810      13.98300      12.25000       1.10640      10.41700      12.22780       2.06970      39.54840      99.41580       9.50000
    1825.50000     -30.53892      79.59150      14.00930      12.25000       1.12340      10.31570      12.28670       2.08930      39.48730      99.34630       9.50000
