~VERSION INFORMATION
VERS.      2.0   :CWLS LOG ASCII STANDARD--VERSION 2.0
WRAP.      NO    :ONE LINE PER DEPTH STEP
~WELL INFORMATION
#MNEM.UNIT              DATA          DESCRIPTION
#================================================
STRT.FT                         98.00000 :START DEPTH
STOP.FT                       4360.00000 :STOP DEPTH
STEP.FT                          0.50000 :STEP
NULL.                         -999.00000 :NULL VALUE
COMP.   Data output from TerraStation II         : COMPANY
WELL.   Walakpa 2                                : WELL NAME
UWI.    50-023-20019                             : WELL UWI
API.    50-023-20019                             : WELL API
LOC.    31 20N 19W                               : WELL LOCATION
DATE.   NorthSlope.W07                           : WELL DATE
FLD.    No Project Selected                      : Project NAME
~CURVE INFORMATION
#================================================
M__DEPTH.FT                  :M__DEPTH
SP      .MV                  :SP
GR      .GAPI                :GR
CALI    .IN                  :CALI
BitSize .IN                  :BitSize
MSFL    .OHMM                :MSFL
LLD     .OHMM                :LLD
LLS     .OHMM                :LLS
RHOB    .G/CC                :RHOB
NPHI    .%                   :NPHI
DT      .US/F                :DT
MudWgt  .LBS/GAL             :MudWgt
~PARAMETER INFORMATION
#================================================
~OTHER INFORMATION
#================================================
~A
# ...
    1250.00000     -13.95232      83.76600      15.60410      12.25000       3.81020       9.18860      10.03200       2.23460      48.04820     108.67710       9.50000
    1250.50000     -14.20722      84.43730      16.25610      12.25000       4.80580       9.09210      10.01520       2.22790      49.12300     108.39680       9.50000
    1251.00000     -14.46213      83.64680      15.94640      12.25000       4.87360       8.99670       9.99840       2.22060      50.69000     108.25310       9.50000
    1251.50000     -14.52253      81.89640      15.80500      12.25000       4.52730       8.90710      10.00330       2.20990      53.11650     108.30750       9.50000
    1252.00000     -14.17814      79.30050      16.19280      12.25000       4.17480       8.81860      10.02240       2.19950      55.52410     108.67750       9.50000
    1252.50000     -13.83374      79.91340      15.81380      12.25000       4.49520       8.77530      10.04150       2.23080      54.97740     109.10010       9.50000
    1253.00000     -13.48934      80.16310      15.92430      12.25000       4.95030       8.74820      10.06070       2.23550      51.61060     109.37770       9.50000
    1253.50000     -13.15135      80.55050      15.95720      12.25000       5.04440       8.76110      10.07990       2.18680      50.05390     108.08750       9.50000
    1254.00000     -12.89425      81.25530      15.84940      12.25000       5.30960       8.84170      10.09910       2.14250      50.98820     106.83480       9.50000
    1254.50000     -12.64436      82.10100      15.74160      12.25000       5.93300       8.92310      10.11840       2.13770      51.66730     108.01430       9.50000
    1255.00000     -12.88016      82.31760      15.66370      12.25000       6.10210       9.00520      10.13420       2.14380      52.03760     107.81740       9.50000
    1255.50000     -13.19117      82.46310      15.59390      12.25000       5.55840       9.06560      10.13420       2.12240      51.88520     107.60790       9.50000
    1256.00000     -12.39657      81.42210      15.68850      12.25000       5.01580       9.08950      10.13420       2.11060      51.23800     108.07070       9.50000
    1256.50000     -11.36387      80.21810      15.80170      12.25000       4.97890       9.11360      10.13420       2.09680      50.50110     108.75910       9.50000
    1257.00000     -11.17408      79.09860      15.19500      12.25000       5.65660       9.13770      10.13420       2.08280      50.47900     107.13610       9.50000
    1257.50000     -11.39278      81.65150      14.85810      12.25000       6.22850       9.16350      10.17900       2.07930      50.18830     106.93170       9.50000
    1258.00000     -11.79959      84.63120      15.26510      12.25000       5.89880       9.19520      10.28740       2.08830      49.47220     106.60500       9.50000
    1258.50000     -12.20439      87.15260      14.87900      12.25000       5.06920       9.22700      10.39700       2.09570      48.85410     106.74260       9.50000
    1259.00000     -12.58819      88.77360      14.60110      12.25000       4.59990       9.25180      10.50780       2.10600      48.33880     107.89710       9.50000
    1259.50000     -12.75250      90.04700      14.49890      12.25000       4.35030       9.13280      10.41990       2.12190      48.52700     108.75680       9.50000
    1260.00000     -12.91670      90.35250      14.47790      12.25000       4.31440       9.01520      10.32100       2.12310      48.72070     109.28910       9.50000
    1260.50000     -13.28311      88.29220      14.31230      12.25000       4.51310       8.89920      10.26120       2.11960      48.82880     109.78690       9.50000
    1261.00000     -13.88981      87.36550      14.81430      12.25000       4.85640       8.86270      10.30390       2.10950      49.32910     108.90720       9.50000
    1261.50000     -13.97842      87.95200      15.22640      12.25000       5.12050       8.83120      10.31140       2.09000      49.97330     108.09040       9.50000
    1262.00000     -14.18242      88.81580      15.24640      12.25000       5.63790       8.99640      10.20050       2.06730      50.05830     107.49530       9.50000
    1262.50000     -14.53922      89.42290      15.68890      12.25000       6.17540       9.19150      10.09070       2.07510      49.67740     108.47960       9.50000
    1263.00000     -14.89623      89.43780      15.74160      12.25000       6.33650       9.22600       9.98220       2.07640      47.91560     109.23970       9.50000
    1263.50000     -15.25313      88.98410      15.64360      12.25000       5.89120       9.09570       9.87480       2.07030      46.16650     110.21930       9.50000
    1264.00000     -15.47124      89.77740      15.40080      12.25000       5.16980       8.97820       9.76850       2.09950      44.49840     111.94710       9.50000
    1264.50000     -15.89084      90.43350      15.11030      12.25000       4.63430       8.75370       9.49840       2.16730      44.85890     113.24430       9.50000
    1265.00000     -16.05115      90.65430      14.85710      12.25000       4.35210       8.51070       9.23490       2.20890      44.93660     113.44280       9.50000
    1265.50000     -15.93775      90.57140      13.92040      12.25000       4.44100       8.23040       8.97870       2.23500      44.90860     113.59040       9.50000
    1266.00000     -15.69535      89.91920      15.02890      12.25000       4.57310       8.24390       9.21980       2.25220      44.83640     113.09680       9.50000
    1266.50000     -15.49086      89.52860      14.81370      12.25000       6.03730       8.38950       9.72040       2.24230      44.76060     111.83690       9.50000
    1267.00000     -15.20606      89.68810      14.03910      12.25000       6.86350       8.53760      10.17660       2.23810      43.91580     110.23310       9.50000
    1267.50000     -15.65807      89.59970      13.88890      12.25000       7.57180       8.69420      10.26310       2.24670      43.31390     108.48240       9.50000
    1268.00000     -16.77907      88.91450      13.90050      12.25000       7.70620       8.86490      10.35040       2.26890      43.94280     107.44890       9.50000
    1268.50000     -17.45488      87.75650      13.53260      12.25000       7.56570       9.03880      10.36040       2.28440      45.19200     106.91550       9.50000
    1269.00000     -17.45708      87.67450      13.99910      12.25000       7.05410       9.17920      10.28790       2.30100      45.89530     106.87910       9.50000
    1269.50000     -17.45938      87.73090      14.71350      12.25000       6.37610       9.28710      10.21590       2.30330      45.16000     107.00770       9.50000
    1270.00000     -17.69999      87.63100      15.01830      12.25000       5.90110       9.26420      10.14450       2.26270      44.60960     107.70970       9.50000
    1270.50000     -18.01739      87.14660      15.22070      12.25000       5.44660       9.24140      10.07350       2.18590      44.76130     108.59840       9.50000
    1271.00000     -18.19160      85.50940      15.08020      12.25000       4.76770       9.21860      10.00300       2.13660      45.04710     108.75240       9.50000
    1271.50000     -18.53760      85.35500      15.75860      12.25000       3.66950       9.19590      10.01340       2.10530      45.86510     108.65260       9.50000
    1272.00000     -18.36150      85.14210      15.15730      12.25000       4.14460       9.19960      10.03930       2.10680      45.30760     108.57310       9.50000
    1272.50000     -18.27051      84.97780      15.31650      12.25000       4.95440       9.21270      10.06530       2.14210      45.21510     108.55090       9.50000
    1273.00000     -18.12811      85.38100      15.43570      12.25000       5.25010       9.23590      10.04810       2.17940      45.51640     108.60310       9.50000
    1273.50000     -17.98582      88.52410      15.86230      12.25000       5.25660       9.31380       9.99610       2.20950      46.54520     108.65620       9.50000
