~VERSION INFORMATION
VERS.      2.0   :CWLS LOG ASCII STANDARD--VERSION 2.0
WRAP.      NO    :ONE LINE PER DEPTH STEP
~WELL INFORMATION
#MNEM.UNIT              DATA          DESCRIPTION
#================================================
STRT.FT                         98.00000 :START DEPTH
STOP.FT                       4360.00000 :STOP DEPTH
STEP.FT                          0.50000 :STEP
NULL.                         -999.00000 :NULL VALUE
COMP.   Data output from TerraStation II         : COMPANY
WELL.   Walakpa 2                                : WELL NAME
UWI.    50-023-20019                             : WELL UWI
API.    50-023-20019                             : WELL API
LOC.    31 20N 19W                               : WELL LOCATION
DATE.   NorthSlope.W07                           : WELL DATE
FLD.    No Project Selected                      : Project NAME
~CURVE INFORMATION
#================================================
M__DEPTH.FT                  :M__DEPTH
SP      .MV                  :SP
GR      .GAPI                :GR
CALI    .IN                  :CALI
BitSize .IN                  :BitSize
MSFL    .OHMM                :MSFL
LLD     .OHMM                :LLD
LLS     .OHMM                :LLS
RHOB    .G/CC                :RHOB
NPHI    .%                   :NPHI
DT      .US/F                :DT
MudWgt  .LBS/GAL             :MudWgt
~PARAMETER INFORMATION
#================================================
~OTHER INFORMATION
#================================================
~A
# ...
    2642.00000      -7.05869      90.66220      14.34620       8.50000       0.32100       5.71630       4.99170       1.95530      52.43210     127.55360      10.20000
    2642.50000      -5.96288      88.86110      16.00290       8.50000       0.31560       5.00600       4.82970       1.92420      50.28240     124.93910      10.20000
    2643.00000      -6.04576      86.85560      15.99980       8.50000       0.33290       4.80140       4.67300       1.94130      51.00510     130.62810      10.20000
    2643.50000      -6.74345      85.59090      15.99670       8.50000       0.36680       4.69660       4.53900       1.96510      51.66750     133.89270      10.20000
    2644.00000      -6.36463      84.83980      15.99370       8.50000       0.37990       4.58960       4.44050       1.97970      52.39050     136.84000      10.20000
    2644.50000      -6.19301      84.70210      15.99060       8.50000       0.38620       4.44060       4.36150       1.94580      52.86870     138.41650      10.20000
    2645.00000      -6.54120      86.22890      15.98750       8.50000       0.36560       4.50960       4.36620       1.94580      55.33970     136.17410      10.20000
    2645.50000      -6.92958      88.45270      15.98440       8.50000       0.34730       4.64450       4.51950       1.94580      58.27010     128.96510      10.20000
    2646.00000      -6.70136      90.71960      15.98130       8.50000       0.36670       4.83070       4.67810       2.06120      56.52780     123.48190      10.20000
    2646.50000      -5.56865      93.56540      15.97820       8.50000       0.40980       5.01080       4.84110       2.16880      54.79510     123.12840      10.20000
    2647.00000      -5.14283      95.41610      15.97520       8.50000       0.54010       5.12660       5.00980       2.22160      52.81830     122.47520      10.20000
    2647.50000      -6.20172      96.18160      15.97210       8.50000       0.67520       5.25650       5.16780       2.21780      52.39880     126.50080      10.20000
    2648.00000      -6.61850      95.32480      15.96900       8.50000       0.73040       5.31920       5.21810       2.20390      55.75330     127.91730      10.20000
    2648.50000      -6.26768      95.48580      15.96590       8.50000       0.74330       5.44730       5.34400       2.16190      57.93080     126.81170      10.20000
    2649.00000      -5.82117      97.06720      15.96280       8.50000       0.80010       5.46000       5.36780       2.14620      57.95020     126.79590      10.20000
    2649.50000      -5.59575      97.89210      15.95970       8.50000       0.87070       5.47280       5.38040       2.13330      56.20230     126.65510      10.20000
    2650.00000      -5.58963      95.26690      15.13520       8.50000       0.97990       5.49000       5.39710       2.16980      51.48300     138.60950      10.20000
    2650.50000      -4.53282      92.50710      13.83630       8.50000       0.90330       5.50990       5.41670       2.21420      50.29850     136.52859      10.20000
    2651.00000      -1.89840      91.37610      12.85790       8.50000       0.96250       5.54170       5.44430       2.20560      52.36640     134.37019      10.20000
    2651.50000      -0.44129      92.41900      12.81400       8.50000       1.01880       5.57120       5.44180       2.18380      55.27750     131.56430      10.20000
    2652.00000      -6.00777      94.81420      13.42190       8.50000       1.06190       5.33150       5.21120       2.15520      58.26480     122.15950      10.20000
    2652.50000      -8.25295      96.78730      13.25230       8.50000       1.21240       5.21570       5.12170       2.08730      58.80810     125.83850      10.20000
    2653.00000      -7.72244      97.19330      13.27490       8.50000       1.77650       5.10420       5.00370       2.04140      57.08340     129.15840      10.20000
    2653.50000      -5.90872      96.16160      13.85360       8.50000       2.30680       5.24060       5.12250       2.03670      55.96220     136.11729      10.20000
    2654.00000      -7.60431      94.79040      13.46430       8.50000       2.92670       5.17080       5.08000       2.06810      55.79060     137.12320      10.20000
    2654.50000      -9.43179      96.89430      12.96970       8.50000       3.13430       5.14720       5.05990       2.10660      56.26440     122.78370      10.20000
    2655.00000      -9.38057      98.86510      12.88770       8.50000       3.18920       5.22420       5.13270       2.14920      56.68770     123.79550      10.20000
    2655.50000      -8.39086     100.71550      13.69830       8.50000       4.00710       5.29220       5.19950       2.15390      54.39350     127.51440      10.20000
    2656.00000      -6.89384     101.47110      13.94920       8.50000       4.57520       5.36110       5.26720       2.17200      52.54490     127.23210      10.20000
    2656.50000      -9.03033     100.92160      13.06840       8.50000       4.43240       5.43090       5.33580       2.17360      52.52350     125.78130      10.20000
    2657.00000     -10.19221      99.40130      12.40530       8.50000       3.86870       5.41200       5.31650       2.14770      52.92140     121.83910      10.20000
    2657.50000      -9.80509      97.90310      11.94910       8.50000       3.05400       5.39910       5.30510       2.16820      52.94120     118.80450      10.20000
    2658.00000      -9.25518      95.27100      12.45200       8.50000       1.80220       5.33530       5.24240       2.19670      52.87170     117.50320      10.20000
    2658.50000      -9.14186      93.61160      12.90540       8.50000       1.25260       5.31740       5.22740       2.21370      52.85980     121.28300      10.20000
    2659.00000      -9.43854      94.11680      12.59830       8.50000       1.56480       5.31980       5.20520       2.20270      53.06240     125.25860      10.20000
    2659.50000      -9.15393      94.64280      12.28260       8.50000       1.86760       5.12770       5.01740       2.17700      54.23340     125.49060      10.20000
    2660.00000      -7.92781      94.18900      12.67700       8.50000       1.78640       4.94930       4.85520       2.16760      54.63930     126.59020      10.20000
    2660.50000      -6.46350      93.94830      12.94270       8.50000       1.24510       4.98020       4.85870       2.15650      52.66790     126.87130      10.20000
    2661.00000      -4.54888      94.71950      12.65210       8.50000       1.48960       5.13850       5.03780       2.13450      50.90870     124.41960      10.20000
    2661.50000      -8.29496      95.53370      11.72660       8.50000       1.93050       5.27420       5.17270       2.10000      49.72620     126.80430      10.20000
    2662.00000     -10.65325      95.45250      10.91450       8.50000       2.81680       5.40930       5.30510       2.11200      50.88310     122.83720      10.20000
    2662.50000      -9.64053      95.29520      10.95880       8.50000       3.29870       5.46000       5.36750       2.13290      52.31900     117.56370      10.20000
    2663.00000      -9.07412      95.60620      11.21280       8.50000       3.46750       5.40130       5.30720       2.15180      51.68130     120.42370      10.20000
    2663.50000      -9.60680      96.61210      11.58430       8.50000       3.57390       5.33960       5.24670       2.16090      50.74460     121.33820      10.20000
    2664.00000     -11.98318      96.82030      11.76410       8.50000       3.53980       5.27880       5.18700       2.17930      49.62830     126.98560      10.20000
    2664.50000     -12.69617      95.94690      11.95540       8.50000       3.22110       5.21860       5.12790       2.20230      50.26380     124.78420      10.20000
    2665.00000     -13.17055      94.77580      11.90520       8.50000       2.69610       5.18730       5.09720       2.22210      51.41200     122.33740      10.20000
    2665.50000     -13.39223      94.07110      11.81300       8.50000       2.20730       5.24970       5.15850       2.22430      53.03990     125.57950      10.20000
