~VERSION INFORMATION
VERS.      2.0   :CWLS LOG ASCII STANDARD--VERSION 2.0
WRAP.      NO    :ONE LINE PER DEPTH STEP
~WELL INFORMATION
#MNEM.UNIT              DATA          DESCRIPTION
#================================================
STRT.FT                         98.00000 :START DEPTH
STOP.FT                       4360.00000 :STOP DEPTH
STEP.FT                          0.50000 :STEP
NULL.                         -999.00000 :NULL VALUE
COMP.   Data output from TerraStation II         : COMPANY
WELL.   Walakpa 2                                : WELL NAME
UWI.    50-023-20019                             : WELL UWI
API.    50-023-20019                             : WELL API
LOC.    31 20N 19W                               : WELL LOCATION
DATE.   NorthSlope.W07                           : WELL DATE
FLD.    No Project Selected                      : Project NAME
~CURVE INFORMATION
#================================================
M__DEPTH.FT                  :M__DEPTH
SP      .MV                  :SP
GR      .GAPI                :GR
CALI    .IN                  :CALI
BitSize .IN                  :BitSize
MSFL    .OHMM                :MSFL
LLD     .OHMM                :LLD
LLS     .OHMM                :LLS
RHOB    .G/CC                :RHOB
NPHI    .%                   :NPHI
DT      .US/F                :DT
MudWgt  .LBS/GAL             :MudWgt
~PARAMETER INFORMATION
#================================================
~OTHER INFORMATION
#================================================
~A
# ...
    3770.00000      -5.20802      74.52630       8.46230       8.50000      10.93360      13.04410      15.38110       2.54110      24.88190     102.45690      10.20000
    3770.50000      -5.39836      72.46250       8.44690       8.50000      11.50870      13.40490      15.31610       2.55060      25.20190      91.88790      10.20000
    3771.00000      -8.85729      71.74540       8.47090       8.50000      12.11410      13.85640      15.39000       2.59920      25.16640      90.82710      10.20000
    3771.50000      -9.44603      72.26370       8.49860       8.50000      13.09020      14.32310      15.74320       2.63410      25.01960      80.52250      10.20000
    3772.00000      -9.04566      74.68090       8.51860       8.50000      13.66100      14.80560      16.57180       2.66020      24.64480      76.34810      10.20000
    3772.50000      -9.13560      76.25970       8.53600       8.50000      13.96300      14.82500      16.78060       2.71210      23.55570      78.17490      10.20000
    3773.00000      -9.56603      75.57430       8.52870       8.50000      13.25090      14.45150      16.85360       2.66760      22.67850      79.50110      10.20000
    3773.50000      -9.48697      74.16230       8.50810       8.50000      11.81490      14.04540      16.53020       2.61470      22.56550      70.47970      10.20000
    3774.00000      -8.74190      73.62610       8.52130       8.50000      10.77380      13.47390      15.70260       2.61750      22.82170      67.64330      10.20000
    3774.50000      -8.20904      74.02070       8.53650       8.50000      10.40580      13.04390      14.39760       2.60030      23.57500      71.67130      10.20000
    3775.00000      -9.20667      75.03920       8.52490       8.50000      10.91970      12.70820      13.58120       2.58570      24.72620      74.51030      10.20000
    3775.50000      -9.29961      78.06020       8.51710       8.50000      11.41730      12.38110      13.62380       2.58380      26.48870      75.76770      10.20000
    3776.00000      -9.28574      82.68330       8.51710       8.50000      11.78960      12.30790      13.66660       2.57600      26.53740      77.04120      10.20000
    3776.50000      -9.27188      86.17480       8.51700       8.50000      10.54590      12.37270      13.84920       2.55100      26.58620      78.43100      10.20000
    3777.00000      -9.25801      86.70000       8.51540       8.50000      10.37590      12.43780      14.07770       2.54680      26.22090      78.66700      10.20000
    3777.50000      -8.93344      86.16530       8.50630       8.50000      10.37020      12.50320      14.16340       2.55750      25.72390      78.53350      10.20000
    3778.00000      -9.59398      85.26460       8.50870       8.50000      10.64260      12.61100      14.15360       2.55730      25.50560      78.30000      10.20000
    3778.50000     -10.12081      84.56080       8.51310       8.50000      10.92230      12.74550      14.05870       2.55480      25.51590      78.24820      10.20000
    3779.00000      -9.92835      85.10120       8.51290       8.50000      10.83640      12.88140      14.49410       2.57110      25.49540      78.37780      10.20000
    3779.50000      -9.89398      85.24740       8.51250       8.50000      10.23110      12.90990      14.67780       2.55420      25.29100      78.32900      10.20000
    3780.00000      -9.51592      84.52380       8.51130       8.50000       9.55150      12.68520      14.56520       2.53270      25.03930      77.74720      10.20000
    3780.50000      -9.17285      83.73510       8.50640       8.50000       9.76930      12.38170      14.08490       2.56890      25.38640      77.00240      10.20000
    3781.00000      -7.92409      83.38880       8.49910       8.50000      10.05830      12.08540      13.49750       2.58540      25.94590      76.86040      10.20000
    3781.50000      -6.73842      82.59880       8.51570       8.50000      10.08990      11.79620      12.91070       2.58200      27.01750      77.12930      10.20000
    3782.00000      -5.81106      82.31510       8.53250       8.50000       9.84380      11.76950      12.47280       2.55330      27.43770      77.92740      10.20000
    3782.50000      -6.92239      82.99840       8.53240       8.50000       9.76760      11.95300      12.47500       2.56820      26.99800      78.89580      10.20000
    3783.00000      -7.92333      84.25510       8.54210       8.50000       9.96970      12.13930      12.47710       2.57450      26.48730      79.73190      10.20000
    3783.50000      -7.68596      85.80550       8.55880       8.50000      10.76480      12.32850      12.63720       2.57950      25.86360      81.94190      10.20000
    3784.00000      -7.15000      88.50960       8.55650       8.50000      11.62330      12.52070      12.94170       2.57990      25.42870      91.37220      10.20000
    3784.50000      -7.08093      85.69790       8.55030       8.50000      12.55030      12.89700      13.25340       2.57690      25.45200      96.57830      10.20000
    3785.00000      -6.98766      82.24740       8.53730       8.50000      20.13950      13.30850      13.57270       2.57350      25.64450      95.85050      10.20000
    3785.50000      -6.67850      78.54800       8.52350       8.50000      15.63200      13.73310      13.67860       2.57540      25.93950      93.22160      10.20000
    3786.00000      -6.83243      73.37820       8.50870       8.50000       9.60670      13.80520      13.67860       2.57690      25.53740      95.25090      10.20000
    3786.50000      -6.97477      69.55360       8.54530       8.50000       8.74100      13.57750      13.67860       2.57830      25.14070     105.18840      10.20000
    3787.00000      -6.08030      66.64010       8.58550       8.50000       8.47910      13.00170      13.44080       2.57520      24.93950     109.54870      10.20000
    3787.50000      -2.82704      64.46400       8.54940       8.50000       8.75620      11.00330      12.22920       2.55240      24.84230     107.67590      10.20000
    3788.00000      -3.14227      67.00450       8.53900       8.50000       8.66210       9.33880      10.44450       2.53460      25.31180      89.12350      10.20000
    3788.50000      -3.26861      70.28210       8.54410       8.50000       5.90000       8.32840       9.08010       2.51390      26.67950      90.84660      10.20000
    3789.00000      -2.98384      70.38260       8.56520       8.50000       5.21860       7.64120       8.73480       2.48560      27.50820      93.90550      10.20000
    3789.50000      -3.25488      67.58130       8.54030       8.50000       5.49260       7.89790       8.90920       2.49240      28.13910      93.79510      10.20000
    3790.00000      -5.44751      60.52460       8.52420       8.50000       5.54540       8.16310       9.08710       2.49920      27.48290      90.84350      10.20000
    3790.50000      -7.82435      52.85980       8.52780       8.50000       5.58730       8.47350       9.27270       2.50820      26.64280      94.01350      10.20000
    3791.00000      -8.20278      48.27240       8.55880       8.50000       6.04960       8.83070       9.46430       2.48830      26.52680      92.94400      10.20000
    3791.50000      -5.36872      45.57620       8.56320       8.50000       7.12960       9.20300       9.70110       2.45160      26.65730      84.96560      10.20000
    3792.00000      -4.97135      46.42100       8.56260       8.50000       8.50890       9.59100      10.01850       2.45310      26.66390      78.56800      10.20000
    3792.50000      -4.92549      49.38310       8.55170       8.50000       9.88160       9.98930      10.49550       2.46080      26.78710      76.09010      10.20000
    3793.00000      -5.48682      53.32120       8.56720       8.50000      10.56970      10.35780      11.04500       2.47860      26.77450      77.82720      10.20000
    3793.50000      -8.37106      57.51790       8.59700       8.50000      10.60880      10.74000      12.33430       2.49380      26.67620      78.48740      10.20000
