~VERSION INFORMATION
VERS.      2.0   :CWLS LOG ASCII STANDARD--VERSION 2.0
WRAP.      NO    :ONE LINE PER DEPTH STEP
~WELL INFORMATION
#MNEM.UNIT              DATA          DESCRIPTION
#================================================
STRT.FT                         98.00000 :START DEPTH
STOP.FT                       4360.00000 :STOP DEPTH
STEP.FT                          0.50000 :STEP
NULL.                         -999.00000 :NULL VALUE
COMP.   Data output from TerraStation II         : COMPANY
WELL.   Walakpa 2                                : WELL NAME
UWI.    50-023-20019                             : WELL UWI
API.    50-023-20019                             : WELL API
LOC.    31 20N 19W                               : WELL LOCATION
DATE.   NorthSlope.W07                           : WELL DATE
FLD.    No Project Selected                      : Project NAME
~CURVE INFORMATION
#================================================
M__DEPTH.FT                  :M__DEPTH
SP      .MV                  :SP
GR      .GAPI                :GR
CALI    .IN                  :CALI
BitSize .IN                  :BitSize
MSFL    .OHMM                :MSFL
LLD     .OHMM                :LLD
LLS     .OHMM                :LLS
RHOB    .G/CC                :RHOB
NPHI    .%                   :NPHI
DT      .US/F                :DT
MudWgt  .LBS/GAL             :MudWgt
~PARAMETER INFORMATION
#================================================
~OTHER INFORMATION
#================================================
~A
# ...
     410.00000     -73.13691      63.91140      13.86620      12.25000       9.40760      39.43320      15.77850       2.28770      46.59120     112.02850       9.80000
     410.50000     -72.82772      65.95960      13.83950      12.25000       9.79790      36.39490      15.84710       2.33220      44.92400     110.18810       9.80000
     411.00000     -71.82181      67.46860      13.81270      12.25000       9.93630      34.00570      15.56910       2.37880      44.42090     109.71360       9.80000
     411.50000     -71.07780      67.91780      13.78600      12.25000      10.07680      32.48590      15.33740       2.42330      44.60370     109.73570       9.80000
     412.00000     -70.84530      68.54440      13.67440      12.25000       9.87150      31.47520      15.02700       2.44700      44.43600     110.18470       9.80000
     412.50000     -71.62301      69.90440      13.54140      12.25000       9.45140      30.26590      14.76540       2.45890      44.35250     110.65440       9.80000
     413.00000     -72.24741      70.06100      13.39990      12.25000      10.02760      29.82130      14.70090       2.44550      45.48820     110.57740       9.80000
     413.50000     -73.00530      67.98840      13.28630      12.25000      11.19660      29.75000      15.03810       2.42840      46.18620     110.22930       9.80000
     414.00000     -73.27670      66.90550      13.05760      12.25000      12.56450      30.38550      15.71960       2.40780      46.45850     109.60870       9.80000
     414.50000     -73.23199      65.88230      13.02030      12.25000      12.09780      31.01560      15.83780       2.38650      46.25820     109.00780       9.80000
     415.00000     -72.97330      67.05250      12.96210      12.25000      11.82340      32.13100      16.27940       2.37830      45.55190     108.67840       9.80000
     415.50000     -72.36289      67.78220      12.89130      12.25000      12.13110      33.89210      16.29790       2.37840      46.46900     108.94190       9.80000
     416.00000     -71.98949      68.45620      12.84360      12.25000      12.36800      33.02820      15.76240       2.37750      46.98750     110.02920       9.80000
     416.50000     -71.55649      68.75260      12.80040      12.25000      11.47700      32.17860      15.20390       2.35410      47.39340     111.50540       9.80000
     417.00000     -70.73160      68.19500      12.76010      12.25000      11.29830      31.21280      14.70940       2.34150      47.75880     113.23240       9.80000
     417.50000     -70.28678      68.07100      12.72660      12.25000      11.58190      30.27590      14.02220       2.35200      46.96430     114.14900       9.80000
     418.00000     -70.39429      68.13880      12.70340      12.25000      11.44170      27.56690      13.61910       2.35990      44.69920     114.34420       9.80000
     418.50000     -69.94849      68.42550      12.68730      12.25000      11.31000      25.21440      13.52740       2.36800      42.66770     114.16510       9.80000
     419.00000     -69.91738      69.28690      12.69570      12.25000      11.18030      24.79390      13.34330       2.37380      41.93350     113.91050       9.80000
     419.50000     -69.78068      70.06660      12.71440      12.25000      10.75170      24.42470      13.22710       2.39130      42.36930     114.19590       9.80000
     420.00000     -69.74948      71.05440      12.69920      12.25000      10.14340      23.49020      13.04170       2.40650      41.74530     115.26960       9.80000
     420.50000     -70.03918      72.18590      12.69630      12.25000      10.84000      22.64670      12.97700       2.39340      40.52350     115.79750       9.80000
     421.00000     -69.88137      72.88650      12.76610      12.25000      11.17530      22.44940      12.86800       2.39560      39.38330     115.60560       9.80000
     421.50000     -69.53588      71.77740      12.80420      12.25000      11.40720      22.25380      13.35630       2.40320      38.32050     115.43240       9.80000
     422.00000     -68.84227      69.66700      12.80280      12.25000      10.83000      22.00080      13.20210       2.40420      38.47640     116.18030       9.80000
     422.50000     -67.86747      66.98970      12.80130      12.25000       9.41420      21.75020      12.91310       2.40240      38.98810     117.75080       9.80000
     423.00000     -66.81687      65.45000      12.85270      12.25000       8.92700      21.35460      13.08570       2.40710      38.23440     118.83420       9.80000
     423.50000     -66.08766      65.29400      12.92350      12.25000       8.98430      20.70320      13.24340       2.40860      37.21260     118.39900       9.80000
     424.00000     -65.42847      65.08040      13.05350      12.25000       9.65430      20.80700      13.61030       2.40150      36.14760     116.30460       9.80000
     424.50000     -64.77726      64.94530      13.14480      12.25000      10.24970      21.28460      13.99550       2.39450      35.37000     113.95570       9.80000
     425.00000     -64.03796      65.16290      13.01600      12.25000      10.66270      21.77320      14.09740       2.37040      36.06970     113.96260       9.80000
     425.50000     -62.95496      65.13980      12.97730      12.25000      11.19850      23.79490      14.43280       2.34990      37.68960     114.45730       9.80000
     426.00000     -61.91367      62.61270      12.98120      12.25000      15.28450      26.11320      16.16260       2.34530      38.87800     115.93940       9.80000
     426.50000     -60.77285      59.59550      12.95970      12.25000      17.66610      30.27790      18.09970       2.34570      39.96960     117.91080       9.80000
     427.00000     -58.72726      55.78020      12.99150      12.25000      16.98630      40.98870      20.26900       2.34790      40.55430     119.66860       9.80000
     427.50000     -57.06075      53.93020      13.02330      12.25000      14.00190      42.40140      22.84210       2.34060      41.30610     120.97210       9.80000
     428.00000     -55.55085      55.07950      13.06210      12.25000      10.57970      44.31220      23.66830       2.29080      42.97550     122.24940       9.80000
     428.50000     -54.08904      56.56680      13.05800      12.25000       9.53650      49.32220      23.32890       2.23850      44.03180     121.06600       9.80000
     429.00000     -52.47205      57.63510      13.03280      12.25000      11.00880      47.90430      22.60060       2.21450      44.95150     120.03420       9.80000
     429.50000     -50.84575      58.14090      13.00770      12.25000      12.79740      45.55970      22.13980       2.21170      46.33300     119.07500       9.80000
     430.00000     -49.52395      57.72890      13.02340      12.25000      14.23000      43.30130      21.74410       2.22540      46.02770     117.34500       9.80000
     430.50000     -48.21705      57.30740      13.04940      12.25000      15.25840      44.07910      21.56910       2.23910      44.64070     115.05050       9.80000
     431.00000     -45.76384      56.62520      12.98440      12.25000      16.29280      42.82240      21.81710       2.25280      44.50100     114.03760       9.80000
     431.50000     -44.27464      56.33480      12.91360      12.25000      17.33930      46.76040      22.73220       2.28290      45.78770     112.89370       9.80000
     432.00000     -42.79104      56.25280      12.85630      12.25000      15.86820      48.37000      23.82410       2.30350      47.51620     113.00070       9.80000
     432.50000     -40.78324      56.57790      13.00090      12.25000      13.80580      49.38140      24.56090       2.31050      49.01530     113.89080       9.80000
     433.00000     -39.52274      57.14620      13.05380      12.25000      12.03490      52.00030      24.40920       2.30710      49.20700     114.66670       9.80000
     433.50000     -37.46524      57.39290      13.05930      12.25000      10.67540      55.15020      23.17770       2.29090      47.94500     114.94050       9.80000
