~VERSION INFORMATION
VERS.      2.0   :CWLS LOG ASCII STANDARD--VERSION 2.0
WRAP.      NO    :ONE LINE PER DEPTH STEP
~WELL INFORMATION
#MNEM.UNIT              DATA          DESCRIPTION
#================================================
STRT.FT                         98.00000 :START DEPTH
STOP.FT                       4360.00000 :STOP DEPTH
STEP.FT                          0.50000 :STEP
NULL.                         -999.00000 :NULL VALUE
COMP.   Data output from TerraStation II         : COMPANY
WELL.   Walakpa 2                                : WELL NAME
UWI.    50-023-20019                             : WELL UWI
API.    50-023-20019                             : WELL API
LOC.    31 20N 19W                               : WELL LOCATION
DATE.   NorthSlope.W07                           : WELL DATE
FLD.    No Project Selected                      : Project NAME
~CURVE INFORMATION
#================================================
M__DEPTH.FT                  :M__DEPTH
SP      .MV                  :SP
GR      .GAPI                :GR
CALI    .IN                  :CALI
BitSize .IN                  :BitSize
MSFL    .OHMM                :MSFL
LLD     .OHMM                :LLD
LLS     .OHMM                :LLS
RHOB    .G/CC                :RHOB
NPHI    .%                   :NPHI
DT      .US/F                :DT
MudWgt  .LBS/GAL             :MudWgt
~PARAMETER INFORMATION
#================================================
~OTHER INFORMATION
#================================================
~A
# ...
    1514.00000     -22.27878      81.50430      16.35760      12.25000       7.26930       9.72820      11.45990       2.11840      48.27260     104.58670       9.50000
    1514.50000     -21.99082      81.35230      15.96650      12.25000       8.48470      10.02120      11.68720       2.15340      48.09380     104.21100       9.50000
    1515.00000     -21.91496      81.73570      15.79700      12.25000       9.09380      10.32290      11.77030       2.20530      48.46890     103.83540       9.50000
    1515.50000     -22.18759      82.15970      16.21980      12.25000       9.59990      10.49740      11.75860       2.21650      48.67940     102.91300       9.50000
    1516.00000     -22.29953      82.30150      15.69010      12.25000       9.39180      10.46060      11.74700       2.22290      48.42940     102.21710       9.50000
    1516.50000     -22.32457      82.51410      15.25130      12.25000       9.21600      10.41130      11.56950       2.23080      48.22940     101.86770       9.50000
    1517.00000     -22.32201      87.26890      15.40670      12.25000       9.26480      10.33240      11.34110       2.26700      48.21380     102.86790       9.50000
    1517.50000     -22.18115      89.31120      15.55810      12.25000       9.29600      10.25410      11.19820       2.29650      47.70200     102.73620       9.50000
    1518.00000     -22.06279      91.62380      15.93170      12.25000       9.22100      10.17630      11.14440       2.24930      46.66510     102.84790       9.50000
    1518.50000     -22.12533      88.65520      16.17450      12.25000       9.25980      10.09920      11.09090       2.17430      45.45820     103.01660       9.50000
    1519.00000     -22.15086      86.68610      14.84160      12.25000       9.44950      10.06570      11.05340       2.18750      44.07150     103.26320       9.50000
    1519.50000     -22.07420      85.55460      14.30670      12.25000       8.94550      10.08340      11.02950       2.23630      43.29170     103.60370       9.50000
    1520.00000     -21.95074      84.06300      14.95680      12.25000       8.01580      10.10110      11.00570       2.22350      42.28040     105.03950       9.50000
    1520.50000     -21.19058      84.37710      15.33370      12.25000       6.69280      10.11890      10.96080       2.21380      41.21350     105.90500       9.50000
    1521.00000     -20.43032      84.84980      15.25310      12.25000       6.09610      10.13660      10.91450       2.20400      41.94230     107.26940       9.50000
    1521.50000     -19.76266      85.26280      15.10840      12.25000       6.10780      10.02540      10.86840       2.19430      43.11190     107.68090       9.50000
    1522.00000     -19.20700      85.79530      15.02390      12.25000       6.42260       9.88540      10.82250       2.18460      43.05780     108.23420       9.50000
    1522.50000     -18.65133      86.29900      15.69410      12.25000       6.71880       9.76150      10.78820       2.17490      42.83940     109.12750       9.50000
    1523.00000     -18.09567      86.39250      15.89870      12.25000       6.88310       9.66060      10.84920       2.16520      43.15530     109.35010       9.50000
    1523.50000     -17.27981      84.83410      15.90140      12.25000       6.84600       9.56080      10.91060       2.14920      43.59340     109.50020       9.50000
    1524.00000     -15.46435      86.00320      15.28540      12.25000       6.53970       9.40890      10.97230       2.12880      43.12410     108.58660       9.50000
    1524.50000     -14.38779      87.08160      15.00190      12.25000       6.12670       9.21520      11.01680       2.14580      41.69330     109.24890       9.50000
    1525.00000     -13.39202      86.58640      15.21530      12.25000       5.50990       9.29540      10.98820       2.15600      41.20930     109.61480       9.50000
    1525.50000     -12.74036      86.02330      15.20240      12.25000       5.04400       9.37830      10.76660       2.16470      42.71560     109.42920       9.50000
    1526.00000     -12.01270      83.47600      15.58190      12.25000       5.22740       9.41020      10.54950       2.17950      43.66170     110.85270       9.50000
    1526.50000     -11.24244      84.45130      16.05800      12.25000       4.59250       9.42240      10.37060       2.14860      43.92330     112.14800       9.50000
    1527.00000     -11.20928      85.43550      15.99480      12.25000       3.41060       9.33980      10.19830       2.12890      45.90090     113.51530       9.50000
    1527.50000     -11.30602      88.42760      15.82560      12.25000       3.59080       9.25780      10.04930       2.14610      48.20190     114.53780       9.50000
    1528.00000     -11.16266      88.70350      15.88380      12.25000       5.76860       9.25080      10.00170       2.10620      49.27640     112.25480       9.50000
    1528.50000     -11.01929      88.60540      15.94190      12.25000       7.18940       9.20120       9.95430       2.06640      49.04300     111.01630       9.50000
    1529.00000     -10.83393      88.39510      16.00010      12.25000       7.18300       9.22230      10.05840       2.04180      47.46740     109.33880       9.50000
    1529.50000     -10.88567      87.86990      15.14740      12.25000       7.26250       9.35610      10.18590       2.01130      46.74870     108.85830       9.50000
    1530.00000     -11.02421      87.71660      15.64130      12.25000       8.73930       9.49180      10.31500       2.07640      47.24270     108.76760       9.50000
    1530.50000     -10.41315      87.66120      15.71630      12.25000       8.89890       9.62950      10.39320       2.16630      48.00510     108.67700       9.50000
    1531.00000     -10.37759      87.99910      15.60370      12.25000       8.97300       9.76920      10.45270       2.15340      47.76820     108.20760       9.50000
    1531.50000     -10.70282      88.65130      15.08790      12.25000       8.76310       9.93020      10.51260       2.15270      46.91700     106.50450       9.50000
    1532.00000     -10.76506      88.58740      15.77740      12.25000       7.77370       9.71650      10.36690       2.14410      47.26470     106.13460       9.50000
    1532.50000     -10.47630      85.77150      15.97460      12.25000       5.74610       9.50730      10.18090       2.11630      47.89920     106.43010       9.50000
    1533.00000     -11.08664      83.32050      15.29710      12.25000       4.81810       9.13560       9.77760       2.15070      48.10890     106.22940       9.50000
    1533.50000     -11.59958      79.30550      16.06880      12.25000       4.60770       8.77000       9.39030       2.14040      49.56650     106.94320       9.50000
    1534.00000     -11.98442      78.78470      15.87720      12.25000       4.44010       8.37650       9.17930       2.12910      51.43220     108.54590       9.50000
    1534.50000     -12.35166      79.32240      16.14500      12.25000       4.60900       8.50580       9.01180       2.20070      52.36470     108.69500       9.50000
    1535.00000     -12.71889      79.99350      16.58650      12.25000       4.81510       8.62050       9.13150       2.17810      52.22030     107.98630       9.50000
    1535.50000     -13.08613      80.61160      16.68900      12.25000       5.16150       8.88370       9.32630       2.14190      52.19550     107.34490       9.50000
    1536.00000     -13.02947      81.35070      16.67470      12.25000       5.67250       9.15480       9.52530       2.16370      50.95580     106.53860       9.50000
    1536.50000     -12.91661      82.00060      16.24080      12.25000       6.35060       9.43160       9.72850       2.19060      49.03970     108.53450       9.50000
    1537.00000     -13.00755      81.88210      16.26200      12.25000       6.43510       9.73660      10.06440       2.18720      47.52900     107.53140       9.50000
    1537.50000     -13.20658      82.06250      16.17550      12.25000       5.94460       9.89120      10.41670       2.15770      47.16480     105.77440       9.50000
