~VERSION INFORMATION
VERS.      2.0   :CWLS LOG ASCII STANDARD--VERSION 2.0
WRAP.      NO    :ONE LINE PER DEPTH STEP
~WELL INFORMATION
#MNEM.UNIT              DATA          DESCRIPTION
#================================================
STRT.FT                         98.00000 :START DEPTH
STOP.FT                       4360.00000 :STOP DEPTH
STEP.FT                          0.50000 :STEP
NULL.                         -999.00000 :NULL VALUE
COMP.   Data output from TerraStation II         : COMPANY
WELL.   Walakpa 2                                : WELL NAME
UWI.    50-023-20019                             : WELL UWI
API.    50-023-20019                             : WELL API
LOC.    31 20N 19W                               : WELL LOCATION
DATE.   NorthSlope.W07                           : WELL DATE
FLD.    No Project Selected                      : Project NAME
~CURVE INFORMATION
#================================================
M__DEPTH.FT                  :M__DEPTH
SP      .MV                  :SP
GR      .GAPI                :GR
CALI    .IN                  :CALI
BitSize .IN                  :BitSize
MSFL    .OHMM                :MSFL
LLD     .OHMM                :LLD
LLS     .OHMM                :LLS
RHOB    .G/CC                :RHOB
NPHI    .%                   :NPHI
DT      .US/F                :DT
MudWgt  .LBS/GAL             :MudWgt
~PARAMETER INFORMATION
#================================================
~OTHER INFORMATION
#================================================
~A
# ...
    3482.00000     -13.01820      81.43310       8.73180       8.50000       5.15660       9.06530      10.38580       2.50730      25.17510      84.79580      10.30000
    3482.50000     -12.66364      83.21530       8.72270       8.50000       6.10330       8.93400      10.19760       2.52430      24.84370      85.56410      10.30000
    3483.00000     -12.15647      82.67110       8.71160       8.50000       6.73930       9.16360      10.35710       2.52770      24.87650      86.04000      10.30000
    3483.50000     -11.37091      79.94860       8.69960       8.50000       7.14720      10.30130      11.52490       2.52310      25.11410      86.72650      10.30000
    3484.00000     -11.31654      74.71780       8.65330       8.50000       7.81390      11.73110      12.86360       2.51780      25.33330      86.86910      10.30000
    3484.50000     -11.60688      70.77140       8.51840       8.50000       8.73650      13.35940      14.40440       2.52130      24.86780      86.88280      10.30000
    3485.00000     -12.24831      67.85940       8.51060       8.50000      10.12410      14.38670      16.07190       2.52520      24.09770      85.70480      10.30000
    3485.50000     -13.21055      63.80470       8.58500       8.50000      11.68510      13.65280      15.47430       2.53140      23.32760      82.26040      10.30000
    3486.00000     -13.03078      61.47280       8.65320       8.50000      10.94500      12.50850      13.19930       2.54740      22.83050      80.22900      10.30000
    3486.50000     -12.80091      65.48990       8.64940       8.50000       9.52390      11.46010      11.41840       2.55600      24.47830      79.16250      10.30000
    3487.00000     -12.48755      73.17570       8.62260       8.50000       8.43010      11.38340       9.88060       2.56970      25.47610      80.61920      10.30000
    3487.50000     -12.13809      79.45760       8.59970       8.50000       9.87310      11.42190       9.51480       2.56990      26.20080      83.85980      10.30000
    3488.00000     -11.53502      82.33770       8.57570       8.50000      12.96250      11.75470       9.62860       2.56910      26.47470      86.37480      10.30000
    3488.50000     -10.11135      81.10900       8.55140       8.50000      14.44280      12.21230       9.74640       2.55620      25.96490      85.62490      10.30000
    3489.00000      -4.45889      79.40910       8.53220       8.50000      13.69880      12.19320       9.95000       2.53520      25.44170      84.82950      10.30000
    3489.50000      -5.24592      77.00950       8.55290       8.50000      14.32390      11.37880      10.03460       2.52590      24.98100      82.87040      10.30000
    3490.00000      -6.82986      74.31250       8.54040       8.50000      12.71000      10.61880      10.36600       2.51620      24.45480      82.89840      10.30000
    3490.50000      -8.65849      76.53050       8.54880       8.50000      10.72040       9.90960      11.57080       2.50930      25.70780      82.95130      10.30000
    3491.00000      -9.80363      77.29030       8.63400       8.50000       9.55400       9.26880      11.50160       2.51840      26.28200      81.10150      10.30000
    3491.50000      -9.47026      77.82050       8.64970       8.50000       9.07630       9.22860      11.06500       2.52890      26.25060      83.15440      10.30000
    3492.00000      -9.01510      80.10620       8.65750       8.50000       8.72060       9.20760      10.63000       2.52180      26.70400      83.99170      10.30000
    3492.50000      -9.88623      83.03610       8.65920       8.50000       8.47840       9.19360      10.32900       2.52920      27.08730      84.82910      10.30000
    3493.00000     -10.75747      87.06420       8.66910       8.50000       9.63280       9.30720      10.45660       2.53760      27.24220      85.59820      10.30000
    3493.50000     -11.02760      89.14010       8.68730       8.50000       9.94140       9.44060      10.28550       2.54600      27.56950      86.45110      10.30000
    3494.00000     -11.20694      89.58060       8.68510       8.50000       9.01580       9.54810       9.92820       2.56750      28.20730      86.46470      10.30000
    3494.50000     -11.37257      89.79370       8.68310       8.50000       8.62850       9.65320       9.58330       2.54990      28.54760      86.34670      10.30000
    3495.00000     -11.48061      90.16660       8.70880       8.50000       9.08000      10.09210      10.38830       2.54290      28.77670      86.76990      10.30000
    3495.50000     -11.41164      89.91630       8.70470       8.50000       9.56240      11.33170      11.32130       2.52850      29.61800      86.77820      10.30000
    3496.00000     -10.84138      89.24090       8.64620       8.50000      10.10560      12.84200      12.94170       2.52210      28.67080      86.53810      10.30000
    3496.50000      -9.56771      85.67540       8.56690       8.50000      10.67960      15.12590      15.06410       2.51530      26.89080      86.15450      10.30000
    3497.00000      -8.60855      80.11520       8.61900       8.50000      11.28630      16.72690      15.75370       2.51960      24.07550      83.83820      10.30000
    3497.50000      -7.40678      72.65790       8.68060       8.50000      11.92740      14.85930      13.58080       2.54200      23.86400      80.41360      10.30000
    3498.00000      -9.47122      67.14820       8.69500       8.50000      11.75270      12.23750      11.04990       2.54100      24.82690      77.94370      10.30000
    3498.50000      -9.77415      69.25080       8.70110       8.50000      10.77950      11.17680       9.24380       2.53140      26.96960      78.43520      10.30000
    3499.00000      -8.13018      75.35360       8.70000       8.50000      10.33840      10.94060       9.47460       2.52400      28.14600      80.53780      10.30000
    3499.50000      -8.74102      79.67500       8.66700       8.50000      10.88910      11.40800      10.08990       2.51880      27.41910      83.67860      10.30000
    3500.00000     -10.37305      84.68670       8.63550       8.50000      11.46910      11.89550      10.32880       2.51440      25.03000      85.81610      10.30000
    3500.50000     -11.61909      81.37540       8.67100       8.50000      11.06560      11.90250      10.09570       2.51010      24.67300      84.26900      10.30000
    3501.00000     -11.86412      81.65940       8.73140       8.50000      10.54680      10.97980       9.66450       2.50730      24.57410      82.73800      10.30000
    3501.50000     -12.34996      82.09060       8.75910       8.50000      10.05240      10.04640       9.28060       2.51360      25.54460      82.13090      10.30000
    3502.00000     -13.01669      83.88130       8.78640       8.50000       9.61800       9.19230       8.99110       2.51980      28.40790      82.59710      10.30000
    3502.50000     -13.09883      87.20740       8.81270       8.50000       9.23600       8.57370       8.71060       2.52340      29.38030      84.72800      10.30000
    3503.00000     -12.93176      90.24500       8.82450       8.50000       8.86910       8.23630       8.48030       2.52770      29.02340      86.41780      10.30000
    3503.50000     -13.09100      91.46080       8.83040       8.50000       8.46610       7.91530       8.28540       2.53470      28.45330      87.54360      10.30000
    3504.00000     -11.59583      90.05550       8.84220       8.50000       8.02490       7.73450       8.09490       2.55860      27.81470      86.84340      10.30000
    3504.50000     -10.76307      88.92310       8.84300       8.50000       7.60880       7.55770       7.93500       2.55380      27.72710      85.95040      10.30000
    3505.00000     -10.58610      89.23970       8.83610       8.50000       7.21450       7.38550       7.96660       2.55270      28.40570      85.88770      10.30000
    3505.50000     -13.00674      91.64900       8.79020       8.50000       6.84060       7.27570       8.02450       2.56040      29.22860      87.01190      10.30000
